[{"station":"IT0898A","station_name":"Napoli NA06 Museo Nazionale","pollutant":"NO2","date":"2025-11-10","value":49.0325,"Ore_Disponibili":24,"lat":40.8536064,"lon":14.25115,"date_only":"2025-11-10T00:00:00.000"},{"station":"IT0898A","station_name":"Napoli NA06 Museo Nazionale","pollutant":"PM10","date":"2025-11-10","value":22.1041666667,"Ore_Disponibili":24,"lat":40.8536064,"lon":14.25115,"date_only":"2025-11-10T00:00:00.000"},{"station":"IT0934A","station_name":"Benevento BN32 Via Mustilli","pollutant":"NO2","date":"2025-11-10","value":20.0779166667,"Ore_Disponibili":24,"lat":41.1317868,"lon":14.7885516,"date_only":"2025-11-10T00:00:00.000"},{"station":"IT0934A","station_name":"Benevento BN32 Via Mustilli","pollutant":"PM10","date":"2025-11-10","value":17.9375,"Ore_Disponibili":24,"lat":41.1317868,"lon":14.7885516,"date_only":"2025-11-10T00:00:00.000"},{"station":"IT0936A","station_name":"Avellino AV41 Sc. V Circolo \u00b0","pollutant":"NO2","date":"2025-11-10","value":18.69875,"Ore_Disponibili":24,"lat":40.9152,"lon":14.7955,"date_only":"2025-11-10T00:00:00.000"},{"station":"IT0936A","station_name":"Avellino AV41 Sc. V Circolo \u00b0","pollutant":"O3","date":"2025-11-10","value":47.1441666667,"Ore_Disponibili":24,"lat":40.9152,"lon":14.7955,"date_only":"2025-11-10T00:00:00.000"},{"station":"IT0936A","station_name":"Avellino AV41 Sc. V Circolo \u00b0","pollutant":"PM10","date":"2025-11-10","value":13.5975,"Ore_Disponibili":24,"lat":40.9152,"lon":14.7955,"date_only":"2025-11-10T00:00:00.000"},{"station":"IT1041A","station_name":"Salerno SA23 Scuola Conti \u00b0","pollutant":"NO2","date":"2025-11-10","value":22.2041666667,"Ore_Disponibili":24,"lat":40.675,"lon":14.768,"date_only":"2025-11-10T00:00:00.000"},{"station":"IT1041A","station_name":"Salerno SA23 Scuola Conti \u00b0","pollutant":"O3","date":"2025-11-10","value":49.22,"Ore_Disponibili":22,"lat":40.675,"lon":14.768,"date_only":"2025-11-10T00:00:00.000"},{"station":"IT1486A","station_name":"Caserta CE51 Ist. Manzoni","pollutant":"NO2","date":"2025-11-10","value":25.9083333333,"Ore_Disponibili":24,"lat":41.0818,"lon":14.3349,"date_only":"2025-11-10T00:00:00.000"},{"station":"IT1486A","station_name":"Caserta CE51 Ist. Manzoni","pollutant":"O3","date":"2025-11-10","value":46.415,"Ore_Disponibili":24,"lat":41.0818,"lon":14.3349,"date_only":"2025-11-10T00:00:00.000"},{"station":"IT1486A","station_name":"Caserta CE51 Ist. Manzoni","pollutant":"PM10","date":"2025-11-10","value":10.6913043478,"Ore_Disponibili":23,"lat":41.0818,"lon":14.3349,"date_only":"2025-11-10T00:00:00.000"},{"station":"IT1487A","station_name":"Caserta CE52 Sc. De Amicis","pollutant":"NO2","date":"2025-11-10","value":20.3339130435,"Ore_Disponibili":23,"lat":41.0085302,"lon":14.0787912,"date_only":"2025-11-10T00:00:00.000"},{"station":"IT1487A","station_name":"Caserta CE52 Sc. De Amicis","pollutant":"PM10","date":"2025-11-10","value":18.8,"Ore_Disponibili":24,"lat":41.0085302,"lon":14.0787912,"date_only":"2025-11-10T00:00:00.000"},{"station":"IT1488A","station_name":"Maddaloni CE54 Sc. Settembrini","pollutant":"NO2","date":"2025-11-10","value":21.6452380952,"Ore_Disponibili":21,"lat":41.094,"lon":14.402,"date_only":"2025-11-10T00:00:00.000"},{"station":"IT1488A","station_name":"Maddaloni CE54 Sc. Settembrini","pollutant":"O3","date":"2025-11-10","value":35.14,"Ore_Disponibili":23,"lat":41.094,"lon":14.402,"date_only":"2025-11-10T00:00:00.000"},{"station":"IT1488A","station_name":"Maddaloni CE54 Sc. Settembrini","pollutant":"PM10","date":"2025-11-10","value":15.4470833333,"Ore_Disponibili":24,"lat":41.094,"lon":14.402,"date_only":"2025-11-10T00:00:00.000"},{"station":"IT1491A","station_name":"Napoli NA07 Ferrovia \u00b0","pollutant":"NO2","date":"2025-11-10","value":50.6154166667,"Ore_Disponibili":24,"lat":40.8277815,"lon":14.3989433,"date_only":"2025-11-10T00:00:00.000"},{"station":"IT1491A","station_name":"Napoli NA07 Ferrovia \u00b0","pollutant":"PM10","date":"2025-11-10","value":24.9772727273,"Ore_Disponibili":22,"lat":40.8277815,"lon":14.3989433,"date_only":"2025-11-10T00:00:00.000"},{"station":"IT1493A","station_name":"Napoli NA09 Via Argine","pollutant":"NO2","date":"2025-11-10","value":48.3808333333,"Ore_Disponibili":24,"lat":40.8560636,"lon":14.3234622,"date_only":"2025-11-10T00:00:00.000"},{"station":"IT1493A","station_name":"Napoli NA09 Via Argine","pollutant":"PM10","date":"2025-11-10","value":28.1583333333,"Ore_Disponibili":24,"lat":40.8560636,"lon":14.3234622,"date_only":"2025-11-10T00:00:00.000"},{"station":"IT1495A","station_name":"Napoli NA08 Osp. N. Pellegrini","pollutant":"NO2","date":"2025-11-10","value":37.9225,"Ore_Disponibili":24,"lat":40.8535,"lon":14.235,"date_only":"2025-11-10T00:00:00.000"},{"station":"IT1495A","station_name":"Napoli NA08 Osp. N. Pellegrini","pollutant":"PM10","date":"2025-11-10","value":21.6,"Ore_Disponibili":24,"lat":40.8535,"lon":14.235,"date_only":"2025-11-10T00:00:00.000"},{"station":"IT1496A","station_name":"Napoli NA02 Osp. Santobono \u00b0","pollutant":"NO2","date":"2025-11-10","value":46.5566666667,"Ore_Disponibili":24,"lat":40.8554,"lon":14.2231,"date_only":"2025-11-10T00:00:00.000"},{"station":"IT1496A","station_name":"Napoli NA02 Osp. Santobono \u00b0","pollutant":"PM10","date":"2025-11-10","value":13.7191666667,"Ore_Disponibili":24,"lat":40.8554,"lon":14.2231,"date_only":"2025-11-10T00:00:00.000"},{"station":"IT1497A","station_name":"Napoli NA01 Oss. Astronomico","pollutant":"NO2","date":"2025-11-10","value":17.8825,"Ore_Disponibili":24,"lat":40.853,"lon":14.305,"date_only":"2025-11-10T00:00:00.000"},{"station":"IT1497A","station_name":"Napoli NA01 Oss. Astronomico","pollutant":"O3","date":"2025-11-10","value":50.5216666667,"Ore_Disponibili":24,"lat":40.853,"lon":14.305,"date_only":"2025-11-10T00:00:00.000"},{"station":"IT1497A","station_name":"Napoli NA01 Oss. Astronomico","pollutant":"PM10","date":"2025-11-10","value":8.5075,"Ore_Disponibili":24,"lat":40.853,"lon":14.305,"date_only":"2025-11-10T00:00:00.000"},{"station":"IT1504A","station_name":"Salerno SA22 Osp. Via Vernieri","pollutant":"NO2","date":"2025-11-10","value":18.54875,"Ore_Disponibili":24,"lat":40.682,"lon":14.766,"date_only":"2025-11-10T00:00:00.000"},{"station":"IT1504A","station_name":"Salerno SA22 Osp. Via Vernieri","pollutant":"PM10","date":"2025-11-10","value":11.6869565217,"Ore_Disponibili":23,"lat":40.682,"lon":14.766,"date_only":"2025-11-10T00:00:00.000"},{"station":"IT2210A","station_name":"Solofra Zona Industriale","pollutant":"NO2","date":"2025-11-10","value":7.122173913,"Ore_Disponibili":23,"lat":41.058,"lon":14.808,"date_only":"2025-11-10T00:00:00.000"},{"station":"IT2210A","station_name":"Solofra Zona Industriale","pollutant":"PM10","date":"2025-11-10","value":14.6216666667,"Ore_Disponibili":24,"lat":41.058,"lon":14.808,"date_only":"2025-11-10T00:00:00.000"},{"station":"IT2211A","station_name":"Acerra Zona Industriale","pollutant":"NO2","date":"2025-11-10","value":39.1839130435,"Ore_Disponibili":23,"lat":40.9847962,"lon":14.3679606,"date_only":"2025-11-10T00:00:00.000"},{"station":"IT2211A","station_name":"Acerra Zona Industriale","pollutant":"PM10","date":"2025-11-10","value":26.0,"Ore_Disponibili":24,"lat":40.9847962,"lon":14.3679606,"date_only":"2025-11-10T00:00:00.000"},{"station":"IT2212A","station_name":"S. Vitaliano Scuola Marconi","pollutant":"NO2","date":"2025-11-10","value":49.1752173913,"Ore_Disponibili":23,"lat":40.896,"lon":14.46,"date_only":"2025-11-10T00:00:00.000"},{"station":"IT2212A","station_name":"S. Vitaliano Scuola Marconi","pollutant":"O3","date":"2025-11-10","value":27.2347826087,"Ore_Disponibili":23,"lat":40.896,"lon":14.46,"date_only":"2025-11-10T00:00:00.000"},{"station":"IT2212A","station_name":"S. Vitaliano Scuola Marconi","pollutant":"PM10","date":"2025-11-10","value":22.5070833333,"Ore_Disponibili":24,"lat":40.896,"lon":14.46,"date_only":"2025-11-10T00:00:00.000"},{"station":"IT2213A","station_name":"Cava dei Tirreni Stadio","pollutant":"NO2","date":"2025-11-10","value":20.71,"Ore_Disponibili":23,"lat":40.7125,"lon":14.638,"date_only":"2025-11-10T00:00:00.000"},{"station":"IT2213A","station_name":"Cava dei Tirreni Stadio","pollutant":"O3","date":"2025-11-10","value":50.3086956522,"Ore_Disponibili":23,"lat":40.7125,"lon":14.638,"date_only":"2025-11-10T00:00:00.000"},{"station":"IT2213A","station_name":"Cava dei Tirreni Stadio","pollutant":"PM10","date":"2025-11-10","value":14.6741666667,"Ore_Disponibili":24,"lat":40.7125,"lon":14.638,"date_only":"2025-11-10T00:00:00.000"},{"station":"IT2214A","station_name":"Nocera Inferiore Sc. Solimena","pollutant":"NO2","date":"2025-11-10","value":24.0847826087,"Ore_Disponibili":23,"lat":40.7473393,"lon":14.6410145,"date_only":"2025-11-10T00:00:00.000"},{"station":"IT2214A","station_name":"Nocera Inferiore Sc. Solimena","pollutant":"PM10","date":"2025-11-10","value":16.6191666667,"Ore_Disponibili":24,"lat":40.7473393,"lon":14.6410145,"date_only":"2025-11-10T00:00:00.000"},{"station":"IT2215A","station_name":"Benevento Zona Industriale \u00b0","pollutant":"NO2","date":"2025-11-10","value":10.5795833333,"Ore_Disponibili":24,"lat":41.2293368,"lon":14.4782074,"date_only":"2025-11-10T00:00:00.000"},{"station":"IT2215A","station_name":"Benevento Zona Industriale \u00b0","pollutant":"O3","date":"2025-11-10","value":54.7860869565,"Ore_Disponibili":23,"lat":41.2293368,"lon":14.4782074,"date_only":"2025-11-10T00:00:00.000"},{"station":"IT2215A","station_name":"Benevento Zona Industriale \u00b0","pollutant":"PM10","date":"2025-11-10","value":12.5375,"Ore_Disponibili":24,"lat":41.2293368,"lon":14.4782074,"date_only":"2025-11-10T00:00:00.000"},{"station":"IT2216A","station_name":"Casoria Scuola Palizzi","pollutant":"NO2","date":"2025-11-10","value":42.1518181818,"Ore_Disponibili":22,"lat":40.904,"lon":14.289,"date_only":"2025-11-10T00:00:00.000"},{"station":"IT2216A","station_name":"Casoria Scuola Palizzi","pollutant":"O3","date":"2025-11-10","value":28.407826087,"Ore_Disponibili":23,"lat":40.904,"lon":14.289,"date_only":"2025-11-10T00:00:00.000"},{"station":"IT2216A","station_name":"Casoria Scuola Palizzi","pollutant":"PM10","date":"2025-11-10","value":26.1275,"Ore_Disponibili":24,"lat":40.904,"lon":14.289,"date_only":"2025-11-10T00:00:00.000"},{"station":"IT2217A","station_name":"Torre Annunziata Sc. Pascoli","pollutant":"NO2","date":"2025-11-10","value":21.3859090909,"Ore_Disponibili":22,"lat":40.7469754,"lon":14.4608234,"date_only":"2025-11-10T00:00:00.000"},{"station":"IT2217A","station_name":"Torre Annunziata Sc. Pascoli","pollutant":"O3","date":"2025-11-10","value":44.6156521739,"Ore_Disponibili":23,"lat":40.7469754,"lon":14.4608234,"date_only":"2025-11-10T00:00:00.000"},{"station":"IT2218A","station_name":"San Felice a Cancello C. Scolast.","pollutant":"NO2","date":"2025-11-10","value":16.8081818182,"Ore_Disponibili":22,"lat":41.015,"lon":14.287,"date_only":"2025-11-10T00:00:00.000"},{"station":"IT2218A","station_name":"San Felice a Cancello C. Scolast.","pollutant":"O3","date":"2025-11-10","value":52.0339130435,"Ore_Disponibili":23,"lat":41.015,"lon":14.287,"date_only":"2025-11-10T00:00:00.000"},{"station":"IT2218A","station_name":"San Felice a Cancello C. Scolast.","pollutant":"PM10","date":"2025-11-10","value":17.7291666667,"Ore_Disponibili":24,"lat":41.015,"lon":14.287,"date_only":"2025-11-10T00:00:00.000"},{"station":"IT2219A","station_name":"Acerra Scuola Caporale","pollutant":"NO2","date":"2025-11-10","value":30.9122727273,"Ore_Disponibili":22,"lat":40.9071,"lon":14.3429,"date_only":"2025-11-10T00:00:00.000"},{"station":"IT2219A","station_name":"Acerra Scuola Caporale","pollutant":"PM10","date":"2025-11-10","value":24.1654166667,"Ore_Disponibili":24,"lat":40.9071,"lon":14.3429,"date_only":"2025-11-10T00:00:00.000"},{"station":"IT2221A","station_name":"Napoli via Epomeo *\u00b0","pollutant":"NO2","date":"2025-11-10","value":29.82,"Ore_Disponibili":24,"lat":40.7205434,"lon":13.8987737,"date_only":"2025-11-10T00:00:00.000"},{"station":"IT2221A","station_name":"Napoli via Epomeo *\u00b0","pollutant":"O3","date":"2025-11-10","value":20.3666666667,"Ore_Disponibili":24,"lat":40.7205434,"lon":13.8987737,"date_only":"2025-11-10T00:00:00.000"},{"station":"IT2221A","station_name":"Napoli via Epomeo *\u00b0","pollutant":"PM10","date":"2025-11-10","value":16.69875,"Ore_Disponibili":24,"lat":40.7205434,"lon":13.8987737,"date_only":"2025-11-10T00:00:00.000"},{"station":"IT2223A","station_name":"Volla Via Filichito *\u00b0","pollutant":"NO2","date":"2025-11-10","value":39.4654166667,"Ore_Disponibili":24,"lat":40.8824226,"lon":14.3478545,"date_only":"2025-11-10T00:00:00.000"},{"station":"IT2223A","station_name":"Volla Via Filichito *\u00b0","pollutant":"O3","date":"2025-11-10","value":14.9330434783,"Ore_Disponibili":23,"lat":40.8824226,"lon":14.3478545,"date_only":"2025-11-10T00:00:00.000"},{"station":"IT2223A","station_name":"Volla Via Filichito *\u00b0","pollutant":"PM10","date":"2025-11-10","value":16.0039130435,"Ore_Disponibili":23,"lat":40.8824226,"lon":14.3478545,"date_only":"2025-11-10T00:00:00.000"},{"station":"IT2226A","station_name":"Pomigliano d'Arco Area Asi","pollutant":"NO2","date":"2025-11-10","value":44.7243478261,"Ore_Disponibili":23,"lat":40.412,"lon":15.341,"date_only":"2025-11-10T00:00:00.000"},{"station":"IT2226A","station_name":"Pomigliano d'Arco Area Asi","pollutant":"PM10","date":"2025-11-10","value":21.5,"Ore_Disponibili":24,"lat":40.412,"lon":15.341,"date_only":"2025-11-10T00:00:00.000"},{"station":"IT2227A","station_name":"Avellino Scuola Alighieri","pollutant":"NO2","date":"2025-11-10","value":28.84875,"Ore_Disponibili":24,"lat":40.9190395,"lon":14.784947,"date_only":"2025-11-10T00:00:00.000"},{"station":"IT2227A","station_name":"Avellino Scuola Alighieri","pollutant":"PM10","date":"2025-11-10","value":8.2195833333,"Ore_Disponibili":24,"lat":40.9190395,"lon":14.784947,"date_only":"2025-11-10T00:00:00.000"},{"station":"IT2228A","station_name":"Benevento Campo Sportivo","pollutant":"NO2","date":"2025-11-10","value":15.21,"Ore_Disponibili":24,"lat":41.2315276,"lon":14.5332703,"date_only":"2025-11-10T00:00:00.000"},{"station":"IT2228A","station_name":"Benevento Campo Sportivo","pollutant":"O3","date":"2025-11-10","value":58.3258333333,"Ore_Disponibili":24,"lat":41.2315276,"lon":14.5332703,"date_only":"2025-11-10T00:00:00.000"},{"station":"IT2228A","station_name":"Benevento Campo Sportivo","pollutant":"PM10","date":"2025-11-10","value":15.59,"Ore_Disponibili":24,"lat":41.2315276,"lon":14.5332703,"date_only":"2025-11-10T00:00:00.000"},{"station":"IT2268A","station_name":"Battipaglia Parco Fiume","pollutant":"NO2","date":"2025-11-10","value":22.4327272727,"Ore_Disponibili":22,"lat":40.6167,"lon":14.9833,"date_only":"2025-11-10T00:00:00.000"},{"station":"IT2268A","station_name":"Battipaglia Parco Fiume","pollutant":"O3","date":"2025-11-10","value":36.1086956522,"Ore_Disponibili":23,"lat":40.6167,"lon":14.9833,"date_only":"2025-11-10T00:00:00.000"},{"station":"IT2268A","station_name":"Battipaglia Parco Fiume","pollutant":"PM10","date":"2025-11-10","value":7.5,"Ore_Disponibili":24,"lat":40.6167,"lon":14.9833,"date_only":"2025-11-10T00:00:00.000"},{"station":"IT2270A","station_name":"Portici Parco Reggia","pollutant":"NO2","date":"2025-11-10","value":27.2408695652,"Ore_Disponibili":23,"lat":40.813588,"lon":14.3476526,"date_only":"2025-11-10T00:00:00.000"},{"station":"IT2270A","station_name":"Portici Parco Reggia","pollutant":"O3","date":"2025-11-10","value":32.8591304348,"Ore_Disponibili":23,"lat":40.813588,"lon":14.3476526,"date_only":"2025-11-10T00:00:00.000"},{"station":"IT2270A","station_name":"Portici Parco Reggia","pollutant":"PM10","date":"2025-11-10","value":10.40125,"Ore_Disponibili":24,"lat":40.813588,"lon":14.3476526,"date_only":"2025-11-10T00:00:00.000"},{"station":"IT2271A","station_name":"Aversa Scuola Cirillo \u00b0","pollutant":"NO2","date":"2025-11-10","value":43.6882608696,"Ore_Disponibili":23,"lat":40.9758352,"lon":14.2117669,"date_only":"2025-11-10T00:00:00.000"},{"station":"IT2271A","station_name":"Aversa Scuola Cirillo \u00b0","pollutant":"PM10","date":"2025-11-10","value":22.7883333333,"Ore_Disponibili":24,"lat":40.9758352,"lon":14.2117669,"date_only":"2025-11-10T00:00:00.000"},{"station":"IT2272A","station_name":"Pozzuoli Zona Villa Avellino","pollutant":"O3","date":"2025-11-10","value":35.3108333333,"Ore_Disponibili":24,"lat":40.834,"lon":14.119,"date_only":"2025-11-10T00:00:00.000"},{"station":"IT2272A","station_name":"Pozzuoli Zona Villa Avellino","pollutant":"PM10","date":"2025-11-10","value":10.2004166667,"Ore_Disponibili":24,"lat":40.834,"lon":14.119,"date_only":"2025-11-10T00:00:00.000"},{"station":"IT2273A","station_name":"Polla Area Tritovagliatore","pollutant":"NO2","date":"2025-11-10","value":18.8147826087,"Ore_Disponibili":23,"lat":40.412,"lon":15.341,"date_only":"2025-11-10T00:00:00.000"},{"station":"IT2273A","station_name":"Polla Area Tritovagliatore","pollutant":"PM10","date":"2025-11-10","value":7.12625,"Ore_Disponibili":24,"lat":40.412,"lon":15.341,"date_only":"2025-11-10T00:00:00.000"},{"station":"IT2276A","station_name":"Ariano Irpino Stadio","pollutant":"NO2","date":"2025-11-10","value":8.4065217391,"Ore_Disponibili":23,"lat":41.1555975,"lon":15.0967062,"date_only":"2025-11-10T00:00:00.000"},{"station":"IT2276A","station_name":"Ariano Irpino Stadio","pollutant":"O3","date":"2025-11-10","value":72.4860869565,"Ore_Disponibili":23,"lat":41.1555975,"lon":15.0967062,"date_only":"2025-11-10T00:00:00.000"},{"station":"IT2277A","station_name":"Napoli Parco Virgiliano","pollutant":"NO2","date":"2025-11-10","value":10.6508695652,"Ore_Disponibili":23,"lat":40.7984999,"lon":14.1790765,"date_only":"2025-11-10T00:00:00.000"},{"station":"IT2277A","station_name":"Napoli Parco Virgiliano","pollutant":"O3","date":"2025-11-10","value":66.4891666667,"Ore_Disponibili":24,"lat":40.7984999,"lon":14.1790765,"date_only":"2025-11-10T00:00:00.000"},{"station":"IT2277A","station_name":"Napoli Parco Virgiliano","pollutant":"PM10","date":"2025-11-10","value":8.9,"Ore_Disponibili":24,"lat":40.7984999,"lon":14.1790765,"date_only":"2025-11-10T00:00:00.000"},{"station":"IT2283A","station_name":"Ottati Alburni","pollutant":"NO2","date":"2025-11-10","value":1.7457142857,"Ore_Disponibili":21,"lat":40.306,"lon":15.277,"date_only":"2025-11-10T00:00:00.000"},{"station":"IT2283A","station_name":"Ottati Alburni","pollutant":"O3","date":"2025-11-10","value":56.1472727273,"Ore_Disponibili":22,"lat":40.306,"lon":15.277,"date_only":"2025-11-10T00:00:00.000"},{"station":"IT2283A","station_name":"Ottati Alburni","pollutant":"PM10","date":"2025-11-10","value":1.4,"Ore_Disponibili":24,"lat":40.306,"lon":15.277,"date_only":"2025-11-10T00:00:00.000"}]