[{"station":"IT0898A","station_name":"NA06 MUSEO NAZIONALE","pollutant":"NO2","date":"2025-07-16","value":46.7727272727,"Ore_Disponibili":22,"lat":40.8536064,"lon":14.25115,"date_only":"2025-07-16T00:00:00.000"},{"station":"IT0898A","station_name":"NA06 MUSEO NAZIONALE","pollutant":"PM10","date":"2025-07-16","value":52.7608695652,"Ore_Disponibili":23,"lat":40.8536064,"lon":14.25115,"date_only":"2025-07-16T00:00:00.000"},{"station":"IT0934A","station_name":"BN32 Via Mustilli","pollutant":"NO2","date":"2025-07-16","value":13.6304347826,"Ore_Disponibili":23,"lat":41.7572524,"lon":12.3201661,"date_only":"2025-07-16T00:00:00.000"},{"station":"IT0934A","station_name":"BN32 Via Mustilli","pollutant":"PM10","date":"2025-07-16","value":19.35,"Ore_Disponibili":24,"lat":41.7572524,"lon":12.3201661,"date_only":"2025-07-16T00:00:00.000"},{"station":"IT0936A","station_name":"AV41 SCUOLA V CIRCOLO","pollutant":"NO2","date":"2025-07-16","value":15.9681818182,"Ore_Disponibili":22,"lat":43.8951992,"lon":11.3222381,"date_only":"2025-07-16T00:00:00.000"},{"station":"IT0936A","station_name":"AV41 SCUOLA V CIRCOLO","pollutant":"O3","date":"2025-07-16","value":69.8,"Ore_Disponibili":22,"lat":43.8951992,"lon":11.3222381,"date_only":"2025-07-16T00:00:00.000"},{"station":"IT0936A","station_name":"AV41 SCUOLA V CIRCOLO","pollutant":"PM10","date":"2025-07-16","value":21.3083333333,"Ore_Disponibili":24,"lat":43.8951992,"lon":11.3222381,"date_only":"2025-07-16T00:00:00.000"},{"station":"IT1041A","station_name":"SA23 SCUOLA OSVALDO CONTI","pollutant":"NO2","date":"2025-07-16","value":30.8458333333,"Ore_Disponibili":24,"lat":41.058,"lon":14.808,"date_only":"2025-07-16T00:00:00.000"},{"station":"IT1041A","station_name":"SA23 SCUOLA OSVALDO CONTI","pollutant":"O3","date":"2025-07-16","value":38.3826086957,"Ore_Disponibili":23,"lat":41.058,"lon":14.808,"date_only":"2025-07-16T00:00:00.000"},{"station":"IT1486A","station_name":"CE51 ISTITUTO MANZONI","pollutant":"NO2","date":"2025-07-16","value":9.7695652174,"Ore_Disponibili":23,"lat":41.0818,"lon":14.3349,"date_only":"2025-07-16T00:00:00.000"},{"station":"IT1486A","station_name":"CE51 ISTITUTO MANZONI","pollutant":"O3","date":"2025-07-16","value":76.7304347826,"Ore_Disponibili":23,"lat":41.0818,"lon":14.3349,"date_only":"2025-07-16T00:00:00.000"},{"station":"IT1486A","station_name":"CE51 ISTITUTO MANZONI","pollutant":"PM10","date":"2025-07-16","value":22.4333333333,"Ore_Disponibili":24,"lat":41.0818,"lon":14.3349,"date_only":"2025-07-16T00:00:00.000"},{"station":"IT1487A","station_name":"CE52 SCUOLA DE AMICIS","pollutant":"NO2","date":"2025-07-16","value":11.4043478261,"Ore_Disponibili":23,"lat":45.4166851,"lon":11.8748262,"date_only":"2025-07-16T00:00:00.000"},{"station":"IT1487A","station_name":"CE52 SCUOLA DE AMICIS","pollutant":"PM10","date":"2025-07-16","value":54.6,"Ore_Disponibili":24,"lat":45.4166851,"lon":11.8748262,"date_only":"2025-07-16T00:00:00.000"},{"station":"IT1488A","station_name":"CE54 SCUOLA SETTEMBRINI","pollutant":"NO2","date":"2025-07-16","value":23.5304347826,"Ore_Disponibili":23,"lat":40.7402509,"lon":14.6724943,"date_only":"2025-07-16T00:00:00.000"},{"station":"IT1488A","station_name":"CE54 SCUOLA SETTEMBRINI","pollutant":"O3","date":"2025-07-16","value":67.0652173913,"Ore_Disponibili":23,"lat":40.7402509,"lon":14.6724943,"date_only":"2025-07-16T00:00:00.000"},{"station":"IT1488A","station_name":"CE54 SCUOLA SETTEMBRINI","pollutant":"PM10","date":"2025-07-16","value":35.525,"Ore_Disponibili":24,"lat":40.7402509,"lon":14.6724943,"date_only":"2025-07-16T00:00:00.000"},{"station":"IT1491A","station_name":"NA07 ENTE FERROVIE","pollutant":"NO2","date":"2025-07-16","value":63.5652173913,"Ore_Disponibili":23,"lat":45.6541955,"lon":13.7741392,"date_only":"2025-07-16T00:00:00.000"},{"station":"IT1491A","station_name":"NA07 ENTE FERROVIE","pollutant":"PM10","date":"2025-07-16","value":27.5833333333,"Ore_Disponibili":24,"lat":45.6541955,"lon":13.7741392,"date_only":"2025-07-16T00:00:00.000"},{"station":"IT1493A","station_name":"NA09 I.T.I.S. ARGINE","pollutant":"NO2","date":"2025-07-16","value":35.2173913043,"Ore_Disponibili":23,"lat":44.7377462,"lon":11.6477031,"date_only":"2025-07-16T00:00:00.000"},{"station":"IT1493A","station_name":"NA09 I.T.I.S. ARGINE","pollutant":"PM10","date":"2025-07-16","value":34.7166666667,"Ore_Disponibili":24,"lat":44.7377462,"lon":11.6477031,"date_only":"2025-07-16T00:00:00.000"},{"station":"IT1496A","station_name":"NA02 OSPEDALE SANTOBONO","pollutant":"NO2","date":"2025-07-16","value":34.3826086957,"Ore_Disponibili":23,"lat":40.8615516,"lon":14.2278503,"date_only":"2025-07-16T00:00:00.000"},{"station":"IT1496A","station_name":"NA02 OSPEDALE SANTOBONO","pollutant":"PM10","date":"2025-07-16","value":19.7875,"Ore_Disponibili":24,"lat":40.8615516,"lon":14.2278503,"date_only":"2025-07-16T00:00:00.000"},{"station":"IT1497A","station_name":"NA01 OSSERVATORIO ASTRONOMICO","pollutant":"NO2","date":"2025-07-16","value":29.9375,"Ore_Disponibili":24,"lat":46.0863714,"lon":13.3165669,"date_only":"2025-07-16T00:00:00.000"},{"station":"IT1497A","station_name":"NA01 OSSERVATORIO ASTRONOMICO","pollutant":"O3","date":"2025-07-16","value":73.6260869565,"Ore_Disponibili":23,"lat":46.0863714,"lon":13.3165669,"date_only":"2025-07-16T00:00:00.000"},{"station":"IT1497A","station_name":"NA01 OSSERVATORIO ASTRONOMICO","pollutant":"PM10","date":"2025-07-16","value":19.3916666667,"Ore_Disponibili":24,"lat":46.0863714,"lon":13.3165669,"date_only":"2025-07-16T00:00:00.000"},{"station":"IT1504A","station_name":"SA22 Ospedale via Vernieri","pollutant":"NO2","date":"2025-07-16","value":19.1043478261,"Ore_Disponibili":23,"lat":40.682,"lon":14.766,"date_only":"2025-07-16T00:00:00.000"},{"station":"IT1504A","station_name":"SA22 Ospedale via Vernieri","pollutant":"PM10","date":"2025-07-16","value":21.675,"Ore_Disponibili":24,"lat":40.682,"lon":14.766,"date_only":"2025-07-16T00:00:00.000"},{"station":"IT2210A","station_name":"SOLOFRA ZONA INDUSTRIALE","pollutant":"NO2","date":"2025-07-16","value":6.3260869565,"Ore_Disponibili":23,"lat":41.058,"lon":14.808,"date_only":"2025-07-16T00:00:00.000"},{"station":"IT2210A","station_name":"SOLOFRA ZONA INDUSTRIALE","pollutant":"PM10","date":"2025-07-16","value":17.125,"Ore_Disponibili":24,"lat":41.058,"lon":14.808,"date_only":"2025-07-16T00:00:00.000"},{"station":"IT2211A","station_name":"ACERRA ZONA INDUSTRIALE","pollutant":"NO2","date":"2025-07-16","value":34.5304347826,"Ore_Disponibili":23,"lat":40.9847962,"lon":14.3679606,"date_only":"2025-07-16T00:00:00.000"},{"station":"IT2211A","station_name":"ACERRA ZONA INDUSTRIALE","pollutant":"PM10","date":"2025-07-16","value":39.0,"Ore_Disponibili":24,"lat":40.9847962,"lon":14.3679606,"date_only":"2025-07-16T00:00:00.000"},{"station":"IT2212A","station_name":"San Vitaliano Scuola Elementare Marconi","pollutant":"NO2","date":"2025-07-16","value":31.4086956522,"Ore_Disponibili":23,"lat":40.896,"lon":14.46,"date_only":"2025-07-16T00:00:00.000"},{"station":"IT2212A","station_name":"San Vitaliano Scuola Elementare Marconi","pollutant":"O3","date":"2025-07-16","value":80.7695652174,"Ore_Disponibili":23,"lat":40.896,"lon":14.46,"date_only":"2025-07-16T00:00:00.000"},{"station":"IT2212A","station_name":"San Vitaliano Scuola Elementare Marconi","pollutant":"PM10","date":"2025-07-16","value":32.975,"Ore_Disponibili":24,"lat":40.896,"lon":14.46,"date_only":"2025-07-16T00:00:00.000"},{"station":"IT2213A","station_name":"CAVA DEI TIRRENI - STADIO","pollutant":"NO2","date":"2025-07-16","value":15.3782608696,"Ore_Disponibili":23,"lat":44.4937761,"lon":11.3101851,"date_only":"2025-07-16T00:00:00.000"},{"station":"IT2213A","station_name":"CAVA DEI TIRRENI - STADIO","pollutant":"O3","date":"2025-07-16","value":78.2608695652,"Ore_Disponibili":23,"lat":44.4937761,"lon":11.3101851,"date_only":"2025-07-16T00:00:00.000"},{"station":"IT2213A","station_name":"CAVA DEI TIRRENI - STADIO","pollutant":"PM10","date":"2025-07-16","value":20.6708333333,"Ore_Disponibili":24,"lat":44.4937761,"lon":11.3101851,"date_only":"2025-07-16T00:00:00.000"},{"station":"IT2214A","station_name":"Nocera Inferiore scuola Solimene","pollutant":"NO2","date":"2025-07-16","value":23.0956521739,"Ore_Disponibili":23,"lat":40.7445,"lon":14.734,"date_only":"2025-07-16T00:00:00.000"},{"station":"IT2214A","station_name":"Nocera Inferiore scuola Solimene","pollutant":"PM10","date":"2025-07-16","value":23.1708333333,"Ore_Disponibili":24,"lat":40.7445,"lon":14.734,"date_only":"2025-07-16T00:00:00.000"},{"station":"IT2215A","station_name":"BENEVENTO ZONA INDUSTRIALE","pollutant":"NO2","date":"2025-07-16","value":8.25,"Ore_Disponibili":24,"lat":41.2293368,"lon":14.4782074,"date_only":"2025-07-16T00:00:00.000"},{"station":"IT2215A","station_name":"BENEVENTO ZONA INDUSTRIALE","pollutant":"O3","date":"2025-07-16","value":93.047826087,"Ore_Disponibili":23,"lat":41.2293368,"lon":14.4782074,"date_only":"2025-07-16T00:00:00.000"},{"station":"IT2215A","station_name":"BENEVENTO ZONA INDUSTRIALE","pollutant":"PM10","date":"2025-07-16","value":18.8291666667,"Ore_Disponibili":24,"lat":41.2293368,"lon":14.4782074,"date_only":"2025-07-16T00:00:00.000"},{"station":"IT2216A","station_name":"Casoria Scuola Palizzi (CAM)","pollutant":"NO2","date":"2025-07-16","value":18.2782608696,"Ore_Disponibili":23,"lat":40.904,"lon":14.289,"date_only":"2025-07-16T00:00:00.000"},{"station":"IT2216A","station_name":"Casoria Scuola Palizzi (CAM)","pollutant":"O3","date":"2025-07-16","value":63.952173913,"Ore_Disponibili":23,"lat":40.904,"lon":14.289,"date_only":"2025-07-16T00:00:00.000"},{"station":"IT2216A","station_name":"Casoria Scuola Palizzi (CAM)","pollutant":"PM10","date":"2025-07-16","value":30.7166666667,"Ore_Disponibili":24,"lat":40.904,"lon":14.289,"date_only":"2025-07-16T00:00:00.000"},{"station":"IT2217A","station_name":"Torre Annunziata Scuola Media Pascoli","pollutant":"NO2","date":"2025-07-16","value":17.152173913,"Ore_Disponibili":23,"lat":40.831,"lon":14.426,"date_only":"2025-07-16T00:00:00.000"},{"station":"IT2217A","station_name":"Torre Annunziata Scuola Media Pascoli","pollutant":"O3","date":"2025-07-16","value":79.5391304348,"Ore_Disponibili":23,"lat":40.831,"lon":14.426,"date_only":"2025-07-16T00:00:00.000"},{"station":"IT2218A","station_name":"San Felice a Cancello Complesso scolastico","pollutant":"NO2","date":"2025-07-16","value":16.5086956522,"Ore_Disponibili":23,"lat":41.015,"lon":14.287,"date_only":"2025-07-16T00:00:00.000"},{"station":"IT2218A","station_name":"San Felice a Cancello Complesso scolastico","pollutant":"O3","date":"2025-07-16","value":68.247826087,"Ore_Disponibili":23,"lat":41.015,"lon":14.287,"date_only":"2025-07-16T00:00:00.000"},{"station":"IT2218A","station_name":"San Felice a Cancello Complesso scolastico","pollutant":"PM10","date":"2025-07-16","value":36.7916666667,"Ore_Disponibili":24,"lat":41.015,"lon":14.287,"date_only":"2025-07-16T00:00:00.000"},{"station":"IT2219A","station_name":"Acerra scuola Caporale","pollutant":"NO2","date":"2025-07-16","value":20.3,"Ore_Disponibili":23,"lat":40.9169,"lon":14.3425,"date_only":"2025-07-16T00:00:00.000"},{"station":"IT2219A","station_name":"Acerra scuola Caporale","pollutant":"PM10","date":"2025-07-16","value":34.3083333333,"Ore_Disponibili":24,"lat":40.9169,"lon":14.3425,"date_only":"2025-07-16T00:00:00.000"},{"station":"IT2221A","station_name":"Napoli via Epomeo","pollutant":"NO2","date":"2025-07-16","value":15.3782608696,"Ore_Disponibili":23,"lat":40.7205434,"lon":13.8987737,"date_only":"2025-07-16T00:00:00.000"},{"station":"IT2221A","station_name":"Napoli via Epomeo","pollutant":"O3","date":"2025-07-16","value":50.9391304348,"Ore_Disponibili":23,"lat":40.7205434,"lon":13.8987737,"date_only":"2025-07-16T00:00:00.000"},{"station":"IT2221A","station_name":"Napoli via Epomeo","pollutant":"PM10","date":"2025-07-16","value":23.6333333333,"Ore_Disponibili":24,"lat":40.7205434,"lon":13.8987737,"date_only":"2025-07-16T00:00:00.000"},{"station":"IT2223A","station_name":"Volla via Filichito","pollutant":"NO2","date":"2025-07-16","value":28.8375,"Ore_Disponibili":24,"lat":40.8824226,"lon":14.3478545,"date_only":"2025-07-16T00:00:00.000"},{"station":"IT2223A","station_name":"Volla via Filichito","pollutant":"O3","date":"2025-07-16","value":51.6130434783,"Ore_Disponibili":23,"lat":40.8824226,"lon":14.3478545,"date_only":"2025-07-16T00:00:00.000"},{"station":"IT2223A","station_name":"Volla via Filichito","pollutant":"PM10","date":"2025-07-16","value":28.7583333333,"Ore_Disponibili":24,"lat":40.8824226,"lon":14.3478545,"date_only":"2025-07-16T00:00:00.000"},{"station":"IT2226A","station_name":"Pomigliano d'Arco Area ASI","pollutant":"NO2","date":"2025-07-16","value":30.4782608696,"Ore_Disponibili":23,"lat":40.9075,"lon":14.393,"date_only":"2025-07-16T00:00:00.000"},{"station":"IT2226A","station_name":"Pomigliano d'Arco Area ASI","pollutant":"PM10","date":"2025-07-16","value":30.4,"Ore_Disponibili":24,"lat":40.9075,"lon":14.393,"date_only":"2025-07-16T00:00:00.000"},{"station":"IT2227A","station_name":"AVELLINO - SCUOLA ALIGHIERI","pollutant":"NO2","date":"2025-07-16","value":23.0652173913,"Ore_Disponibili":23,"lat":40.9190395,"lon":14.784947,"date_only":"2025-07-16T00:00:00.000"},{"station":"IT2227A","station_name":"AVELLINO - SCUOLA ALIGHIERI","pollutant":"PM10","date":"2025-07-16","value":13.55,"Ore_Disponibili":24,"lat":40.9190395,"lon":14.784947,"date_only":"2025-07-16T00:00:00.000"},{"station":"IT2228A","station_name":"BENEVENTO CAMPO SPORTIVO","pollutant":"NO2","date":"2025-07-16","value":12.4125,"Ore_Disponibili":24,"lat":41.2315276,"lon":14.5332703,"date_only":"2025-07-16T00:00:00.000"},{"station":"IT2228A","station_name":"BENEVENTO CAMPO SPORTIVO","pollutant":"O3","date":"2025-07-16","value":80.4173913043,"Ore_Disponibili":23,"lat":41.2315276,"lon":14.5332703,"date_only":"2025-07-16T00:00:00.000"},{"station":"IT2228A","station_name":"BENEVENTO CAMPO SPORTIVO","pollutant":"PM10","date":"2025-07-16","value":20.45,"Ore_Disponibili":24,"lat":41.2315276,"lon":14.5332703,"date_only":"2025-07-16T00:00:00.000"},{"station":"IT2268A","station_name":"BATTIPAGLIA - PARCO FIUME","pollutant":"NO2","date":"2025-07-16","value":9.2304347826,"Ore_Disponibili":23,"lat":44.3859682,"lon":7.5509829,"date_only":"2025-07-16T00:00:00.000"},{"station":"IT2268A","station_name":"BATTIPAGLIA - PARCO FIUME","pollutant":"O3","date":"2025-07-16","value":67.2173913043,"Ore_Disponibili":23,"lat":44.3859682,"lon":7.5509829,"date_only":"2025-07-16T00:00:00.000"},{"station":"IT2268A","station_name":"BATTIPAGLIA - PARCO FIUME","pollutant":"PM10","date":"2025-07-16","value":19.6,"Ore_Disponibili":24,"lat":44.3859682,"lon":7.5509829,"date_only":"2025-07-16T00:00:00.000"},{"station":"IT2270A","station_name":"Portici parco Reggia","pollutant":"NO2","date":"2025-07-16","value":14.0130434783,"Ore_Disponibili":23,"lat":40.813588,"lon":14.3476526,"date_only":"2025-07-16T00:00:00.000"},{"station":"IT2270A","station_name":"Portici parco Reggia","pollutant":"O3","date":"2025-07-16","value":72.9608695652,"Ore_Disponibili":23,"lat":40.813588,"lon":14.3476526,"date_only":"2025-07-16T00:00:00.000"},{"station":"IT2270A","station_name":"Portici parco Reggia","pollutant":"PM10","date":"2025-07-16","value":21.0791666667,"Ore_Disponibili":24,"lat":40.813588,"lon":14.3476526,"date_only":"2025-07-16T00:00:00.000"},{"station":"IT2271A","station_name":"Aversa scuola Cirillo","pollutant":"NO2","date":"2025-07-16","value":16.5130434783,"Ore_Disponibili":23,"lat":40.9758352,"lon":14.2117669,"date_only":"2025-07-16T00:00:00.000"},{"station":"IT2271A","station_name":"Aversa scuola Cirillo","pollutant":"PM10","date":"2025-07-16","value":33.925,"Ore_Disponibili":24,"lat":40.9758352,"lon":14.2117669,"date_only":"2025-07-16T00:00:00.000"},{"station":"IT2272A","station_name":"Pozzuoli ex Villa Avellino","pollutant":"NO2","date":"2025-07-16","value":16.6625,"Ore_Disponibili":8,"lat":40.834,"lon":14.119,"date_only":"2025-07-16T00:00:00.000"},{"station":"IT2272A","station_name":"Pozzuoli ex Villa Avellino","pollutant":"O3","date":"2025-07-16","value":57.625,"Ore_Disponibili":24,"lat":40.834,"lon":14.119,"date_only":"2025-07-16T00:00:00.000"},{"station":"IT2272A","station_name":"Pozzuoli ex Villa Avellino","pollutant":"PM10","date":"2025-07-16","value":21.4208333333,"Ore_Disponibili":24,"lat":40.834,"lon":14.119,"date_only":"2025-07-16T00:00:00.000"},{"station":"IT2273A","station_name":"Polla Area tritovagliatore","pollutant":"NO2","date":"2025-07-16","value":19.4130434783,"Ore_Disponibili":23,"lat":40.412,"lon":15.341,"date_only":"2025-07-16T00:00:00.000"},{"station":"IT2273A","station_name":"Polla Area tritovagliatore","pollutant":"PM10","date":"2025-07-16","value":11.725,"Ore_Disponibili":24,"lat":40.412,"lon":15.341,"date_only":"2025-07-16T00:00:00.000"},{"station":"IT2276A","station_name":"Ariano Irpino Villa Comunale","pollutant":"NO2","date":"2025-07-16","value":5.8041666667,"Ore_Disponibili":24,"lat":41.1549432,"lon":15.0951624,"date_only":"2025-07-16T00:00:00.000"},{"station":"IT2276A","station_name":"Ariano Irpino Villa Comunale","pollutant":"O3","date":"2025-07-16","value":123.9565217391,"Ore_Disponibili":23,"lat":41.1549432,"lon":15.0951624,"date_only":"2025-07-16T00:00:00.000"},{"station":"IT2277A","station_name":"Napoli parco Virgiliano","pollutant":"NO2","date":"2025-07-16","value":10.8043478261,"Ore_Disponibili":23,"lat":40.7984999,"lon":14.1790765,"date_only":"2025-07-16T00:00:00.000"},{"station":"IT2277A","station_name":"Napoli parco Virgiliano","pollutant":"O3","date":"2025-07-16","value":95.7166666667,"Ore_Disponibili":24,"lat":40.7984999,"lon":14.1790765,"date_only":"2025-07-16T00:00:00.000"},{"station":"IT2283A","station_name":"OTTATI - ALBURNI","pollutant":"NO2","date":"2025-07-16","value":6.2869565217,"Ore_Disponibili":23,"lat":40.560311,"lon":15.303957,"date_only":"2025-07-16T00:00:00.000"},{"station":"IT2283A","station_name":"OTTATI - ALBURNI","pollutant":"O3","date":"2025-07-16","value":99.3608695652,"Ore_Disponibili":23,"lat":40.560311,"lon":15.303957,"date_only":"2025-07-16T00:00:00.000"}]