[{"station":"IT1487A","station_name":"Caserta CE52 Sc. De Amicis","pollutant":"NO2","date":"2025-09-21","value":11.6173913043,"Ore_Disponibili":23,"lat":41.0085302,"lon":14.0787912,"date_only":"2025-09-21T00:00:00.000"},{"station":"IT1487A","station_name":"Caserta CE52 Sc. De Amicis","pollutant":"PM10","date":"2025-09-21","value":25.4,"Ore_Disponibili":24,"lat":41.0085302,"lon":14.0787912,"date_only":"2025-09-21T00:00:00.000"},{"station":"IT1488A","station_name":"Caserta CE54 Sc. Settembrini","pollutant":"NO2","date":"2025-09-21","value":21.6913043478,"Ore_Disponibili":23,"lat":41.0255387,"lon":13.9461823,"date_only":"2025-09-21T00:00:00.000"},{"station":"IT1488A","station_name":"Caserta CE54 Sc. Settembrini","pollutant":"PM10","date":"2025-09-21","value":22.4208333333,"Ore_Disponibili":24,"lat":41.0255387,"lon":13.9461823,"date_only":"2025-09-21T00:00:00.000"},{"station":"IT1497A","station_name":"Napoli NA01 Oss. Astronomico","pollutant":"NO2","date":"2025-09-21","value":31.8833333333,"Ore_Disponibili":24,"lat":40.853,"lon":14.305,"date_only":"2025-09-21T00:00:00.000"},{"station":"IT1497A","station_name":"Napoli NA01 Oss. Astronomico","pollutant":"O3","date":"2025-09-21","value":54.7652173913,"Ore_Disponibili":23,"lat":40.853,"lon":14.305,"date_only":"2025-09-21T00:00:00.000"},{"station":"IT1497A","station_name":"Napoli NA01 Oss. Astronomico","pollutant":"PM10","date":"2025-09-21","value":14.0458333333,"Ore_Disponibili":24,"lat":40.853,"lon":14.305,"date_only":"2025-09-21T00:00:00.000"},{"station":"IT2210A","station_name":"Solofra Zona Industriale","pollutant":"NO2","date":"2025-09-21","value":5.3260869565,"Ore_Disponibili":23,"lat":41.058,"lon":14.808,"date_only":"2025-09-21T00:00:00.000"},{"station":"IT2210A","station_name":"Solofra Zona Industriale","pollutant":"PM10","date":"2025-09-21","value":17.0958333333,"Ore_Disponibili":24,"lat":41.058,"lon":14.808,"date_only":"2025-09-21T00:00:00.000"},{"station":"IT2212A","station_name":"S. Vitaliano Scuola Marconi","pollutant":"NO2","date":"2025-09-21","value":31.9173913043,"Ore_Disponibili":23,"lat":40.896,"lon":14.46,"date_only":"2025-09-21T00:00:00.000"},{"station":"IT2212A","station_name":"S. Vitaliano Scuola Marconi","pollutant":"O3","date":"2025-09-21","value":48.9608695652,"Ore_Disponibili":23,"lat":40.896,"lon":14.46,"date_only":"2025-09-21T00:00:00.000"},{"station":"IT2212A","station_name":"S. Vitaliano Scuola Marconi","pollutant":"PM10","date":"2025-09-21","value":19.0458333333,"Ore_Disponibili":24,"lat":40.896,"lon":14.46,"date_only":"2025-09-21T00:00:00.000"},{"station":"IT2214A","station_name":"Nocera Inferiore Sc. Solimena","pollutant":"NO2","date":"2025-09-21","value":29.2347826087,"Ore_Disponibili":23,"lat":40.7473393,"lon":14.6410145,"date_only":"2025-09-21T00:00:00.000"},{"station":"IT2214A","station_name":"Nocera Inferiore Sc. Solimena","pollutant":"PM10","date":"2025-09-21","value":17.0791666667,"Ore_Disponibili":24,"lat":40.7473393,"lon":14.6410145,"date_only":"2025-09-21T00:00:00.000"},{"station":"IT2216A","station_name":"Casoria Scuola Palizzi","pollutant":"NO2","date":"2025-09-21","value":19.8695652174,"Ore_Disponibili":23,"lat":40.904,"lon":14.289,"date_only":"2025-09-21T00:00:00.000"},{"station":"IT2216A","station_name":"Casoria Scuola Palizzi","pollutant":"O3","date":"2025-09-21","value":46.1652173913,"Ore_Disponibili":23,"lat":40.904,"lon":14.289,"date_only":"2025-09-21T00:00:00.000"},{"station":"IT2216A","station_name":"Casoria Scuola Palizzi","pollutant":"PM10","date":"2025-09-21","value":31.2416666667,"Ore_Disponibili":24,"lat":40.904,"lon":14.289,"date_only":"2025-09-21T00:00:00.000"},{"station":"IT2217A","station_name":"Torre Annunziata Sc. Pascoli","pollutant":"NO2","date":"2025-09-21","value":16.7217391304,"Ore_Disponibili":23,"lat":40.7469754,"lon":14.4608234,"date_only":"2025-09-21T00:00:00.000"},{"station":"IT2217A","station_name":"Torre Annunziata Sc. Pascoli","pollutant":"O3","date":"2025-09-21","value":60.7173913043,"Ore_Disponibili":23,"lat":40.7469754,"lon":14.4608234,"date_only":"2025-09-21T00:00:00.000"},{"station":"IT2270A","station_name":"Portici Parco Reggia","pollutant":"NO2","date":"2025-09-21","value":18.2608695652,"Ore_Disponibili":23,"lat":40.813588,"lon":14.3476526,"date_only":"2025-09-21T00:00:00.000"},{"station":"IT2270A","station_name":"Portici Parco Reggia","pollutant":"O3","date":"2025-09-21","value":49.8958333333,"Ore_Disponibili":24,"lat":40.813588,"lon":14.3476526,"date_only":"2025-09-21T00:00:00.000"},{"station":"IT2270A","station_name":"Portici Parco Reggia","pollutant":"PM10","date":"2025-09-21","value":12.5416666667,"Ore_Disponibili":24,"lat":40.813588,"lon":14.3476526,"date_only":"2025-09-21T00:00:00.000"},{"station":"IT2272A","station_name":"Pozzuoli Zona Villa Avellino","pollutant":"NO2","date":"2025-09-21","value":20.9652173913,"Ore_Disponibili":23,"lat":40.834,"lon":14.119,"date_only":"2025-09-21T00:00:00.000"},{"station":"IT2272A","station_name":"Pozzuoli Zona Villa Avellino","pollutant":"O3","date":"2025-09-21","value":37.8458333333,"Ore_Disponibili":24,"lat":40.834,"lon":14.119,"date_only":"2025-09-21T00:00:00.000"},{"station":"IT2272A","station_name":"Pozzuoli Zona Villa Avellino","pollutant":"PM10","date":"2025-09-21","value":14.6391304348,"Ore_Disponibili":23,"lat":40.834,"lon":14.119,"date_only":"2025-09-21T00:00:00.000"},{"station":"IT2273A","station_name":"Polla Area Tritovagliatore","pollutant":"NO2","date":"2025-09-21","value":14.2739130435,"Ore_Disponibili":23,"lat":40.412,"lon":15.341,"date_only":"2025-09-21T00:00:00.000"},{"station":"IT2273A","station_name":"Polla Area Tritovagliatore","pollutant":"PM10","date":"2025-09-21","value":8.0583333333,"Ore_Disponibili":24,"lat":40.412,"lon":15.341,"date_only":"2025-09-21T00:00:00.000"},{"station":"IT2276A","station_name":"Ariano Irpino Stadio","pollutant":"NO2","date":"2025-09-21","value":3.6375,"Ore_Disponibili":24,"lat":41.1555975,"lon":15.0967062,"date_only":"2025-09-21T00:00:00.000"},{"station":"IT2276A","station_name":"Ariano Irpino Stadio","pollutant":"O3","date":"2025-09-21","value":102.5565217391,"Ore_Disponibili":23,"lat":41.1555975,"lon":15.0967062,"date_only":"2025-09-21T00:00:00.000"},{"station":"IT2277A","station_name":"Napoli Parco Virgiliano","pollutant":"NO2","date":"2025-09-21","value":11.8347826087,"Ore_Disponibili":23,"lat":40.7984999,"lon":14.1790765,"date_only":"2025-09-21T00:00:00.000"},{"station":"IT2277A","station_name":"Napoli Parco Virgiliano","pollutant":"O3","date":"2025-09-21","value":75.1583333333,"Ore_Disponibili":24,"lat":40.7984999,"lon":14.1790765,"date_only":"2025-09-21T00:00:00.000"},{"station":"IT2277A","station_name":"Napoli Parco Virgiliano","pollutant":"PM10","date":"2025-09-21","value":17.9,"Ore_Disponibili":24,"lat":40.7984999,"lon":14.1790765,"date_only":"2025-09-21T00:00:00.000"},{"station":"IT2283A","station_name":"Ottati Alburni","pollutant":"NO2","date":"2025-09-21","value":2.7608695652,"Ore_Disponibili":23,"lat":40.306,"lon":15.277,"date_only":"2025-09-21T00:00:00.000"},{"station":"IT2283A","station_name":"Ottati Alburni","pollutant":"O3","date":"2025-09-21","value":77.9782608696,"Ore_Disponibili":23,"lat":40.306,"lon":15.277,"date_only":"2025-09-21T00:00:00.000"},{"station":"IT2283A","station_name":"Ottati Alburni","pollutant":"PM10","date":"2025-09-21","value":23.5,"Ore_Disponibili":24,"lat":40.306,"lon":15.277,"date_only":"2025-09-21T00:00:00.000"}]