[{"station":"IT0898A","station_name":"Napoli NA06 Museo Nazionale","pollutant":"CO","date":"2025-10-28T00:00:00.000","value":1.0508333333,"Ore_Disponibili":24,"lat":40.8536064,"lon":14.25115,"date_only":"2025-10-28T00:00:00.000"},{"station":"IT0898A","station_name":"Napoli NA06 Museo Nazionale","pollutant":"NO2","date":"2025-10-28T00:00:00.000","value":45.0775,"Ore_Disponibili":24,"lat":40.8536064,"lon":14.25115,"date_only":"2025-10-28T00:00:00.000"},{"station":"IT0898A","station_name":"Napoli NA06 Museo Nazionale","pollutant":"PM10","date":"2025-10-28T00:00:00.000","value":32.1583333333,"Ore_Disponibili":24,"lat":40.8536064,"lon":14.25115,"date_only":"2025-10-28T00:00:00.000"},{"station":"IT0898A","station_name":"Napoli NA06 Museo Nazionale","pollutant":"PM2,5","date":"2025-10-28T00:00:00.000","value":13.3565217391,"Ore_Disponibili":23,"lat":40.8536064,"lon":14.25115,"date_only":"2025-10-28T00:00:00.000"},{"station":"IT0934A","station_name":"Benevento BN32 Via Mustilli","pollutant":"NO2","date":"2025-10-28T00:00:00.000","value":19.6079166667,"Ore_Disponibili":24,"lat":41.1317868,"lon":14.7885516,"date_only":"2025-10-28T00:00:00.000"},{"station":"IT0934A","station_name":"Benevento BN32 Via Mustilli","pollutant":"PM10","date":"2025-10-28T00:00:00.000","value":20.7375,"Ore_Disponibili":24,"lat":41.1317868,"lon":14.7885516,"date_only":"2025-10-28T00:00:00.000"},{"station":"IT0934A","station_name":"Benevento BN32 Via Mustilli","pollutant":"PM2,5","date":"2025-10-28T00:00:00.000","value":10.6526315789,"Ore_Disponibili":19,"lat":41.1317868,"lon":14.7885516,"date_only":"2025-10-28T00:00:00.000"},{"station":"IT0936A","station_name":"Avellino AV41 Sc. V Circolo \u00b0","pollutant":"NO2","date":"2025-10-28T00:00:00.000","value":16.99,"Ore_Disponibili":20,"lat":40.9152,"lon":14.7955,"date_only":"2025-10-28T00:00:00.000"},{"station":"IT0936A","station_name":"Avellino AV41 Sc. V Circolo \u00b0","pollutant":"O3","date":"2025-10-28T00:00:00.000","value":35.9025,"Ore_Disponibili":24,"lat":40.9152,"lon":14.7955,"date_only":"2025-10-28T00:00:00.000"},{"station":"IT0936A","station_name":"Avellino AV41 Sc. V Circolo \u00b0","pollutant":"PM10","date":"2025-10-28T00:00:00.000","value":15.84125,"Ore_Disponibili":24,"lat":40.9152,"lon":14.7955,"date_only":"2025-10-28T00:00:00.000"},{"station":"IT0936A","station_name":"Avellino AV41 Sc. V Circolo \u00b0","pollutant":"PM2,5","date":"2025-10-28T00:00:00.000","value":9.2904166667,"Ore_Disponibili":24,"lat":40.9152,"lon":14.7955,"date_only":"2025-10-28T00:00:00.000"},{"station":"IT1041A","station_name":"Salerno SA23 Scuola Conti \u00b0","pollutant":"NO2","date":"2025-10-28T00:00:00.000","value":26.0095833333,"Ore_Disponibili":24,"lat":40.675,"lon":14.768,"date_only":"2025-10-28T00:00:00.000"},{"station":"IT1041A","station_name":"Salerno SA23 Scuola Conti \u00b0","pollutant":"PM2,5","date":"2025-10-28T00:00:00.000","value":12.1,"Ore_Disponibili":24,"lat":40.675,"lon":14.768,"date_only":"2025-10-28T00:00:00.000"},{"station":"IT1486A","station_name":"Caserta CE51 Ist. Manzoni","pollutant":"NO2","date":"2025-10-28T00:00:00.000","value":18.1675,"Ore_Disponibili":24,"lat":41.0818,"lon":14.3349,"date_only":"2025-10-28T00:00:00.000"},{"station":"IT1486A","station_name":"Caserta CE51 Ist. Manzoni","pollutant":"O3","date":"2025-10-28T00:00:00.000","value":30.6391666667,"Ore_Disponibili":24,"lat":41.0818,"lon":14.3349,"date_only":"2025-10-28T00:00:00.000"},{"station":"IT1486A","station_name":"Caserta CE51 Ist. Manzoni","pollutant":"PM10","date":"2025-10-28T00:00:00.000","value":15.5625,"Ore_Disponibili":24,"lat":41.0818,"lon":14.3349,"date_only":"2025-10-28T00:00:00.000"},{"station":"IT1486A","station_name":"Caserta CE51 Ist. Manzoni","pollutant":"PM2,5","date":"2025-10-28T00:00:00.000","value":4.2636363636,"Ore_Disponibili":22,"lat":41.0818,"lon":14.3349,"date_only":"2025-10-28T00:00:00.000"},{"station":"IT1487A","station_name":"Caserta CE52 Sc. De Amicis","pollutant":"CO","date":"2025-10-28T00:00:00.000","value":0.6228571429,"Ore_Disponibili":21,"lat":41.0085302,"lon":14.0787912,"date_only":"2025-10-28T00:00:00.000"},{"station":"IT1487A","station_name":"Caserta CE52 Sc. De Amicis","pollutant":"NO2","date":"2025-10-28T00:00:00.000","value":16.9230434783,"Ore_Disponibili":23,"lat":41.0085302,"lon":14.0787912,"date_only":"2025-10-28T00:00:00.000"},{"station":"IT1487A","station_name":"Caserta CE52 Sc. De Amicis","pollutant":"PM10","date":"2025-10-28T00:00:00.000","value":32.5,"Ore_Disponibili":24,"lat":41.0085302,"lon":14.0787912,"date_only":"2025-10-28T00:00:00.000"},{"station":"IT1488A","station_name":"Maddaloni CE54 Sc. Settembrini","pollutant":"NO2","date":"2025-10-28T00:00:00.000","value":22.5426086957,"Ore_Disponibili":23,"lat":41.094,"lon":14.402,"date_only":"2025-10-28T00:00:00.000"},{"station":"IT1488A","station_name":"Maddaloni CE54 Sc. Settembrini","pollutant":"O3","date":"2025-10-28T00:00:00.000","value":23.5843478261,"Ore_Disponibili":23,"lat":41.094,"lon":14.402,"date_only":"2025-10-28T00:00:00.000"},{"station":"IT1488A","station_name":"Maddaloni CE54 Sc. Settembrini","pollutant":"PM10","date":"2025-10-28T00:00:00.000","value":22.8379166667,"Ore_Disponibili":24,"lat":41.094,"lon":14.402,"date_only":"2025-10-28T00:00:00.000"},{"station":"IT1488A","station_name":"Maddaloni CE54 Sc. Settembrini","pollutant":"PM2,5","date":"2025-10-28T00:00:00.000","value":9.5225,"Ore_Disponibili":24,"lat":41.094,"lon":14.402,"date_only":"2025-10-28T00:00:00.000"},{"station":"IT1491A","station_name":"Napoli NA07 Ferrovia \u00b0","pollutant":"CO","date":"2025-10-28T00:00:00.000","value":1.0075,"Ore_Disponibili":24,"lat":40.8277815,"lon":14.3989433,"date_only":"2025-10-28T00:00:00.000"},{"station":"IT1491A","station_name":"Napoli NA07 Ferrovia \u00b0","pollutant":"NO2","date":"2025-10-28T00:00:00.000","value":53.03125,"Ore_Disponibili":24,"lat":40.8277815,"lon":14.3989433,"date_only":"2025-10-28T00:00:00.000"},{"station":"IT1491A","station_name":"Napoli NA07 Ferrovia \u00b0","pollutant":"PM10","date":"2025-10-28T00:00:00.000","value":35.05,"Ore_Disponibili":24,"lat":40.8277815,"lon":14.3989433,"date_only":"2025-10-28T00:00:00.000"},{"station":"IT1491A","station_name":"Napoli NA07 Ferrovia \u00b0","pollutant":"PM2,5","date":"2025-10-28T00:00:00.000","value":14.05,"Ore_Disponibili":24,"lat":40.8277815,"lon":14.3989433,"date_only":"2025-10-28T00:00:00.000"},{"station":"IT1493A","station_name":"Napoli NA09 Via Argine","pollutant":"CO","date":"2025-10-28T00:00:00.000","value":0.5195833333,"Ore_Disponibili":24,"lat":40.8560636,"lon":14.3234622,"date_only":"2025-10-28T00:00:00.000"},{"station":"IT1493A","station_name":"Napoli NA09 Via Argine","pollutant":"NO2","date":"2025-10-28T00:00:00.000","value":33.7170833333,"Ore_Disponibili":24,"lat":40.8560636,"lon":14.3234622,"date_only":"2025-10-28T00:00:00.000"},{"station":"IT1493A","station_name":"Napoli NA09 Via Argine","pollutant":"PM10","date":"2025-10-28T00:00:00.000","value":28.3625,"Ore_Disponibili":24,"lat":40.8560636,"lon":14.3234622,"date_only":"2025-10-28T00:00:00.000"},{"station":"IT1493A","station_name":"Napoli NA09 Via Argine","pollutant":"PM2,5","date":"2025-10-28T00:00:00.000","value":12.3857142857,"Ore_Disponibili":21,"lat":40.8560636,"lon":14.3234622,"date_only":"2025-10-28T00:00:00.000"},{"station":"IT1495A","station_name":"Napoli NA08 Osp. N. Pellegrini","pollutant":"NO2","date":"2025-10-28T00:00:00.000","value":39.08,"Ore_Disponibili":24,"lat":40.8535,"lon":14.235,"date_only":"2025-10-28T00:00:00.000"},{"station":"IT1495A","station_name":"Napoli NA08 Osp. N. Pellegrini","pollutant":"PM10","date":"2025-10-28T00:00:00.000","value":35.2,"Ore_Disponibili":24,"lat":40.8535,"lon":14.235,"date_only":"2025-10-28T00:00:00.000"},{"station":"IT1496A","station_name":"Napoli NA02 Osp. Santobono \u00b0","pollutant":"NO2","date":"2025-10-28T00:00:00.000","value":37.2483333333,"Ore_Disponibili":24,"lat":40.8554,"lon":14.2231,"date_only":"2025-10-28T00:00:00.000"},{"station":"IT1496A","station_name":"Napoli NA02 Osp. Santobono \u00b0","pollutant":"PM10","date":"2025-10-28T00:00:00.000","value":20.5854166667,"Ore_Disponibili":24,"lat":40.8554,"lon":14.2231,"date_only":"2025-10-28T00:00:00.000"},{"station":"IT1496A","station_name":"Napoli NA02 Osp. Santobono \u00b0","pollutant":"PM2,5","date":"2025-10-28T00:00:00.000","value":9.3420833333,"Ore_Disponibili":24,"lat":40.8554,"lon":14.2231,"date_only":"2025-10-28T00:00:00.000"},{"station":"IT1497A","station_name":"Napoli NA01 Oss. Astronomico","pollutant":"CO","date":"2025-10-28T00:00:00.000","value":0.63125,"Ore_Disponibili":24,"lat":40.853,"lon":14.305,"date_only":"2025-10-28T00:00:00.000"},{"station":"IT1497A","station_name":"Napoli NA01 Oss. Astronomico","pollutant":"NO2","date":"2025-10-28T00:00:00.000","value":26.8391304348,"Ore_Disponibili":23,"lat":40.853,"lon":14.305,"date_only":"2025-10-28T00:00:00.000"},{"station":"IT1497A","station_name":"Napoli NA01 Oss. Astronomico","pollutant":"O3","date":"2025-10-28T00:00:00.000","value":41.8391666667,"Ore_Disponibili":24,"lat":40.853,"lon":14.305,"date_only":"2025-10-28T00:00:00.000"},{"station":"IT1497A","station_name":"Napoli NA01 Oss. Astronomico","pollutant":"PM10","date":"2025-10-28T00:00:00.000","value":19.5020833333,"Ore_Disponibili":24,"lat":40.853,"lon":14.305,"date_only":"2025-10-28T00:00:00.000"},{"station":"IT1497A","station_name":"Napoli NA01 Oss. Astronomico","pollutant":"PM2,5","date":"2025-10-28T00:00:00.000","value":9.2929166667,"Ore_Disponibili":24,"lat":40.853,"lon":14.305,"date_only":"2025-10-28T00:00:00.000"},{"station":"IT1504A","station_name":"Salerno SA22 Osp. Via Vernieri","pollutant":"CO","date":"2025-10-28T00:00:00.000","value":0.675,"Ore_Disponibili":24,"lat":40.682,"lon":14.766,"date_only":"2025-10-28T00:00:00.000"},{"station":"IT1504A","station_name":"Salerno SA22 Osp. Via Vernieri","pollutant":"NO2","date":"2025-10-28T00:00:00.000","value":24.9983333333,"Ore_Disponibili":24,"lat":40.682,"lon":14.766,"date_only":"2025-10-28T00:00:00.000"},{"station":"IT1504A","station_name":"Salerno SA22 Osp. Via Vernieri","pollutant":"PM10","date":"2025-10-28T00:00:00.000","value":23.7916666667,"Ore_Disponibili":24,"lat":40.682,"lon":14.766,"date_only":"2025-10-28T00:00:00.000"},{"station":"IT1504A","station_name":"Salerno SA22 Osp. Via Vernieri","pollutant":"PM2,5","date":"2025-10-28T00:00:00.000","value":8.1090909091,"Ore_Disponibili":22,"lat":40.682,"lon":14.766,"date_only":"2025-10-28T00:00:00.000"},{"station":"IT2210A","station_name":"Solofra Zona Industriale","pollutant":"CO","date":"2025-10-28T00:00:00.000","value":0.5156521739,"Ore_Disponibili":23,"lat":41.058,"lon":14.808,"date_only":"2025-10-28T00:00:00.000"},{"station":"IT2210A","station_name":"Solofra Zona Industriale","pollutant":"NO2","date":"2025-10-28T00:00:00.000","value":8.9026086957,"Ore_Disponibili":23,"lat":41.058,"lon":14.808,"date_only":"2025-10-28T00:00:00.000"},{"station":"IT2210A","station_name":"Solofra Zona Industriale","pollutant":"PM10","date":"2025-10-28T00:00:00.000","value":22.9554166667,"Ore_Disponibili":24,"lat":41.058,"lon":14.808,"date_only":"2025-10-28T00:00:00.000"},{"station":"IT2210A","station_name":"Solofra Zona Industriale","pollutant":"PM2,5","date":"2025-10-28T00:00:00.000","value":12.3329166667,"Ore_Disponibili":24,"lat":41.058,"lon":14.808,"date_only":"2025-10-28T00:00:00.000"},{"station":"IT2211A","station_name":"Acerra Zona Industriale","pollutant":"CO","date":"2025-10-28T00:00:00.000","value":0.3182608696,"Ore_Disponibili":23,"lat":40.9847962,"lon":14.3679606,"date_only":"2025-10-28T00:00:00.000"},{"station":"IT2211A","station_name":"Acerra Zona Industriale","pollutant":"NO2","date":"2025-10-28T00:00:00.000","value":33.2308695652,"Ore_Disponibili":23,"lat":40.9847962,"lon":14.3679606,"date_only":"2025-10-28T00:00:00.000"},{"station":"IT2211A","station_name":"Acerra Zona Industriale","pollutant":"PM10","date":"2025-10-28T00:00:00.000","value":18.4,"Ore_Disponibili":24,"lat":40.9847962,"lon":14.3679606,"date_only":"2025-10-28T00:00:00.000"},{"station":"IT2211A","station_name":"Acerra Zona Industriale","pollutant":"PM2,5","date":"2025-10-28T00:00:00.000","value":6.7,"Ore_Disponibili":24,"lat":40.9847962,"lon":14.3679606,"date_only":"2025-10-28T00:00:00.000"},{"station":"IT2212A","station_name":"S. Vitaliano Scuola Marconi","pollutant":"NO2","date":"2025-10-28T00:00:00.000","value":44.8573913043,"Ore_Disponibili":23,"lat":40.896,"lon":14.46,"date_only":"2025-10-28T00:00:00.000"},{"station":"IT2212A","station_name":"S. Vitaliano Scuola Marconi","pollutant":"O3","date":"2025-10-28T00:00:00.000","value":27.2886956522,"Ore_Disponibili":23,"lat":40.896,"lon":14.46,"date_only":"2025-10-28T00:00:00.000"},{"station":"IT2212A","station_name":"S. Vitaliano Scuola Marconi","pollutant":"PM10","date":"2025-10-28T00:00:00.000","value":24.69125,"Ore_Disponibili":24,"lat":40.896,"lon":14.46,"date_only":"2025-10-28T00:00:00.000"},{"station":"IT2212A","station_name":"S. Vitaliano Scuola Marconi","pollutant":"PM2,5","date":"2025-10-28T00:00:00.000","value":12.1108333333,"Ore_Disponibili":24,"lat":40.896,"lon":14.46,"date_only":"2025-10-28T00:00:00.000"},{"station":"IT2213A","station_name":"Cava dei Tirreni Stadio","pollutant":"CO","date":"2025-10-28T00:00:00.000","value":0.33,"Ore_Disponibili":23,"lat":40.7125,"lon":14.638,"date_only":"2025-10-28T00:00:00.000"},{"station":"IT2213A","station_name":"Cava dei Tirreni Stadio","pollutant":"NO2","date":"2025-10-28T00:00:00.000","value":21.3626086957,"Ore_Disponibili":23,"lat":40.7125,"lon":14.638,"date_only":"2025-10-28T00:00:00.000"},{"station":"IT2213A","station_name":"Cava dei Tirreni Stadio","pollutant":"O3","date":"2025-10-28T00:00:00.000","value":39.232173913,"Ore_Disponibili":23,"lat":40.7125,"lon":14.638,"date_only":"2025-10-28T00:00:00.000"},{"station":"IT2213A","station_name":"Cava dei Tirreni Stadio","pollutant":"PM10","date":"2025-10-28T00:00:00.000","value":18.3475,"Ore_Disponibili":24,"lat":40.7125,"lon":14.638,"date_only":"2025-10-28T00:00:00.000"},{"station":"IT2213A","station_name":"Cava dei Tirreni Stadio","pollutant":"PM2,5","date":"2025-10-28T00:00:00.000","value":9.1695833333,"Ore_Disponibili":24,"lat":40.7125,"lon":14.638,"date_only":"2025-10-28T00:00:00.000"},{"station":"IT2214A","station_name":"Nocera Inferiore Sc. Solimena","pollutant":"CO","date":"2025-10-28T00:00:00.000","value":0.2143478261,"Ore_Disponibili":23,"lat":40.7473393,"lon":14.6410145,"date_only":"2025-10-28T00:00:00.000"},{"station":"IT2214A","station_name":"Nocera Inferiore Sc. Solimena","pollutant":"NO2","date":"2025-10-28T00:00:00.000","value":28.5908695652,"Ore_Disponibili":23,"lat":40.7473393,"lon":14.6410145,"date_only":"2025-10-28T00:00:00.000"},{"station":"IT2214A","station_name":"Nocera Inferiore Sc. Solimena","pollutant":"PM10","date":"2025-10-28T00:00:00.000","value":19.4979166667,"Ore_Disponibili":24,"lat":40.7473393,"lon":14.6410145,"date_only":"2025-10-28T00:00:00.000"},{"station":"IT2214A","station_name":"Nocera Inferiore Sc. Solimena","pollutant":"PM2,5","date":"2025-10-28T00:00:00.000","value":9.32875,"Ore_Disponibili":24,"lat":40.7473393,"lon":14.6410145,"date_only":"2025-10-28T00:00:00.000"},{"station":"IT2215A","station_name":"Benevento Zona Industriale \u00b0","pollutant":"NO2","date":"2025-10-28T00:00:00.000","value":10.1,"Ore_Disponibili":24,"lat":41.2293368,"lon":14.4782074,"date_only":"2025-10-28T00:00:00.000"},{"station":"IT2215A","station_name":"Benevento Zona Industriale \u00b0","pollutant":"O3","date":"2025-10-28T00:00:00.000","value":34.7904347826,"Ore_Disponibili":23,"lat":41.2293368,"lon":14.4782074,"date_only":"2025-10-28T00:00:00.000"},{"station":"IT2215A","station_name":"Benevento Zona Industriale \u00b0","pollutant":"PM10","date":"2025-10-28T00:00:00.000","value":14.2754166667,"Ore_Disponibili":24,"lat":41.2293368,"lon":14.4782074,"date_only":"2025-10-28T00:00:00.000"},{"station":"IT2215A","station_name":"Benevento Zona Industriale \u00b0","pollutant":"PM2,5","date":"2025-10-28T00:00:00.000","value":6.8033333333,"Ore_Disponibili":24,"lat":41.2293368,"lon":14.4782074,"date_only":"2025-10-28T00:00:00.000"},{"station":"IT2216A","station_name":"Casoria Scuola Palizzi","pollutant":"NO2","date":"2025-10-28T00:00:00.000","value":36.402173913,"Ore_Disponibili":23,"lat":40.904,"lon":14.289,"date_only":"2025-10-28T00:00:00.000"},{"station":"IT2216A","station_name":"Casoria Scuola Palizzi","pollutant":"O3","date":"2025-10-28T00:00:00.000","value":28.0826086957,"Ore_Disponibili":23,"lat":40.904,"lon":14.289,"date_only":"2025-10-28T00:00:00.000"},{"station":"IT2216A","station_name":"Casoria Scuola Palizzi","pollutant":"PM10","date":"2025-10-28T00:00:00.000","value":33.9225,"Ore_Disponibili":24,"lat":40.904,"lon":14.289,"date_only":"2025-10-28T00:00:00.000"},{"station":"IT2216A","station_name":"Casoria Scuola Palizzi","pollutant":"PM2,5","date":"2025-10-28T00:00:00.000","value":16.4620833333,"Ore_Disponibili":24,"lat":40.904,"lon":14.289,"date_only":"2025-10-28T00:00:00.000"},{"station":"IT2217A","station_name":"Torre Annunziata Sc. Pascoli","pollutant":"NO2","date":"2025-10-28T00:00:00.000","value":21.5572727273,"Ore_Disponibili":22,"lat":40.7469754,"lon":14.4608234,"date_only":"2025-10-28T00:00:00.000"},{"station":"IT2217A","station_name":"Torre Annunziata Sc. Pascoli","pollutant":"O3","date":"2025-10-28T00:00:00.000","value":36.9539130435,"Ore_Disponibili":23,"lat":40.7469754,"lon":14.4608234,"date_only":"2025-10-28T00:00:00.000"},{"station":"IT2218A","station_name":"San Felice a Cancello C. Scolast.","pollutant":"CO","date":"2025-10-28T00:00:00.000","value":0.4170833333,"Ore_Disponibili":24,"lat":41.015,"lon":14.287,"date_only":"2025-10-28T00:00:00.000"},{"station":"IT2218A","station_name":"San Felice a Cancello C. Scolast.","pollutant":"NO2","date":"2025-10-28T00:00:00.000","value":17.2930434783,"Ore_Disponibili":23,"lat":41.015,"lon":14.287,"date_only":"2025-10-28T00:00:00.000"},{"station":"IT2218A","station_name":"San Felice a Cancello C. Scolast.","pollutant":"O3","date":"2025-10-28T00:00:00.000","value":34.8730434783,"Ore_Disponibili":23,"lat":41.015,"lon":14.287,"date_only":"2025-10-28T00:00:00.000"},{"station":"IT2218A","station_name":"San Felice a Cancello C. Scolast.","pollutant":"PM10","date":"2025-10-28T00:00:00.000","value":20.6554166667,"Ore_Disponibili":24,"lat":41.015,"lon":14.287,"date_only":"2025-10-28T00:00:00.000"},{"station":"IT2218A","station_name":"San Felice a Cancello C. Scolast.","pollutant":"PM2,5","date":"2025-10-28T00:00:00.000","value":9.1175,"Ore_Disponibili":24,"lat":41.015,"lon":14.287,"date_only":"2025-10-28T00:00:00.000"},{"station":"IT2219A","station_name":"Acerra Scuola Caporale","pollutant":"CO","date":"2025-10-28T00:00:00.000","value":0.6395652174,"Ore_Disponibili":23,"lat":40.9071,"lon":14.3429,"date_only":"2025-10-28T00:00:00.000"},{"station":"IT2219A","station_name":"Acerra Scuola Caporale","pollutant":"NO2","date":"2025-10-28T00:00:00.000","value":26.7747826087,"Ore_Disponibili":23,"lat":40.9071,"lon":14.3429,"date_only":"2025-10-28T00:00:00.000"},{"station":"IT2219A","station_name":"Acerra Scuola Caporale","pollutant":"PM10","date":"2025-10-28T00:00:00.000","value":23.9033333333,"Ore_Disponibili":24,"lat":40.9071,"lon":14.3429,"date_only":"2025-10-28T00:00:00.000"},{"station":"IT2219A","station_name":"Acerra Scuola Caporale","pollutant":"PM2,5","date":"2025-10-28T00:00:00.000","value":11.6854166667,"Ore_Disponibili":24,"lat":40.9071,"lon":14.3429,"date_only":"2025-10-28T00:00:00.000"},{"station":"IT2221A","station_name":"Napoli via Epomeo *\u00b0","pollutant":"CO","date":"2025-10-28T00:00:00.000","value":0.5166666667,"Ore_Disponibili":24,"lat":40.7205434,"lon":13.8987737,"date_only":"2025-10-28T00:00:00.000"},{"station":"IT2221A","station_name":"Napoli via Epomeo *\u00b0","pollutant":"NO2","date":"2025-10-28T00:00:00.000","value":16.3604347826,"Ore_Disponibili":23,"lat":40.7205434,"lon":13.8987737,"date_only":"2025-10-28T00:00:00.000"},{"station":"IT2221A","station_name":"Napoli via Epomeo *\u00b0","pollutant":"O3","date":"2025-10-28T00:00:00.000","value":26.2733333333,"Ore_Disponibili":24,"lat":40.7205434,"lon":13.8987737,"date_only":"2025-10-28T00:00:00.000"},{"station":"IT2221A","station_name":"Napoli via Epomeo *\u00b0","pollutant":"PM10","date":"2025-10-28T00:00:00.000","value":24.3529166667,"Ore_Disponibili":24,"lat":40.7205434,"lon":13.8987737,"date_only":"2025-10-28T00:00:00.000"},{"station":"IT2221A","station_name":"Napoli via Epomeo *\u00b0","pollutant":"PM2,5","date":"2025-10-28T00:00:00.000","value":11.4504166667,"Ore_Disponibili":24,"lat":40.7205434,"lon":13.8987737,"date_only":"2025-10-28T00:00:00.000"},{"station":"IT2223A","station_name":"Volla Via Filichito *\u00b0","pollutant":"CO","date":"2025-10-28T00:00:00.000","value":0.3779166667,"Ore_Disponibili":24,"lat":40.8824226,"lon":14.3478545,"date_only":"2025-10-28T00:00:00.000"},{"station":"IT2223A","station_name":"Volla Via Filichito *\u00b0","pollutant":"NO2","date":"2025-10-28T00:00:00.000","value":30.9233333333,"Ore_Disponibili":24,"lat":40.8824226,"lon":14.3478545,"date_only":"2025-10-28T00:00:00.000"},{"station":"IT2223A","station_name":"Volla Via Filichito *\u00b0","pollutant":"O3","date":"2025-10-28T00:00:00.000","value":12.7191666667,"Ore_Disponibili":24,"lat":40.8824226,"lon":14.3478545,"date_only":"2025-10-28T00:00:00.000"},{"station":"IT2223A","station_name":"Volla Via Filichito *\u00b0","pollutant":"PM10","date":"2025-10-28T00:00:00.000","value":17.1729166667,"Ore_Disponibili":24,"lat":40.8824226,"lon":14.3478545,"date_only":"2025-10-28T00:00:00.000"},{"station":"IT2223A","station_name":"Volla Via Filichito *\u00b0","pollutant":"PM2,5","date":"2025-10-28T00:00:00.000","value":9.2316666667,"Ore_Disponibili":24,"lat":40.8824226,"lon":14.3478545,"date_only":"2025-10-28T00:00:00.000"},{"station":"IT2226A","station_name":"Pomigliano d'Arco Area Asi","pollutant":"CO","date":"2025-10-28T00:00:00.000","value":0.7373913043,"Ore_Disponibili":23,"lat":40.412,"lon":15.341,"date_only":"2025-10-28T00:00:00.000"},{"station":"IT2226A","station_name":"Pomigliano d'Arco Area Asi","pollutant":"NO2","date":"2025-10-28T00:00:00.000","value":38.7717391304,"Ore_Disponibili":23,"lat":40.412,"lon":15.341,"date_only":"2025-10-28T00:00:00.000"},{"station":"IT2226A","station_name":"Pomigliano d'Arco Area Asi","pollutant":"PM10","date":"2025-10-28T00:00:00.000","value":21.3291666667,"Ore_Disponibili":24,"lat":40.412,"lon":15.341,"date_only":"2025-10-28T00:00:00.000"},{"station":"IT2226A","station_name":"Pomigliano d'Arco Area Asi","pollutant":"PM2,5","date":"2025-10-28T00:00:00.000","value":9.285,"Ore_Disponibili":20,"lat":40.412,"lon":15.341,"date_only":"2025-10-28T00:00:00.000"},{"station":"IT2227A","station_name":"Avellino Scuola Alighieri","pollutant":"CO","date":"2025-10-28T00:00:00.000","value":0.6420833333,"Ore_Disponibili":24,"lat":40.9190395,"lon":14.784947,"date_only":"2025-10-28T00:00:00.000"},{"station":"IT2227A","station_name":"Avellino Scuola Alighieri","pollutant":"NO2","date":"2025-10-28T00:00:00.000","value":28.175,"Ore_Disponibili":24,"lat":40.9190395,"lon":14.784947,"date_only":"2025-10-28T00:00:00.000"},{"station":"IT2227A","station_name":"Avellino Scuola Alighieri","pollutant":"PM10","date":"2025-10-28T00:00:00.000","value":9.99875,"Ore_Disponibili":24,"lat":40.9190395,"lon":14.784947,"date_only":"2025-10-28T00:00:00.000"},{"station":"IT2227A","station_name":"Avellino Scuola Alighieri","pollutant":"PM2,5","date":"2025-10-28T00:00:00.000","value":5.4829166667,"Ore_Disponibili":24,"lat":40.9190395,"lon":14.784947,"date_only":"2025-10-28T00:00:00.000"},{"station":"IT2228A","station_name":"Benevento Campo Sportivo","pollutant":"NO2","date":"2025-10-28T00:00:00.000","value":17.3129166667,"Ore_Disponibili":24,"lat":41.2315276,"lon":14.5332703,"date_only":"2025-10-28T00:00:00.000"},{"station":"IT2228A","station_name":"Benevento Campo Sportivo","pollutant":"O3","date":"2025-10-28T00:00:00.000","value":36.0591666667,"Ore_Disponibili":24,"lat":41.2315276,"lon":14.5332703,"date_only":"2025-10-28T00:00:00.000"},{"station":"IT2228A","station_name":"Benevento Campo Sportivo","pollutant":"PM10","date":"2025-10-28T00:00:00.000","value":17.8154166667,"Ore_Disponibili":24,"lat":41.2315276,"lon":14.5332703,"date_only":"2025-10-28T00:00:00.000"},{"station":"IT2228A","station_name":"Benevento Campo Sportivo","pollutant":"PM2,5","date":"2025-10-28T00:00:00.000","value":10.1370833333,"Ore_Disponibili":24,"lat":41.2315276,"lon":14.5332703,"date_only":"2025-10-28T00:00:00.000"},{"station":"IT2268A","station_name":"Battipaglia Parco Fiume","pollutant":"NO2","date":"2025-10-28T00:00:00.000","value":16.0704347826,"Ore_Disponibili":23,"lat":40.6167,"lon":14.9833,"date_only":"2025-10-28T00:00:00.000"},{"station":"IT2268A","station_name":"Battipaglia Parco Fiume","pollutant":"O3","date":"2025-10-28T00:00:00.000","value":35.0695652174,"Ore_Disponibili":23,"lat":40.6167,"lon":14.9833,"date_only":"2025-10-28T00:00:00.000"},{"station":"IT2268A","station_name":"Battipaglia Parco Fiume","pollutant":"PM2,5","date":"2025-10-28T00:00:00.000","value":5.6,"Ore_Disponibili":24,"lat":40.6167,"lon":14.9833,"date_only":"2025-10-28T00:00:00.000"},{"station":"IT2270A","station_name":"Portici Parco Reggia","pollutant":"NO2","date":"2025-10-28T00:00:00.000","value":24.8173913043,"Ore_Disponibili":23,"lat":40.813588,"lon":14.3476526,"date_only":"2025-10-28T00:00:00.000"},{"station":"IT2270A","station_name":"Portici Parco Reggia","pollutant":"O3","date":"2025-10-28T00:00:00.000","value":20.2611764706,"Ore_Disponibili":17,"lat":40.813588,"lon":14.3476526,"date_only":"2025-10-28T00:00:00.000"},{"station":"IT2270A","station_name":"Portici Parco Reggia","pollutant":"PM10","date":"2025-10-28T00:00:00.000","value":18.9416666667,"Ore_Disponibili":24,"lat":40.813588,"lon":14.3476526,"date_only":"2025-10-28T00:00:00.000"},{"station":"IT2270A","station_name":"Portici Parco Reggia","pollutant":"PM2,5","date":"2025-10-28T00:00:00.000","value":9.43625,"Ore_Disponibili":24,"lat":40.813588,"lon":14.3476526,"date_only":"2025-10-28T00:00:00.000"},{"station":"IT2271A","station_name":"Aversa Scuola Cirillo \u00b0","pollutant":"CO","date":"2025-10-28T00:00:00.000","value":0.787826087,"Ore_Disponibili":23,"lat":40.9758352,"lon":14.2117669,"date_only":"2025-10-28T00:00:00.000"},{"station":"IT2271A","station_name":"Aversa Scuola Cirillo \u00b0","pollutant":"NO2","date":"2025-10-28T00:00:00.000","value":37.7108695652,"Ore_Disponibili":23,"lat":40.9758352,"lon":14.2117669,"date_only":"2025-10-28T00:00:00.000"},{"station":"IT2271A","station_name":"Aversa Scuola Cirillo \u00b0","pollutant":"PM10","date":"2025-10-28T00:00:00.000","value":26.6608333333,"Ore_Disponibili":24,"lat":40.9758352,"lon":14.2117669,"date_only":"2025-10-28T00:00:00.000"},{"station":"IT2271A","station_name":"Aversa Scuola Cirillo \u00b0","pollutant":"PM2,5","date":"2025-10-28T00:00:00.000","value":12.9795833333,"Ore_Disponibili":24,"lat":40.9758352,"lon":14.2117669,"date_only":"2025-10-28T00:00:00.000"},{"station":"IT2272A","station_name":"Pozzuoli Zona Villa Avellino","pollutant":"NO2","date":"2025-10-28T00:00:00.000","value":17.7617391304,"Ore_Disponibili":23,"lat":40.834,"lon":14.119,"date_only":"2025-10-28T00:00:00.000"},{"station":"IT2272A","station_name":"Pozzuoli Zona Villa Avellino","pollutant":"O3","date":"2025-10-28T00:00:00.000","value":36.5125,"Ore_Disponibili":24,"lat":40.834,"lon":14.119,"date_only":"2025-10-28T00:00:00.000"},{"station":"IT2272A","station_name":"Pozzuoli Zona Villa Avellino","pollutant":"PM10","date":"2025-10-28T00:00:00.000","value":25.065,"Ore_Disponibili":24,"lat":40.834,"lon":14.119,"date_only":"2025-10-28T00:00:00.000"},{"station":"IT2272A","station_name":"Pozzuoli Zona Villa Avellino","pollutant":"PM2,5","date":"2025-10-28T00:00:00.000","value":10.56625,"Ore_Disponibili":24,"lat":40.834,"lon":14.119,"date_only":"2025-10-28T00:00:00.000"},{"station":"IT2273A","station_name":"Polla Area Tritovagliatore","pollutant":"CO","date":"2025-10-28T00:00:00.000","value":0.307826087,"Ore_Disponibili":23,"lat":40.412,"lon":15.341,"date_only":"2025-10-28T00:00:00.000"},{"station":"IT2273A","station_name":"Polla Area Tritovagliatore","pollutant":"NO2","date":"2025-10-28T00:00:00.000","value":15.0730434783,"Ore_Disponibili":23,"lat":40.412,"lon":15.341,"date_only":"2025-10-28T00:00:00.000"},{"station":"IT2273A","station_name":"Polla Area Tritovagliatore","pollutant":"PM10","date":"2025-10-28T00:00:00.000","value":8.7908333333,"Ore_Disponibili":24,"lat":40.412,"lon":15.341,"date_only":"2025-10-28T00:00:00.000"},{"station":"IT2273A","station_name":"Polla Area Tritovagliatore","pollutant":"PM2,5","date":"2025-10-28T00:00:00.000","value":4.3670833333,"Ore_Disponibili":24,"lat":40.412,"lon":15.341,"date_only":"2025-10-28T00:00:00.000"},{"station":"IT2276A","station_name":"Ariano Irpino Stadio","pollutant":"CO","date":"2025-10-28T00:00:00.000","value":0.12,"Ore_Disponibili":24,"lat":41.1555975,"lon":15.0967062,"date_only":"2025-10-28T00:00:00.000"},{"station":"IT2276A","station_name":"Ariano Irpino Stadio","pollutant":"NO2","date":"2025-10-28T00:00:00.000","value":5.6117391304,"Ore_Disponibili":23,"lat":41.1555975,"lon":15.0967062,"date_only":"2025-10-28T00:00:00.000"},{"station":"IT2276A","station_name":"Ariano Irpino Stadio","pollutant":"O3","date":"2025-10-28T00:00:00.000","value":71.5556521739,"Ore_Disponibili":23,"lat":41.1555975,"lon":15.0967062,"date_only":"2025-10-28T00:00:00.000"},{"station":"IT2277A","station_name":"Napoli Parco Virgiliano","pollutant":"CO","date":"2025-10-28T00:00:00.000","value":0.135,"Ore_Disponibili":24,"lat":40.7984999,"lon":14.1790765,"date_only":"2025-10-28T00:00:00.000"},{"station":"IT2277A","station_name":"Napoli Parco Virgiliano","pollutant":"NO2","date":"2025-10-28T00:00:00.000","value":8.7665217391,"Ore_Disponibili":23,"lat":40.7984999,"lon":14.1790765,"date_only":"2025-10-28T00:00:00.000"},{"station":"IT2277A","station_name":"Napoli Parco Virgiliano","pollutant":"O3","date":"2025-10-28T00:00:00.000","value":66.3333333333,"Ore_Disponibili":24,"lat":40.7984999,"lon":14.1790765,"date_only":"2025-10-28T00:00:00.000"},{"station":"IT2277A","station_name":"Napoli Parco Virgiliano","pollutant":"PM10","date":"2025-10-28T00:00:00.000","value":24.7,"Ore_Disponibili":24,"lat":40.7984999,"lon":14.1790765,"date_only":"2025-10-28T00:00:00.000"},{"station":"IT2277A","station_name":"Napoli Parco Virgiliano","pollutant":"PM2,5","date":"2025-10-28T00:00:00.000","value":6.6,"Ore_Disponibili":24,"lat":40.7984999,"lon":14.1790765,"date_only":"2025-10-28T00:00:00.000"},{"station":"IT2283A","station_name":"Ottati Alburni","pollutant":"NO2","date":"2025-10-28T00:00:00.000","value":1.4626086957,"Ore_Disponibili":23,"lat":40.306,"lon":15.277,"date_only":"2025-10-28T00:00:00.000"},{"station":"IT2283A","station_name":"Ottati Alburni","pollutant":"O3","date":"2025-10-28T00:00:00.000","value":54.9641666667,"Ore_Disponibili":24,"lat":40.306,"lon":15.277,"date_only":"2025-10-28T00:00:00.000"},{"station":"IT2283A","station_name":"Ottati Alburni","pollutant":"PM10","date":"2025-10-28T00:00:00.000","value":1.9,"Ore_Disponibili":24,"lat":40.306,"lon":15.277,"date_only":"2025-10-28T00:00:00.000"},{"station":"IT2283A","station_name":"Ottati Alburni","pollutant":"PM2,5","date":"2025-10-28T00:00:00.000","value":0.0,"Ore_Disponibili":24,"lat":40.306,"lon":15.277,"date_only":"2025-10-28T00:00:00.000"}]