[{"station":"IT0898A","station_name":"Napoli NA06 Museo Nazionale","pollutant":"CO","date":"2025-11-01T00:00:00.000","value":0.9079166667,"Ore_Disponibili":24,"lat":40.8536064,"lon":14.25115,"date_only":"2025-11-01T00:00:00.000"},{"station":"IT0898A","station_name":"Napoli NA06 Museo Nazionale","pollutant":"NO2","date":"2025-11-01T00:00:00.000","value":46.7191666667,"Ore_Disponibili":24,"lat":40.8536064,"lon":14.25115,"date_only":"2025-11-01T00:00:00.000"},{"station":"IT0898A","station_name":"Napoli NA06 Museo Nazionale","pollutant":"PM10","date":"2025-11-01T00:00:00.000","value":24.6416666667,"Ore_Disponibili":24,"lat":40.8536064,"lon":14.25115,"date_only":"2025-11-01T00:00:00.000"},{"station":"IT0898A","station_name":"Napoli NA06 Museo Nazionale","pollutant":"PM2,5","date":"2025-11-01T00:00:00.000","value":17.3833333333,"Ore_Disponibili":24,"lat":40.8536064,"lon":14.25115,"date_only":"2025-11-01T00:00:00.000"},{"station":"IT0934A","station_name":"Benevento BN32 Via Mustilli","pollutant":"NO2","date":"2025-11-01T00:00:00.000","value":21.0975,"Ore_Disponibili":24,"lat":41.1317868,"lon":14.7885516,"date_only":"2025-11-01T00:00:00.000"},{"station":"IT0934A","station_name":"Benevento BN32 Via Mustilli","pollutant":"PM10","date":"2025-11-01T00:00:00.000","value":24.0041666667,"Ore_Disponibili":24,"lat":41.1317868,"lon":14.7885516,"date_only":"2025-11-01T00:00:00.000"},{"station":"IT0934A","station_name":"Benevento BN32 Via Mustilli","pollutant":"PM2,5","date":"2025-11-01T00:00:00.000","value":12.875,"Ore_Disponibili":24,"lat":41.1317868,"lon":14.7885516,"date_only":"2025-11-01T00:00:00.000"},{"station":"IT0936A","station_name":"Avellino AV41 Sc. V Circolo \u00b0","pollutant":"NO2","date":"2025-11-01T00:00:00.000","value":15.96125,"Ore_Disponibili":24,"lat":40.9152,"lon":14.7955,"date_only":"2025-11-01T00:00:00.000"},{"station":"IT0936A","station_name":"Avellino AV41 Sc. V Circolo \u00b0","pollutant":"O3","date":"2025-11-01T00:00:00.000","value":40.0491666667,"Ore_Disponibili":24,"lat":40.9152,"lon":14.7955,"date_only":"2025-11-01T00:00:00.000"},{"station":"IT0936A","station_name":"Avellino AV41 Sc. V Circolo \u00b0","pollutant":"PM10","date":"2025-11-01T00:00:00.000","value":18.4433333333,"Ore_Disponibili":24,"lat":40.9152,"lon":14.7955,"date_only":"2025-11-01T00:00:00.000"},{"station":"IT0936A","station_name":"Avellino AV41 Sc. V Circolo \u00b0","pollutant":"PM2,5","date":"2025-11-01T00:00:00.000","value":14.1533333333,"Ore_Disponibili":24,"lat":40.9152,"lon":14.7955,"date_only":"2025-11-01T00:00:00.000"},{"station":"IT1041A","station_name":"Salerno SA23 Scuola Conti \u00b0","pollutant":"NO2","date":"2025-11-01T00:00:00.000","value":22.3675,"Ore_Disponibili":24,"lat":40.675,"lon":14.768,"date_only":"2025-11-01T00:00:00.000"},{"station":"IT1041A","station_name":"Salerno SA23 Scuola Conti \u00b0","pollutant":"O3","date":"2025-11-01T00:00:00.000","value":40.4463157895,"Ore_Disponibili":19,"lat":40.675,"lon":14.768,"date_only":"2025-11-01T00:00:00.000"},{"station":"IT1041A","station_name":"Salerno SA23 Scuola Conti \u00b0","pollutant":"PM2,5","date":"2025-11-01T00:00:00.000","value":22.4,"Ore_Disponibili":24,"lat":40.675,"lon":14.768,"date_only":"2025-11-01T00:00:00.000"},{"station":"IT1486A","station_name":"Caserta CE51 Ist. Manzoni","pollutant":"NO2","date":"2025-11-01T00:00:00.000","value":16.6191666667,"Ore_Disponibili":24,"lat":41.0818,"lon":14.3349,"date_only":"2025-11-01T00:00:00.000"},{"station":"IT1486A","station_name":"Caserta CE51 Ist. Manzoni","pollutant":"O3","date":"2025-11-01T00:00:00.000","value":57.7541666667,"Ore_Disponibili":24,"lat":41.0818,"lon":14.3349,"date_only":"2025-11-01T00:00:00.000"},{"station":"IT1486A","station_name":"Caserta CE51 Ist. Manzoni","pollutant":"PM10","date":"2025-11-01T00:00:00.000","value":14.3541666667,"Ore_Disponibili":24,"lat":41.0818,"lon":14.3349,"date_only":"2025-11-01T00:00:00.000"},{"station":"IT1486A","station_name":"Caserta CE51 Ist. Manzoni","pollutant":"PM2,5","date":"2025-11-01T00:00:00.000","value":7.647826087,"Ore_Disponibili":23,"lat":41.0818,"lon":14.3349,"date_only":"2025-11-01T00:00:00.000"},{"station":"IT1487A","station_name":"Caserta CE52 Sc. De Amicis","pollutant":"CO","date":"2025-11-01T00:00:00.000","value":0.3473913043,"Ore_Disponibili":23,"lat":41.0085302,"lon":14.0787912,"date_only":"2025-11-01T00:00:00.000"},{"station":"IT1487A","station_name":"Caserta CE52 Sc. De Amicis","pollutant":"NO2","date":"2025-11-01T00:00:00.000","value":14.2943478261,"Ore_Disponibili":23,"lat":41.0085302,"lon":14.0787912,"date_only":"2025-11-01T00:00:00.000"},{"station":"IT1487A","station_name":"Caserta CE52 Sc. De Amicis","pollutant":"PM10","date":"2025-11-01T00:00:00.000","value":57.3,"Ore_Disponibili":24,"lat":41.0085302,"lon":14.0787912,"date_only":"2025-11-01T00:00:00.000"},{"station":"IT1487A","station_name":"Caserta CE52 Sc. De Amicis","pollutant":"PM2,5","date":"2025-11-01T00:00:00.000","value":2.0,"Ore_Disponibili":24,"lat":41.0085302,"lon":14.0787912,"date_only":"2025-11-01T00:00:00.000"},{"station":"IT1488A","station_name":"Maddaloni CE54 Sc. Settembrini","pollutant":"NO2","date":"2025-11-01T00:00:00.000","value":13.4677272727,"Ore_Disponibili":22,"lat":41.094,"lon":14.402,"date_only":"2025-11-01T00:00:00.000"},{"station":"IT1488A","station_name":"Maddaloni CE54 Sc. Settembrini","pollutant":"O3","date":"2025-11-01T00:00:00.000","value":38.6208695652,"Ore_Disponibili":23,"lat":41.094,"lon":14.402,"date_only":"2025-11-01T00:00:00.000"},{"station":"IT1488A","station_name":"Maddaloni CE54 Sc. Settembrini","pollutant":"PM10","date":"2025-11-01T00:00:00.000","value":20.8104166667,"Ore_Disponibili":24,"lat":41.094,"lon":14.402,"date_only":"2025-11-01T00:00:00.000"},{"station":"IT1488A","station_name":"Maddaloni CE54 Sc. Settembrini","pollutant":"PM2,5","date":"2025-11-01T00:00:00.000","value":12.0804166667,"Ore_Disponibili":24,"lat":41.094,"lon":14.402,"date_only":"2025-11-01T00:00:00.000"},{"station":"IT1491A","station_name":"Napoli NA07 Ferrovia \u00b0","pollutant":"CO","date":"2025-11-01T00:00:00.000","value":0.8595833333,"Ore_Disponibili":24,"lat":40.8277815,"lon":14.3989433,"date_only":"2025-11-01T00:00:00.000"},{"station":"IT1491A","station_name":"Napoli NA07 Ferrovia \u00b0","pollutant":"NO2","date":"2025-11-01T00:00:00.000","value":52.9595833333,"Ore_Disponibili":24,"lat":40.8277815,"lon":14.3989433,"date_only":"2025-11-01T00:00:00.000"},{"station":"IT1491A","station_name":"Napoli NA07 Ferrovia \u00b0","pollutant":"PM10","date":"2025-11-01T00:00:00.000","value":27.8458333333,"Ore_Disponibili":24,"lat":40.8277815,"lon":14.3989433,"date_only":"2025-11-01T00:00:00.000"},{"station":"IT1491A","station_name":"Napoli NA07 Ferrovia \u00b0","pollutant":"PM2,5","date":"2025-11-01T00:00:00.000","value":17.9217391304,"Ore_Disponibili":23,"lat":40.8277815,"lon":14.3989433,"date_only":"2025-11-01T00:00:00.000"},{"station":"IT1493A","station_name":"Napoli NA09 Via Argine","pollutant":"CO","date":"2025-11-01T00:00:00.000","value":0.7358333333,"Ore_Disponibili":24,"lat":40.8560636,"lon":14.3234622,"date_only":"2025-11-01T00:00:00.000"},{"station":"IT1493A","station_name":"Napoli NA09 Via Argine","pollutant":"NO2","date":"2025-11-01T00:00:00.000","value":41.1125,"Ore_Disponibili":24,"lat":40.8560636,"lon":14.3234622,"date_only":"2025-11-01T00:00:00.000"},{"station":"IT1493A","station_name":"Napoli NA09 Via Argine","pollutant":"PM10","date":"2025-11-01T00:00:00.000","value":29.225,"Ore_Disponibili":24,"lat":40.8560636,"lon":14.3234622,"date_only":"2025-11-01T00:00:00.000"},{"station":"IT1493A","station_name":"Napoli NA09 Via Argine","pollutant":"PM2,5","date":"2025-11-01T00:00:00.000","value":19.2541666667,"Ore_Disponibili":24,"lat":40.8560636,"lon":14.3234622,"date_only":"2025-11-01T00:00:00.000"},{"station":"IT1495A","station_name":"Napoli NA08 Osp. N. Pellegrini","pollutant":"NO2","date":"2025-11-01T00:00:00.000","value":37.6029166667,"Ore_Disponibili":24,"lat":40.8535,"lon":14.235,"date_only":"2025-11-01T00:00:00.000"},{"station":"IT1495A","station_name":"Napoli NA08 Osp. N. Pellegrini","pollutant":"PM10","date":"2025-11-01T00:00:00.000","value":29.0,"Ore_Disponibili":24,"lat":40.8535,"lon":14.235,"date_only":"2025-11-01T00:00:00.000"},{"station":"IT1496A","station_name":"Napoli NA02 Osp. Santobono \u00b0","pollutant":"NO2","date":"2025-11-01T00:00:00.000","value":40.8754166667,"Ore_Disponibili":24,"lat":40.8554,"lon":14.2231,"date_only":"2025-11-01T00:00:00.000"},{"station":"IT1496A","station_name":"Napoli NA02 Osp. Santobono \u00b0","pollutant":"PM10","date":"2025-11-01T00:00:00.000","value":14.7183333333,"Ore_Disponibili":24,"lat":40.8554,"lon":14.2231,"date_only":"2025-11-01T00:00:00.000"},{"station":"IT1496A","station_name":"Napoli NA02 Osp. Santobono \u00b0","pollutant":"PM2,5","date":"2025-11-01T00:00:00.000","value":9.21125,"Ore_Disponibili":24,"lat":40.8554,"lon":14.2231,"date_only":"2025-11-01T00:00:00.000"},{"station":"IT1497A","station_name":"Napoli NA01 Oss. Astronomico","pollutant":"CO","date":"2025-11-01T00:00:00.000","value":0.1109090909,"Ore_Disponibili":22,"lat":40.853,"lon":14.305,"date_only":"2025-11-01T00:00:00.000"},{"station":"IT1497A","station_name":"Napoli NA01 Oss. Astronomico","pollutant":"NO2","date":"2025-11-01T00:00:00.000","value":20.5860869565,"Ore_Disponibili":23,"lat":40.853,"lon":14.305,"date_only":"2025-11-01T00:00:00.000"},{"station":"IT1497A","station_name":"Napoli NA01 Oss. Astronomico","pollutant":"O3","date":"2025-11-01T00:00:00.000","value":50.0125,"Ore_Disponibili":24,"lat":40.853,"lon":14.305,"date_only":"2025-11-01T00:00:00.000"},{"station":"IT1497A","station_name":"Napoli NA01 Oss. Astronomico","pollutant":"PM10","date":"2025-11-01T00:00:00.000","value":12.9166666667,"Ore_Disponibili":24,"lat":40.853,"lon":14.305,"date_only":"2025-11-01T00:00:00.000"},{"station":"IT1497A","station_name":"Napoli NA01 Oss. Astronomico","pollutant":"PM2,5","date":"2025-11-01T00:00:00.000","value":8.23875,"Ore_Disponibili":24,"lat":40.853,"lon":14.305,"date_only":"2025-11-01T00:00:00.000"},{"station":"IT1504A","station_name":"Salerno SA22 Osp. Via Vernieri","pollutant":"CO","date":"2025-11-01T00:00:00.000","value":0.6895833333,"Ore_Disponibili":24,"lat":40.682,"lon":14.766,"date_only":"2025-11-01T00:00:00.000"},{"station":"IT1504A","station_name":"Salerno SA22 Osp. Via Vernieri","pollutant":"NO2","date":"2025-11-01T00:00:00.000","value":22.9458333333,"Ore_Disponibili":24,"lat":40.682,"lon":14.766,"date_only":"2025-11-01T00:00:00.000"},{"station":"IT1504A","station_name":"Salerno SA22 Osp. Via Vernieri","pollutant":"PM10","date":"2025-11-01T00:00:00.000","value":16.2304347826,"Ore_Disponibili":23,"lat":40.682,"lon":14.766,"date_only":"2025-11-01T00:00:00.000"},{"station":"IT1504A","station_name":"Salerno SA22 Osp. Via Vernieri","pollutant":"PM2,5","date":"2025-11-01T00:00:00.000","value":10.895,"Ore_Disponibili":20,"lat":40.682,"lon":14.766,"date_only":"2025-11-01T00:00:00.000"},{"station":"IT2210A","station_name":"Solofra Zona Industriale","pollutant":"CO","date":"2025-11-01T00:00:00.000","value":0.5808695652,"Ore_Disponibili":23,"lat":41.058,"lon":14.808,"date_only":"2025-11-01T00:00:00.000"},{"station":"IT2210A","station_name":"Solofra Zona Industriale","pollutant":"NO2","date":"2025-11-01T00:00:00.000","value":6.9947826087,"Ore_Disponibili":23,"lat":41.058,"lon":14.808,"date_only":"2025-11-01T00:00:00.000"},{"station":"IT2210A","station_name":"Solofra Zona Industriale","pollutant":"PM10","date":"2025-11-01T00:00:00.000","value":20.0791666667,"Ore_Disponibili":24,"lat":41.058,"lon":14.808,"date_only":"2025-11-01T00:00:00.000"},{"station":"IT2210A","station_name":"Solofra Zona Industriale","pollutant":"PM2,5","date":"2025-11-01T00:00:00.000","value":13.435,"Ore_Disponibili":24,"lat":41.058,"lon":14.808,"date_only":"2025-11-01T00:00:00.000"},{"station":"IT2211A","station_name":"Acerra Zona Industriale","pollutant":"CO","date":"2025-11-01T00:00:00.000","value":0.4395652174,"Ore_Disponibili":23,"lat":40.9847962,"lon":14.3679606,"date_only":"2025-11-01T00:00:00.000"},{"station":"IT2211A","station_name":"Acerra Zona Industriale","pollutant":"NO2","date":"2025-11-01T00:00:00.000","value":31.8569565217,"Ore_Disponibili":23,"lat":40.9847962,"lon":14.3679606,"date_only":"2025-11-01T00:00:00.000"},{"station":"IT2211A","station_name":"Acerra Zona Industriale","pollutant":"PM10","date":"2025-11-01T00:00:00.000","value":33.6,"Ore_Disponibili":24,"lat":40.9847962,"lon":14.3679606,"date_only":"2025-11-01T00:00:00.000"},{"station":"IT2211A","station_name":"Acerra Zona Industriale","pollutant":"PM2,5","date":"2025-11-01T00:00:00.000","value":15.4,"Ore_Disponibili":24,"lat":40.9847962,"lon":14.3679606,"date_only":"2025-11-01T00:00:00.000"},{"station":"IT2212A","station_name":"S. Vitaliano Scuola Marconi","pollutant":"NO2","date":"2025-11-01T00:00:00.000","value":46.6986956522,"Ore_Disponibili":23,"lat":40.896,"lon":14.46,"date_only":"2025-11-01T00:00:00.000"},{"station":"IT2212A","station_name":"S. Vitaliano Scuola Marconi","pollutant":"O3","date":"2025-11-01T00:00:00.000","value":23.5904347826,"Ore_Disponibili":23,"lat":40.896,"lon":14.46,"date_only":"2025-11-01T00:00:00.000"},{"station":"IT2212A","station_name":"S. Vitaliano Scuola Marconi","pollutant":"PM10","date":"2025-11-01T00:00:00.000","value":29.575,"Ore_Disponibili":24,"lat":40.896,"lon":14.46,"date_only":"2025-11-01T00:00:00.000"},{"station":"IT2212A","station_name":"S. Vitaliano Scuola Marconi","pollutant":"PM2,5","date":"2025-11-01T00:00:00.000","value":20.7845833333,"Ore_Disponibili":24,"lat":40.896,"lon":14.46,"date_only":"2025-11-01T00:00:00.000"},{"station":"IT2213A","station_name":"Cava dei Tirreni Stadio","pollutant":"CO","date":"2025-11-01T00:00:00.000","value":0.4330434783,"Ore_Disponibili":23,"lat":40.7125,"lon":14.638,"date_only":"2025-11-01T00:00:00.000"},{"station":"IT2213A","station_name":"Cava dei Tirreni Stadio","pollutant":"NO2","date":"2025-11-01T00:00:00.000","value":29.3713043478,"Ore_Disponibili":23,"lat":40.7125,"lon":14.638,"date_only":"2025-11-01T00:00:00.000"},{"station":"IT2213A","station_name":"Cava dei Tirreni Stadio","pollutant":"O3","date":"2025-11-01T00:00:00.000","value":30.3617391304,"Ore_Disponibili":23,"lat":40.7125,"lon":14.638,"date_only":"2025-11-01T00:00:00.000"},{"station":"IT2213A","station_name":"Cava dei Tirreni Stadio","pollutant":"PM10","date":"2025-11-01T00:00:00.000","value":21.8170833333,"Ore_Disponibili":24,"lat":40.7125,"lon":14.638,"date_only":"2025-11-01T00:00:00.000"},{"station":"IT2213A","station_name":"Cava dei Tirreni Stadio","pollutant":"PM2,5","date":"2025-11-01T00:00:00.000","value":14.67125,"Ore_Disponibili":24,"lat":40.7125,"lon":14.638,"date_only":"2025-11-01T00:00:00.000"},{"station":"IT2214A","station_name":"Nocera Inferiore Sc. Solimena","pollutant":"CO","date":"2025-11-01T00:00:00.000","value":0.2060869565,"Ore_Disponibili":23,"lat":40.7473393,"lon":14.6410145,"date_only":"2025-11-01T00:00:00.000"},{"station":"IT2214A","station_name":"Nocera Inferiore Sc. Solimena","pollutant":"NO2","date":"2025-11-01T00:00:00.000","value":25.6539130435,"Ore_Disponibili":23,"lat":40.7473393,"lon":14.6410145,"date_only":"2025-11-01T00:00:00.000"},{"station":"IT2214A","station_name":"Nocera Inferiore Sc. Solimena","pollutant":"PM10","date":"2025-11-01T00:00:00.000","value":20.2125,"Ore_Disponibili":24,"lat":40.7473393,"lon":14.6410145,"date_only":"2025-11-01T00:00:00.000"},{"station":"IT2214A","station_name":"Nocera Inferiore Sc. Solimena","pollutant":"PM2,5","date":"2025-11-01T00:00:00.000","value":11.54625,"Ore_Disponibili":24,"lat":40.7473393,"lon":14.6410145,"date_only":"2025-11-01T00:00:00.000"},{"station":"IT2215A","station_name":"Benevento Zona Industriale \u00b0","pollutant":"NO2","date":"2025-11-01T00:00:00.000","value":6.59375,"Ore_Disponibili":24,"lat":41.2293368,"lon":14.4782074,"date_only":"2025-11-01T00:00:00.000"},{"station":"IT2215A","station_name":"Benevento Zona Industriale \u00b0","pollutant":"O3","date":"2025-11-01T00:00:00.000","value":30.4765217391,"Ore_Disponibili":23,"lat":41.2293368,"lon":14.4782074,"date_only":"2025-11-01T00:00:00.000"},{"station":"IT2215A","station_name":"Benevento Zona Industriale \u00b0","pollutant":"PM10","date":"2025-11-01T00:00:00.000","value":17.40125,"Ore_Disponibili":24,"lat":41.2293368,"lon":14.4782074,"date_only":"2025-11-01T00:00:00.000"},{"station":"IT2215A","station_name":"Benevento Zona Industriale \u00b0","pollutant":"PM2,5","date":"2025-11-01T00:00:00.000","value":12.11375,"Ore_Disponibili":24,"lat":41.2293368,"lon":14.4782074,"date_only":"2025-11-01T00:00:00.000"},{"station":"IT2216A","station_name":"Casoria Scuola Palizzi","pollutant":"NO2","date":"2025-11-01T00:00:00.000","value":30.6608695652,"Ore_Disponibili":23,"lat":40.904,"lon":14.289,"date_only":"2025-11-01T00:00:00.000"},{"station":"IT2216A","station_name":"Casoria Scuola Palizzi","pollutant":"O3","date":"2025-11-01T00:00:00.000","value":27.9860869565,"Ore_Disponibili":23,"lat":40.904,"lon":14.289,"date_only":"2025-11-01T00:00:00.000"},{"station":"IT2216A","station_name":"Casoria Scuola Palizzi","pollutant":"PM10","date":"2025-11-01T00:00:00.000","value":35.5070833333,"Ore_Disponibili":24,"lat":40.904,"lon":14.289,"date_only":"2025-11-01T00:00:00.000"},{"station":"IT2216A","station_name":"Casoria Scuola Palizzi","pollutant":"PM2,5","date":"2025-11-01T00:00:00.000","value":22.0516666667,"Ore_Disponibili":24,"lat":40.904,"lon":14.289,"date_only":"2025-11-01T00:00:00.000"},{"station":"IT2217A","station_name":"Torre Annunziata Sc. Pascoli","pollutant":"NO2","date":"2025-11-01T00:00:00.000","value":22.9373684211,"Ore_Disponibili":19,"lat":40.7469754,"lon":14.4608234,"date_only":"2025-11-01T00:00:00.000"},{"station":"IT2217A","station_name":"Torre Annunziata Sc. Pascoli","pollutant":"O3","date":"2025-11-01T00:00:00.000","value":42.5439130435,"Ore_Disponibili":23,"lat":40.7469754,"lon":14.4608234,"date_only":"2025-11-01T00:00:00.000"},{"station":"IT2218A","station_name":"San Felice a Cancello C. Scolast.","pollutant":"CO","date":"2025-11-01T00:00:00.000","value":0.3916666667,"Ore_Disponibili":24,"lat":41.015,"lon":14.287,"date_only":"2025-11-01T00:00:00.000"},{"station":"IT2218A","station_name":"San Felice a Cancello C. Scolast.","pollutant":"NO2","date":"2025-11-01T00:00:00.000","value":17.7317391304,"Ore_Disponibili":23,"lat":41.015,"lon":14.287,"date_only":"2025-11-01T00:00:00.000"},{"station":"IT2218A","station_name":"San Felice a Cancello C. Scolast.","pollutant":"O3","date":"2025-11-01T00:00:00.000","value":34.2113043478,"Ore_Disponibili":23,"lat":41.015,"lon":14.287,"date_only":"2025-11-01T00:00:00.000"},{"station":"IT2218A","station_name":"San Felice a Cancello C. Scolast.","pollutant":"PM10","date":"2025-11-01T00:00:00.000","value":22.0841666667,"Ore_Disponibili":24,"lat":41.015,"lon":14.287,"date_only":"2025-11-01T00:00:00.000"},{"station":"IT2218A","station_name":"San Felice a Cancello C. Scolast.","pollutant":"PM2,5","date":"2025-11-01T00:00:00.000","value":13.7141666667,"Ore_Disponibili":24,"lat":41.015,"lon":14.287,"date_only":"2025-11-01T00:00:00.000"},{"station":"IT2219A","station_name":"Acerra Scuola Caporale","pollutant":"CO","date":"2025-11-01T00:00:00.000","value":0.9286956522,"Ore_Disponibili":23,"lat":40.9071,"lon":14.3429,"date_only":"2025-11-01T00:00:00.000"},{"station":"IT2219A","station_name":"Acerra Scuola Caporale","pollutant":"NO2","date":"2025-11-01T00:00:00.000","value":32.8769565217,"Ore_Disponibili":23,"lat":40.9071,"lon":14.3429,"date_only":"2025-11-01T00:00:00.000"},{"station":"IT2219A","station_name":"Acerra Scuola Caporale","pollutant":"PM10","date":"2025-11-01T00:00:00.000","value":34.4116666667,"Ore_Disponibili":24,"lat":40.9071,"lon":14.3429,"date_only":"2025-11-01T00:00:00.000"},{"station":"IT2219A","station_name":"Acerra Scuola Caporale","pollutant":"PM2,5","date":"2025-11-01T00:00:00.000","value":22.5383333333,"Ore_Disponibili":24,"lat":40.9071,"lon":14.3429,"date_only":"2025-11-01T00:00:00.000"},{"station":"IT2221A","station_name":"Napoli via Epomeo *\u00b0","pollutant":"CO","date":"2025-11-01T00:00:00.000","value":0.5583333333,"Ore_Disponibili":24,"lat":40.7205434,"lon":13.8987737,"date_only":"2025-11-01T00:00:00.000"},{"station":"IT2221A","station_name":"Napoli via Epomeo *\u00b0","pollutant":"NO2","date":"2025-11-01T00:00:00.000","value":22.7343478261,"Ore_Disponibili":23,"lat":40.7205434,"lon":13.8987737,"date_only":"2025-11-01T00:00:00.000"},{"station":"IT2221A","station_name":"Napoli via Epomeo *\u00b0","pollutant":"O3","date":"2025-11-01T00:00:00.000","value":21.5908333333,"Ore_Disponibili":24,"lat":40.7205434,"lon":13.8987737,"date_only":"2025-11-01T00:00:00.000"},{"station":"IT2221A","station_name":"Napoli via Epomeo *\u00b0","pollutant":"PM10","date":"2025-11-01T00:00:00.000","value":20.0479166667,"Ore_Disponibili":24,"lat":40.7205434,"lon":13.8987737,"date_only":"2025-11-01T00:00:00.000"},{"station":"IT2221A","station_name":"Napoli via Epomeo *\u00b0","pollutant":"PM2,5","date":"2025-11-01T00:00:00.000","value":12.3216666667,"Ore_Disponibili":24,"lat":40.7205434,"lon":13.8987737,"date_only":"2025-11-01T00:00:00.000"},{"station":"IT2223A","station_name":"Volla Via Filichito *\u00b0","pollutant":"CO","date":"2025-11-01T00:00:00.000","value":0.70625,"Ore_Disponibili":24,"lat":40.8824226,"lon":14.3478545,"date_only":"2025-11-01T00:00:00.000"},{"station":"IT2223A","station_name":"Volla Via Filichito *\u00b0","pollutant":"NO2","date":"2025-11-01T00:00:00.000","value":32.18125,"Ore_Disponibili":24,"lat":40.8824226,"lon":14.3478545,"date_only":"2025-11-01T00:00:00.000"},{"station":"IT2223A","station_name":"Volla Via Filichito *\u00b0","pollutant":"O3","date":"2025-11-01T00:00:00.000","value":14.1941666667,"Ore_Disponibili":24,"lat":40.8824226,"lon":14.3478545,"date_only":"2025-11-01T00:00:00.000"},{"station":"IT2223A","station_name":"Volla Via Filichito *\u00b0","pollutant":"PM10","date":"2025-11-01T00:00:00.000","value":24.6058333333,"Ore_Disponibili":24,"lat":40.8824226,"lon":14.3478545,"date_only":"2025-11-01T00:00:00.000"},{"station":"IT2223A","station_name":"Volla Via Filichito *\u00b0","pollutant":"PM2,5","date":"2025-11-01T00:00:00.000","value":17.4316666667,"Ore_Disponibili":24,"lat":40.8824226,"lon":14.3478545,"date_only":"2025-11-01T00:00:00.000"},{"station":"IT2226A","station_name":"Pomigliano d'Arco Area Asi","pollutant":"CO","date":"2025-11-01T00:00:00.000","value":0.42,"Ore_Disponibili":23,"lat":40.412,"lon":15.341,"date_only":"2025-11-01T00:00:00.000"},{"station":"IT2226A","station_name":"Pomigliano d'Arco Area Asi","pollutant":"NO2","date":"2025-11-01T00:00:00.000","value":43.8134782609,"Ore_Disponibili":23,"lat":40.412,"lon":15.341,"date_only":"2025-11-01T00:00:00.000"},{"station":"IT2226A","station_name":"Pomigliano d'Arco Area Asi","pollutant":"PM10","date":"2025-11-01T00:00:00.000","value":29.2416666667,"Ore_Disponibili":24,"lat":40.412,"lon":15.341,"date_only":"2025-11-01T00:00:00.000"},{"station":"IT2226A","station_name":"Pomigliano d'Arco Area Asi","pollutant":"PM2,5","date":"2025-11-01T00:00:00.000","value":18.9416666667,"Ore_Disponibili":24,"lat":40.412,"lon":15.341,"date_only":"2025-11-01T00:00:00.000"},{"station":"IT2227A","station_name":"Avellino Scuola Alighieri","pollutant":"CO","date":"2025-11-01T00:00:00.000","value":0.7447826087,"Ore_Disponibili":23,"lat":40.9190395,"lon":14.784947,"date_only":"2025-11-01T00:00:00.000"},{"station":"IT2227A","station_name":"Avellino Scuola Alighieri","pollutant":"NO2","date":"2025-11-01T00:00:00.000","value":22.5683333333,"Ore_Disponibili":24,"lat":40.9190395,"lon":14.784947,"date_only":"2025-11-01T00:00:00.000"},{"station":"IT2227A","station_name":"Avellino Scuola Alighieri","pollutant":"PM10","date":"2025-11-01T00:00:00.000","value":11.67875,"Ore_Disponibili":24,"lat":40.9190395,"lon":14.784947,"date_only":"2025-11-01T00:00:00.000"},{"station":"IT2227A","station_name":"Avellino Scuola Alighieri","pollutant":"PM2,5","date":"2025-11-01T00:00:00.000","value":8.4670833333,"Ore_Disponibili":24,"lat":40.9190395,"lon":14.784947,"date_only":"2025-11-01T00:00:00.000"},{"station":"IT2228A","station_name":"Benevento Campo Sportivo","pollutant":"NO2","date":"2025-11-01T00:00:00.000","value":15.6954166667,"Ore_Disponibili":24,"lat":41.2315276,"lon":14.5332703,"date_only":"2025-11-01T00:00:00.000"},{"station":"IT2228A","station_name":"Benevento Campo Sportivo","pollutant":"O3","date":"2025-11-01T00:00:00.000","value":26.1666666667,"Ore_Disponibili":24,"lat":41.2315276,"lon":14.5332703,"date_only":"2025-11-01T00:00:00.000"},{"station":"IT2228A","station_name":"Benevento Campo Sportivo","pollutant":"PM10","date":"2025-11-01T00:00:00.000","value":24.2183333333,"Ore_Disponibili":24,"lat":41.2315276,"lon":14.5332703,"date_only":"2025-11-01T00:00:00.000"},{"station":"IT2228A","station_name":"Benevento Campo Sportivo","pollutant":"PM2,5","date":"2025-11-01T00:00:00.000","value":16.5008333333,"Ore_Disponibili":24,"lat":41.2315276,"lon":14.5332703,"date_only":"2025-11-01T00:00:00.000"},{"station":"IT2268A","station_name":"Battipaglia Parco Fiume","pollutant":"NO2","date":"2025-11-01T00:00:00.000","value":19.2904347826,"Ore_Disponibili":23,"lat":40.6167,"lon":14.9833,"date_only":"2025-11-01T00:00:00.000"},{"station":"IT2268A","station_name":"Battipaglia Parco Fiume","pollutant":"O3","date":"2025-11-01T00:00:00.000","value":31.6791304348,"Ore_Disponibili":23,"lat":40.6167,"lon":14.9833,"date_only":"2025-11-01T00:00:00.000"},{"station":"IT2268A","station_name":"Battipaglia Parco Fiume","pollutant":"PM2,5","date":"2025-11-01T00:00:00.000","value":4.9,"Ore_Disponibili":24,"lat":40.6167,"lon":14.9833,"date_only":"2025-11-01T00:00:00.000"},{"station":"IT2270A","station_name":"Portici Parco Reggia","pollutant":"NO2","date":"2025-11-01T00:00:00.000","value":32.1043478261,"Ore_Disponibili":23,"lat":40.813588,"lon":14.3476526,"date_only":"2025-11-01T00:00:00.000"},{"station":"IT2270A","station_name":"Portici Parco Reggia","pollutant":"O3","date":"2025-11-01T00:00:00.000","value":30.8611764706,"Ore_Disponibili":17,"lat":40.813588,"lon":14.3476526,"date_only":"2025-11-01T00:00:00.000"},{"station":"IT2270A","station_name":"Portici Parco Reggia","pollutant":"PM10","date":"2025-11-01T00:00:00.000","value":16.23125,"Ore_Disponibili":24,"lat":40.813588,"lon":14.3476526,"date_only":"2025-11-01T00:00:00.000"},{"station":"IT2270A","station_name":"Portici Parco Reggia","pollutant":"PM2,5","date":"2025-11-01T00:00:00.000","value":10.8841666667,"Ore_Disponibili":24,"lat":40.813588,"lon":14.3476526,"date_only":"2025-11-01T00:00:00.000"},{"station":"IT2271A","station_name":"Aversa Scuola Cirillo \u00b0","pollutant":"CO","date":"2025-11-01T00:00:00.000","value":0.8430434783,"Ore_Disponibili":23,"lat":40.9758352,"lon":14.2117669,"date_only":"2025-11-01T00:00:00.000"},{"station":"IT2271A","station_name":"Aversa Scuola Cirillo \u00b0","pollutant":"NO2","date":"2025-11-01T00:00:00.000","value":24.5063636364,"Ore_Disponibili":22,"lat":40.9758352,"lon":14.2117669,"date_only":"2025-11-01T00:00:00.000"},{"station":"IT2271A","station_name":"Aversa Scuola Cirillo \u00b0","pollutant":"PM10","date":"2025-11-01T00:00:00.000","value":24.0008333333,"Ore_Disponibili":24,"lat":40.9758352,"lon":14.2117669,"date_only":"2025-11-01T00:00:00.000"},{"station":"IT2271A","station_name":"Aversa Scuola Cirillo \u00b0","pollutant":"PM2,5","date":"2025-11-01T00:00:00.000","value":15.3445833333,"Ore_Disponibili":24,"lat":40.9758352,"lon":14.2117669,"date_only":"2025-11-01T00:00:00.000"},{"station":"IT2272A","station_name":"Pozzuoli Zona Villa Avellino","pollutant":"NO2","date":"2025-11-01T00:00:00.000","value":27.56,"Ore_Disponibili":23,"lat":40.834,"lon":14.119,"date_only":"2025-11-01T00:00:00.000"},{"station":"IT2272A","station_name":"Pozzuoli Zona Villa Avellino","pollutant":"O3","date":"2025-11-01T00:00:00.000","value":28.7675,"Ore_Disponibili":24,"lat":40.834,"lon":14.119,"date_only":"2025-11-01T00:00:00.000"},{"station":"IT2272A","station_name":"Pozzuoli Zona Villa Avellino","pollutant":"PM10","date":"2025-11-01T00:00:00.000","value":16.8758333333,"Ore_Disponibili":24,"lat":40.834,"lon":14.119,"date_only":"2025-11-01T00:00:00.000"},{"station":"IT2272A","station_name":"Pozzuoli Zona Villa Avellino","pollutant":"PM2,5","date":"2025-11-01T00:00:00.000","value":10.8004166667,"Ore_Disponibili":24,"lat":40.834,"lon":14.119,"date_only":"2025-11-01T00:00:00.000"},{"station":"IT2273A","station_name":"Polla Area Tritovagliatore","pollutant":"CO","date":"2025-11-01T00:00:00.000","value":0.3391304348,"Ore_Disponibili":23,"lat":40.412,"lon":15.341,"date_only":"2025-11-01T00:00:00.000"},{"station":"IT2273A","station_name":"Polla Area Tritovagliatore","pollutant":"NO2","date":"2025-11-01T00:00:00.000","value":15.5,"Ore_Disponibili":23,"lat":40.412,"lon":15.341,"date_only":"2025-11-01T00:00:00.000"},{"station":"IT2273A","station_name":"Polla Area Tritovagliatore","pollutant":"PM10","date":"2025-11-01T00:00:00.000","value":14.1125,"Ore_Disponibili":24,"lat":40.412,"lon":15.341,"date_only":"2025-11-01T00:00:00.000"},{"station":"IT2273A","station_name":"Polla Area Tritovagliatore","pollutant":"PM2,5","date":"2025-11-01T00:00:00.000","value":10.1370833333,"Ore_Disponibili":24,"lat":40.412,"lon":15.341,"date_only":"2025-11-01T00:00:00.000"},{"station":"IT2276A","station_name":"Ariano Irpino Stadio","pollutant":"CO","date":"2025-11-01T00:00:00.000","value":0.12,"Ore_Disponibili":24,"lat":41.1555975,"lon":15.0967062,"date_only":"2025-11-01T00:00:00.000"},{"station":"IT2276A","station_name":"Ariano Irpino Stadio","pollutant":"NO2","date":"2025-11-01T00:00:00.000","value":4.2365217391,"Ore_Disponibili":23,"lat":41.1555975,"lon":15.0967062,"date_only":"2025-11-01T00:00:00.000"},{"station":"IT2276A","station_name":"Ariano Irpino Stadio","pollutant":"O3","date":"2025-11-01T00:00:00.000","value":77.0069565217,"Ore_Disponibili":23,"lat":41.1555975,"lon":15.0967062,"date_only":"2025-11-01T00:00:00.000"},{"station":"IT2277A","station_name":"Napoli Parco Virgiliano","pollutant":"CO","date":"2025-11-01T00:00:00.000","value":0.2741666667,"Ore_Disponibili":24,"lat":40.7984999,"lon":14.1790765,"date_only":"2025-11-01T00:00:00.000"},{"station":"IT2277A","station_name":"Napoli Parco Virgiliano","pollutant":"NO2","date":"2025-11-01T00:00:00.000","value":19.5182608696,"Ore_Disponibili":23,"lat":40.7984999,"lon":14.1790765,"date_only":"2025-11-01T00:00:00.000"},{"station":"IT2277A","station_name":"Napoli Parco Virgiliano","pollutant":"O3","date":"2025-11-01T00:00:00.000","value":57.6233333333,"Ore_Disponibili":24,"lat":40.7984999,"lon":14.1790765,"date_only":"2025-11-01T00:00:00.000"},{"station":"IT2277A","station_name":"Napoli Parco Virgiliano","pollutant":"PM10","date":"2025-11-01T00:00:00.000","value":15.5,"Ore_Disponibili":24,"lat":40.7984999,"lon":14.1790765,"date_only":"2025-11-01T00:00:00.000"},{"station":"IT2277A","station_name":"Napoli Parco Virgiliano","pollutant":"PM2,5","date":"2025-11-01T00:00:00.000","value":7.5,"Ore_Disponibili":24,"lat":40.7984999,"lon":14.1790765,"date_only":"2025-11-01T00:00:00.000"},{"station":"IT2283A","station_name":"Ottati Alburni","pollutant":"NO2","date":"2025-11-01T00:00:00.000","value":1.3790909091,"Ore_Disponibili":22,"lat":40.306,"lon":15.277,"date_only":"2025-11-01T00:00:00.000"},{"station":"IT2283A","station_name":"Ottati Alburni","pollutant":"O3","date":"2025-11-01T00:00:00.000","value":59.7391304348,"Ore_Disponibili":23,"lat":40.306,"lon":15.277,"date_only":"2025-11-01T00:00:00.000"},{"station":"IT2283A","station_name":"Ottati Alburni","pollutant":"PM10","date":"2025-11-01T00:00:00.000","value":21.0,"Ore_Disponibili":24,"lat":40.306,"lon":15.277,"date_only":"2025-11-01T00:00:00.000"},{"station":"IT2283A","station_name":"Ottati Alburni","pollutant":"PM2,5","date":"2025-11-01T00:00:00.000","value":0.6,"Ore_Disponibili":24,"lat":40.306,"lon":15.277,"date_only":"2025-11-01T00:00:00.000"}]