[{"station":"IT0898A","station_name":"NA06 MUSEO NAZIONALE","pollutant":"NO2","date":"2025-04-21T00:00:00.000","value":49.9217391304,"Ore_Disponibili":23,"lat":40.8536064,"lon":14.25115,"date_only":"2025-04-21T00:00:00.000"},{"station":"IT0934A","station_name":"BN32 Via Mustilli","pollutant":"NO2","date":"2025-04-21T00:00:00.000","value":12.1913043478,"Ore_Disponibili":23,"lat":41.7572524,"lon":12.3201661,"date_only":"2025-04-21T00:00:00.000"},{"station":"IT0934A","station_name":"BN32 Via Mustilli","pollutant":"PM10","date":"2025-04-21T00:00:00.000","value":17.325,"Ore_Disponibili":24,"lat":41.7572524,"lon":12.3201661,"date_only":"2025-04-21T00:00:00.000"},{"station":"IT0934A","station_name":"BN32 Via Mustilli","pollutant":"PM2,5","date":"2025-04-21T00:00:00.000","value":10.5333333333,"Ore_Disponibili":24,"lat":41.7572524,"lon":12.3201661,"date_only":"2025-04-21T00:00:00.000"},{"station":"IT0936A","station_name":"AV41 SCUOLA V CIRCOLO","pollutant":"NO2","date":"2025-04-21T00:00:00.000","value":9.8909090909,"Ore_Disponibili":22,"lat":43.8951992,"lon":11.3222381,"date_only":"2025-04-21T00:00:00.000"},{"station":"IT0936A","station_name":"AV41 SCUOLA V CIRCOLO","pollutant":"O3","date":"2025-04-21T00:00:00.000","value":59.5727272727,"Ore_Disponibili":22,"lat":43.8951992,"lon":11.3222381,"date_only":"2025-04-21T00:00:00.000"},{"station":"IT0936A","station_name":"AV41 SCUOLA V CIRCOLO","pollutant":"PM10","date":"2025-04-21T00:00:00.000","value":10.9166666667,"Ore_Disponibili":24,"lat":43.8951992,"lon":11.3222381,"date_only":"2025-04-21T00:00:00.000"},{"station":"IT0936A","station_name":"AV41 SCUOLA V CIRCOLO","pollutant":"PM2,5","date":"2025-04-21T00:00:00.000","value":7.45,"Ore_Disponibili":24,"lat":43.8951992,"lon":11.3222381,"date_only":"2025-04-21T00:00:00.000"},{"station":"IT1041A","station_name":"SA23 SCUOLA OSVALDO CONTI","pollutant":"NO2","date":"2025-04-21T00:00:00.000","value":26.5227272727,"Ore_Disponibili":22,"lat":41.058,"lon":14.808,"date_only":"2025-04-21T00:00:00.000"},{"station":"IT1041A","station_name":"SA23 SCUOLA OSVALDO CONTI","pollutant":"O3","date":"2025-04-21T00:00:00.000","value":54.4130434783,"Ore_Disponibili":23,"lat":41.058,"lon":14.808,"date_only":"2025-04-21T00:00:00.000"},{"station":"IT1041A","station_name":"SA23 SCUOLA OSVALDO CONTI","pollutant":"PM2,5","date":"2025-04-21T00:00:00.000","value":14.6,"Ore_Disponibili":24,"lat":41.058,"lon":14.808,"date_only":"2025-04-21T00:00:00.000"},{"station":"IT1486A","station_name":"CE51 ISTITUTO MANZONI","pollutant":"NO2","date":"2025-04-21T00:00:00.000","value":10.7782608696,"Ore_Disponibili":23,"lat":41.0818,"lon":14.3349,"date_only":"2025-04-21T00:00:00.000"},{"station":"IT1486A","station_name":"CE51 ISTITUTO MANZONI","pollutant":"O3","date":"2025-04-21T00:00:00.000","value":75.3739130435,"Ore_Disponibili":23,"lat":41.0818,"lon":14.3349,"date_only":"2025-04-21T00:00:00.000"},{"station":"IT1486A","station_name":"CE51 ISTITUTO MANZONI","pollutant":"PM10","date":"2025-04-21T00:00:00.000","value":18.1708333333,"Ore_Disponibili":24,"lat":41.0818,"lon":14.3349,"date_only":"2025-04-21T00:00:00.000"},{"station":"IT1486A","station_name":"CE51 ISTITUTO MANZONI","pollutant":"PM2,5","date":"2025-04-21T00:00:00.000","value":9.2333333333,"Ore_Disponibili":24,"lat":41.0818,"lon":14.3349,"date_only":"2025-04-21T00:00:00.000"},{"station":"IT1487A","station_name":"CE52 SCUOLA DE AMICIS","pollutant":"NO2","date":"2025-04-21T00:00:00.000","value":15.4565217391,"Ore_Disponibili":23,"lat":45.4166851,"lon":11.8748262,"date_only":"2025-04-21T00:00:00.000"},{"station":"IT1487A","station_name":"CE52 SCUOLA DE AMICIS","pollutant":"PM10","date":"2025-04-21T00:00:00.000","value":24.9,"Ore_Disponibili":24,"lat":45.4166851,"lon":11.8748262,"date_only":"2025-04-21T00:00:00.000"},{"station":"IT1487A","station_name":"CE52 SCUOLA DE AMICIS","pollutant":"PM2,5","date":"2025-04-21T00:00:00.000","value":7.6,"Ore_Disponibili":24,"lat":45.4166851,"lon":11.8748262,"date_only":"2025-04-21T00:00:00.000"},{"station":"IT1488A","station_name":"CE54 SCUOLA SETTEMBRINI","pollutant":"NO2","date":"2025-04-21T00:00:00.000","value":15.0260869565,"Ore_Disponibili":23,"lat":40.7402509,"lon":14.6724943,"date_only":"2025-04-21T00:00:00.000"},{"station":"IT1488A","station_name":"CE54 SCUOLA SETTEMBRINI","pollutant":"O3","date":"2025-04-21T00:00:00.000","value":67.4608695652,"Ore_Disponibili":23,"lat":40.7402509,"lon":14.6724943,"date_only":"2025-04-21T00:00:00.000"},{"station":"IT1488A","station_name":"CE54 SCUOLA SETTEMBRINI","pollutant":"PM10","date":"2025-04-21T00:00:00.000","value":20.1416666667,"Ore_Disponibili":24,"lat":40.7402509,"lon":14.6724943,"date_only":"2025-04-21T00:00:00.000"},{"station":"IT1488A","station_name":"CE54 SCUOLA SETTEMBRINI","pollutant":"PM2,5","date":"2025-04-21T00:00:00.000","value":8.75,"Ore_Disponibili":24,"lat":40.7402509,"lon":14.6724943,"date_only":"2025-04-21T00:00:00.000"},{"station":"IT1491A","station_name":"NA07 ENTE FERROVIE","pollutant":"NO2","date":"2025-04-21T00:00:00.000","value":55.5304347826,"Ore_Disponibili":23,"lat":45.6541955,"lon":13.7741392,"date_only":"2025-04-21T00:00:00.000"},{"station":"IT1491A","station_name":"NA07 ENTE FERROVIE","pollutant":"PM10","date":"2025-04-21T00:00:00.000","value":24.3916666667,"Ore_Disponibili":24,"lat":45.6541955,"lon":13.7741392,"date_only":"2025-04-21T00:00:00.000"},{"station":"IT1491A","station_name":"NA07 ENTE FERROVIE","pollutant":"PM2,5","date":"2025-04-21T00:00:00.000","value":13.725,"Ore_Disponibili":24,"lat":45.6541955,"lon":13.7741392,"date_only":"2025-04-21T00:00:00.000"},{"station":"IT1493A","station_name":"NA09 I.T.I.S. ARGINE","pollutant":"NO2","date":"2025-04-21T00:00:00.000","value":39.4173913043,"Ore_Disponibili":23,"lat":44.7377462,"lon":11.6477031,"date_only":"2025-04-21T00:00:00.000"},{"station":"IT1493A","station_name":"NA09 I.T.I.S. ARGINE","pollutant":"PM10","date":"2025-04-21T00:00:00.000","value":29.3916666667,"Ore_Disponibili":24,"lat":44.7377462,"lon":11.6477031,"date_only":"2025-04-21T00:00:00.000"},{"station":"IT1493A","station_name":"NA09 I.T.I.S. ARGINE","pollutant":"PM2,5","date":"2025-04-21T00:00:00.000","value":16.6666666667,"Ore_Disponibili":24,"lat":44.7377462,"lon":11.6477031,"date_only":"2025-04-21T00:00:00.000"},{"station":"IT1495A","station_name":"NA08 OSPEDALE NUOVO PELLEGRINI","pollutant":"NO2","date":"2025-04-21T00:00:00.000","value":36.852173913,"Ore_Disponibili":23,"lat":40.8535,"lon":14.235,"date_only":"2025-04-21T00:00:00.000"},{"station":"IT1495A","station_name":"NA08 OSPEDALE NUOVO PELLEGRINI","pollutant":"PM10","date":"2025-04-21T00:00:00.000","value":32.8,"Ore_Disponibili":24,"lat":40.8535,"lon":14.235,"date_only":"2025-04-21T00:00:00.000"},{"station":"IT1496A","station_name":"NA02 OSPEDALE SANTOBONO","pollutant":"NO2","date":"2025-04-21T00:00:00.000","value":37.4545454545,"Ore_Disponibili":22,"lat":40.8615516,"lon":14.2278503,"date_only":"2025-04-21T00:00:00.000"},{"station":"IT1496A","station_name":"NA02 OSPEDALE SANTOBONO","pollutant":"PM10","date":"2025-04-21T00:00:00.000","value":17.0458333333,"Ore_Disponibili":24,"lat":40.8615516,"lon":14.2278503,"date_only":"2025-04-21T00:00:00.000"},{"station":"IT1496A","station_name":"NA02 OSPEDALE SANTOBONO","pollutant":"PM2,5","date":"2025-04-21T00:00:00.000","value":7.3958333333,"Ore_Disponibili":24,"lat":40.8615516,"lon":14.2278503,"date_only":"2025-04-21T00:00:00.000"},{"station":"IT1497A","station_name":"NA01 OSSERVATORIO ASTRONOMICO","pollutant":"NO2","date":"2025-04-21T00:00:00.000","value":27.225,"Ore_Disponibili":24,"lat":46.0863714,"lon":13.3165669,"date_only":"2025-04-21T00:00:00.000"},{"station":"IT1497A","station_name":"NA01 OSSERVATORIO ASTRONOMICO","pollutant":"O3","date":"2025-04-21T00:00:00.000","value":72.8217391304,"Ore_Disponibili":23,"lat":46.0863714,"lon":13.3165669,"date_only":"2025-04-21T00:00:00.000"},{"station":"IT1497A","station_name":"NA01 OSSERVATORIO ASTRONOMICO","pollutant":"PM10","date":"2025-04-21T00:00:00.000","value":15.2833333333,"Ore_Disponibili":24,"lat":46.0863714,"lon":13.3165669,"date_only":"2025-04-21T00:00:00.000"},{"station":"IT1497A","station_name":"NA01 OSSERVATORIO ASTRONOMICO","pollutant":"PM2,5","date":"2025-04-21T00:00:00.000","value":7.5833333333,"Ore_Disponibili":24,"lat":46.0863714,"lon":13.3165669,"date_only":"2025-04-21T00:00:00.000"},{"station":"IT1504A","station_name":"SA22 Ospedale via Vernieri","pollutant":"NO2","date":"2025-04-21T00:00:00.000","value":23.2913043478,"Ore_Disponibili":23,"lat":40.682,"lon":14.766,"date_only":"2025-04-21T00:00:00.000"},{"station":"IT1504A","station_name":"SA22 Ospedale via Vernieri","pollutant":"PM10","date":"2025-04-21T00:00:00.000","value":16.5666666667,"Ore_Disponibili":24,"lat":40.682,"lon":14.766,"date_only":"2025-04-21T00:00:00.000"},{"station":"IT1504A","station_name":"SA22 Ospedale via Vernieri","pollutant":"PM2,5","date":"2025-04-21T00:00:00.000","value":8.4625,"Ore_Disponibili":24,"lat":40.682,"lon":14.766,"date_only":"2025-04-21T00:00:00.000"},{"station":"IT2210A","station_name":"SOLOFRA ZONA INDUSTRIALE","pollutant":"NO2","date":"2025-04-21T00:00:00.000","value":4.8869565217,"Ore_Disponibili":23,"lat":41.058,"lon":14.808,"date_only":"2025-04-21T00:00:00.000"},{"station":"IT2210A","station_name":"SOLOFRA ZONA INDUSTRIALE","pollutant":"PM10","date":"2025-04-21T00:00:00.000","value":12.475,"Ore_Disponibili":24,"lat":41.058,"lon":14.808,"date_only":"2025-04-21T00:00:00.000"},{"station":"IT2210A","station_name":"SOLOFRA ZONA INDUSTRIALE","pollutant":"PM2,5","date":"2025-04-21T00:00:00.000","value":7.3083333333,"Ore_Disponibili":24,"lat":41.058,"lon":14.808,"date_only":"2025-04-21T00:00:00.000"},{"station":"IT2211A","station_name":"ACERRA ZONA INDUSTRIALE","pollutant":"NO2","date":"2025-04-21T00:00:00.000","value":30.5913043478,"Ore_Disponibili":23,"lat":40.9847962,"lon":14.3679606,"date_only":"2025-04-21T00:00:00.000"},{"station":"IT2211A","station_name":"ACERRA ZONA INDUSTRIALE","pollutant":"PM10","date":"2025-04-21T00:00:00.000","value":22.7,"Ore_Disponibili":24,"lat":40.9847962,"lon":14.3679606,"date_only":"2025-04-21T00:00:00.000"},{"station":"IT2211A","station_name":"ACERRA ZONA INDUSTRIALE","pollutant":"PM2,5","date":"2025-04-21T00:00:00.000","value":3.2,"Ore_Disponibili":24,"lat":40.9847962,"lon":14.3679606,"date_only":"2025-04-21T00:00:00.000"},{"station":"IT2212A","station_name":"San Vitaliano Scuola Elementare Marconi","pollutant":"NO2","date":"2025-04-21T00:00:00.000","value":32.5727272727,"Ore_Disponibili":22,"lat":40.896,"lon":14.46,"date_only":"2025-04-21T00:00:00.000"},{"station":"IT2212A","station_name":"San Vitaliano Scuola Elementare Marconi","pollutant":"O3","date":"2025-04-21T00:00:00.000","value":56.1772727273,"Ore_Disponibili":22,"lat":40.896,"lon":14.46,"date_only":"2025-04-21T00:00:00.000"},{"station":"IT2212A","station_name":"San Vitaliano Scuola Elementare Marconi","pollutant":"PM10","date":"2025-04-21T00:00:00.000","value":24.9541666667,"Ore_Disponibili":24,"lat":40.896,"lon":14.46,"date_only":"2025-04-21T00:00:00.000"},{"station":"IT2212A","station_name":"San Vitaliano Scuola Elementare Marconi","pollutant":"PM2,5","date":"2025-04-21T00:00:00.000","value":13.8708333333,"Ore_Disponibili":24,"lat":40.896,"lon":14.46,"date_only":"2025-04-21T00:00:00.000"},{"station":"IT2213A","station_name":"CAVA DEI TIRRENI - STADIO","pollutant":"NO2","date":"2025-04-21T00:00:00.000","value":16.9956521739,"Ore_Disponibili":23,"lat":44.4937761,"lon":11.3101851,"date_only":"2025-04-21T00:00:00.000"},{"station":"IT2213A","station_name":"CAVA DEI TIRRENI - STADIO","pollutant":"O3","date":"2025-04-21T00:00:00.000","value":69.3391304348,"Ore_Disponibili":23,"lat":44.4937761,"lon":11.3101851,"date_only":"2025-04-21T00:00:00.000"},{"station":"IT2213A","station_name":"CAVA DEI TIRRENI - STADIO","pollutant":"PM10","date":"2025-04-21T00:00:00.000","value":17.1583333333,"Ore_Disponibili":24,"lat":44.4937761,"lon":11.3101851,"date_only":"2025-04-21T00:00:00.000"},{"station":"IT2213A","station_name":"CAVA DEI TIRRENI - STADIO","pollutant":"PM2,5","date":"2025-04-21T00:00:00.000","value":9.7291666667,"Ore_Disponibili":24,"lat":44.4937761,"lon":11.3101851,"date_only":"2025-04-21T00:00:00.000"},{"station":"IT2214A","station_name":"Nocera Inferiore scuola Solimene","pollutant":"NO2","date":"2025-04-21T00:00:00.000","value":24.5304347826,"Ore_Disponibili":23,"lat":40.7445,"lon":14.734,"date_only":"2025-04-21T00:00:00.000"},{"station":"IT2214A","station_name":"Nocera Inferiore scuola Solimene","pollutant":"PM10","date":"2025-04-21T00:00:00.000","value":20.9458333333,"Ore_Disponibili":24,"lat":40.7445,"lon":14.734,"date_only":"2025-04-21T00:00:00.000"},{"station":"IT2214A","station_name":"Nocera Inferiore scuola Solimene","pollutant":"PM2,5","date":"2025-04-21T00:00:00.000","value":12.5916666667,"Ore_Disponibili":24,"lat":40.7445,"lon":14.734,"date_only":"2025-04-21T00:00:00.000"},{"station":"IT2215A","station_name":"BENEVENTO ZONA INDUSTRIALE","pollutant":"NO2","date":"2025-04-21T00:00:00.000","value":0.2333333333,"Ore_Disponibili":24,"lat":41.2293368,"lon":14.4782074,"date_only":"2025-04-21T00:00:00.000"},{"station":"IT2215A","station_name":"BENEVENTO ZONA INDUSTRIALE","pollutant":"O3","date":"2025-04-21T00:00:00.000","value":25.5826086957,"Ore_Disponibili":23,"lat":41.2293368,"lon":14.4782074,"date_only":"2025-04-21T00:00:00.000"},{"station":"IT2215A","station_name":"BENEVENTO ZONA INDUSTRIALE","pollutant":"PM10","date":"2025-04-21T00:00:00.000","value":9.9916666667,"Ore_Disponibili":24,"lat":41.2293368,"lon":14.4782074,"date_only":"2025-04-21T00:00:00.000"},{"station":"IT2215A","station_name":"BENEVENTO ZONA INDUSTRIALE","pollutant":"PM2,5","date":"2025-04-21T00:00:00.000","value":5.1958333333,"Ore_Disponibili":24,"lat":41.2293368,"lon":14.4782074,"date_only":"2025-04-21T00:00:00.000"},{"station":"IT2216A","station_name":"Casoria Scuola Palizzi (CAM)","pollutant":"NO2","date":"2025-04-21T00:00:00.000","value":20.9260869565,"Ore_Disponibili":23,"lat":40.904,"lon":14.289,"date_only":"2025-04-21T00:00:00.000"},{"station":"IT2216A","station_name":"Casoria Scuola Palizzi (CAM)","pollutant":"O3","date":"2025-04-21T00:00:00.000","value":57.5863636364,"Ore_Disponibili":22,"lat":40.904,"lon":14.289,"date_only":"2025-04-21T00:00:00.000"},{"station":"IT2216A","station_name":"Casoria Scuola Palizzi (CAM)","pollutant":"PM10","date":"2025-04-21T00:00:00.000","value":20.6333333333,"Ore_Disponibili":24,"lat":40.904,"lon":14.289,"date_only":"2025-04-21T00:00:00.000"},{"station":"IT2216A","station_name":"Casoria Scuola Palizzi (CAM)","pollutant":"PM2,5","date":"2025-04-21T00:00:00.000","value":14.325,"Ore_Disponibili":24,"lat":40.904,"lon":14.289,"date_only":"2025-04-21T00:00:00.000"},{"station":"IT2217A","station_name":"Torre Annunziata Scuola Media Pascoli","pollutant":"NO2","date":"2025-04-21T00:00:00.000","value":14.7791666667,"Ore_Disponibili":24,"lat":40.831,"lon":14.426,"date_only":"2025-04-21T00:00:00.000"},{"station":"IT2217A","station_name":"Torre Annunziata Scuola Media Pascoli","pollutant":"O3","date":"2025-04-21T00:00:00.000","value":79.7652173913,"Ore_Disponibili":23,"lat":40.831,"lon":14.426,"date_only":"2025-04-21T00:00:00.000"},{"station":"IT2218A","station_name":"San Felice a Cancello Complesso scolastico","pollutant":"NO2","date":"2025-04-21T00:00:00.000","value":8.4086956522,"Ore_Disponibili":23,"lat":41.015,"lon":14.287,"date_only":"2025-04-21T00:00:00.000"},{"station":"IT2218A","station_name":"San Felice a Cancello Complesso scolastico","pollutant":"O3","date":"2025-04-21T00:00:00.000","value":70.1043478261,"Ore_Disponibili":23,"lat":41.015,"lon":14.287,"date_only":"2025-04-21T00:00:00.000"},{"station":"IT2218A","station_name":"San Felice a Cancello Complesso scolastico","pollutant":"PM10","date":"2025-04-21T00:00:00.000","value":17.3375,"Ore_Disponibili":24,"lat":41.015,"lon":14.287,"date_only":"2025-04-21T00:00:00.000"},{"station":"IT2218A","station_name":"San Felice a Cancello Complesso scolastico","pollutant":"PM2,5","date":"2025-04-21T00:00:00.000","value":7.7416666667,"Ore_Disponibili":24,"lat":41.015,"lon":14.287,"date_only":"2025-04-21T00:00:00.000"},{"station":"IT2219A","station_name":"Acerra scuola Caporale","pollutant":"NO2","date":"2025-04-21T00:00:00.000","value":17.5043478261,"Ore_Disponibili":23,"lat":40.9169,"lon":14.3425,"date_only":"2025-04-21T00:00:00.000"},{"station":"IT2219A","station_name":"Acerra scuola Caporale","pollutant":"PM10","date":"2025-04-21T00:00:00.000","value":24.7958333333,"Ore_Disponibili":24,"lat":40.9169,"lon":14.3425,"date_only":"2025-04-21T00:00:00.000"},{"station":"IT2219A","station_name":"Acerra scuola Caporale","pollutant":"PM2,5","date":"2025-04-21T00:00:00.000","value":12.8916666667,"Ore_Disponibili":24,"lat":40.9169,"lon":14.3425,"date_only":"2025-04-21T00:00:00.000"},{"station":"IT2221A","station_name":"Napoli via Epomeo","pollutant":"NO2","date":"2025-04-21T00:00:00.000","value":15.48125,"Ore_Disponibili":16,"lat":40.7205434,"lon":13.8987737,"date_only":"2025-04-21T00:00:00.000"},{"station":"IT2221A","station_name":"Napoli via Epomeo","pollutant":"O3","date":"2025-04-21T00:00:00.000","value":44.35625,"Ore_Disponibili":16,"lat":40.7205434,"lon":13.8987737,"date_only":"2025-04-21T00:00:00.000"},{"station":"IT2221A","station_name":"Napoli via Epomeo","pollutant":"PM10","date":"2025-04-21T00:00:00.000","value":11.8352941176,"Ore_Disponibili":17,"lat":40.7205434,"lon":13.8987737,"date_only":"2025-04-21T00:00:00.000"},{"station":"IT2221A","station_name":"Napoli via Epomeo","pollutant":"PM2,5","date":"2025-04-21T00:00:00.000","value":5.2764705882,"Ore_Disponibili":17,"lat":40.7205434,"lon":13.8987737,"date_only":"2025-04-21T00:00:00.000"},{"station":"IT2223A","station_name":"Volla via Filichito","pollutant":"NO2","date":"2025-04-21T00:00:00.000","value":26.5208333333,"Ore_Disponibili":24,"lat":40.8824226,"lon":14.3478545,"date_only":"2025-04-21T00:00:00.000"},{"station":"IT2223A","station_name":"Volla via Filichito","pollutant":"O3","date":"2025-04-21T00:00:00.000","value":43.5913043478,"Ore_Disponibili":23,"lat":40.8824226,"lon":14.3478545,"date_only":"2025-04-21T00:00:00.000"},{"station":"IT2223A","station_name":"Volla via Filichito","pollutant":"PM10","date":"2025-04-21T00:00:00.000","value":12.8125,"Ore_Disponibili":24,"lat":40.8824226,"lon":14.3478545,"date_only":"2025-04-21T00:00:00.000"},{"station":"IT2223A","station_name":"Volla via Filichito","pollutant":"PM2,5","date":"2025-04-21T00:00:00.000","value":7.9,"Ore_Disponibili":24,"lat":40.8824226,"lon":14.3478545,"date_only":"2025-04-21T00:00:00.000"},{"station":"IT2226A","station_name":"Pomigliano d'Arco Area ASI","pollutant":"NO2","date":"2025-04-21T00:00:00.000","value":29.6173913043,"Ore_Disponibili":23,"lat":40.9075,"lon":14.393,"date_only":"2025-04-21T00:00:00.000"},{"station":"IT2226A","station_name":"Pomigliano d'Arco Area ASI","pollutant":"PM10","date":"2025-04-21T00:00:00.000","value":23.4,"Ore_Disponibili":24,"lat":40.9075,"lon":14.393,"date_only":"2025-04-21T00:00:00.000"},{"station":"IT2226A","station_name":"Pomigliano d'Arco Area ASI","pollutant":"PM2,5","date":"2025-04-21T00:00:00.000","value":13.1583333333,"Ore_Disponibili":24,"lat":40.9075,"lon":14.393,"date_only":"2025-04-21T00:00:00.000"},{"station":"IT2227A","station_name":"AVELLINO - SCUOLA ALIGHIERI","pollutant":"NO2","date":"2025-04-21T00:00:00.000","value":15.4791666667,"Ore_Disponibili":24,"lat":40.9190395,"lon":14.784947,"date_only":"2025-04-21T00:00:00.000"},{"station":"IT2227A","station_name":"AVELLINO - SCUOLA ALIGHIERI","pollutant":"PM10","date":"2025-04-21T00:00:00.000","value":7.3833333333,"Ore_Disponibili":24,"lat":40.9190395,"lon":14.784947,"date_only":"2025-04-21T00:00:00.000"},{"station":"IT2227A","station_name":"AVELLINO - SCUOLA ALIGHIERI","pollutant":"PM2,5","date":"2025-04-21T00:00:00.000","value":4.3458333333,"Ore_Disponibili":24,"lat":40.9190395,"lon":14.784947,"date_only":"2025-04-21T00:00:00.000"},{"station":"IT2228A","station_name":"BENEVENTO CAMPO SPORTIVO","pollutant":"NO2","date":"2025-04-21T00:00:00.000","value":10.0666666667,"Ore_Disponibili":24,"lat":41.2315276,"lon":14.5332703,"date_only":"2025-04-21T00:00:00.000"},{"station":"IT2228A","station_name":"BENEVENTO CAMPO SPORTIVO","pollutant":"O3","date":"2025-04-21T00:00:00.000","value":45.4,"Ore_Disponibili":23,"lat":41.2315276,"lon":14.5332703,"date_only":"2025-04-21T00:00:00.000"},{"station":"IT2228A","station_name":"BENEVENTO CAMPO SPORTIVO","pollutant":"PM10","date":"2025-04-21T00:00:00.000","value":11.075,"Ore_Disponibili":24,"lat":41.2315276,"lon":14.5332703,"date_only":"2025-04-21T00:00:00.000"},{"station":"IT2228A","station_name":"BENEVENTO CAMPO SPORTIVO","pollutant":"PM2,5","date":"2025-04-21T00:00:00.000","value":6.1333333333,"Ore_Disponibili":24,"lat":41.2315276,"lon":14.5332703,"date_only":"2025-04-21T00:00:00.000"},{"station":"IT2268A","station_name":"BATTIPAGLIA - PARCO FIUME","pollutant":"NO2","date":"2025-04-21T00:00:00.000","value":14.3217391304,"Ore_Disponibili":23,"lat":44.3859682,"lon":7.5509829,"date_only":"2025-04-21T00:00:00.000"},{"station":"IT2268A","station_name":"BATTIPAGLIA - PARCO FIUME","pollutant":"O3","date":"2025-04-21T00:00:00.000","value":56.5409090909,"Ore_Disponibili":22,"lat":44.3859682,"lon":7.5509829,"date_only":"2025-04-21T00:00:00.000"},{"station":"IT2268A","station_name":"BATTIPAGLIA - PARCO FIUME","pollutant":"PM2,5","date":"2025-04-21T00:00:00.000","value":6.8,"Ore_Disponibili":24,"lat":44.3859682,"lon":7.5509829,"date_only":"2025-04-21T00:00:00.000"},{"station":"IT2270A","station_name":"Portici parco Reggia","pollutant":"NO2","date":"2025-04-21T00:00:00.000","value":17.8608695652,"Ore_Disponibili":23,"lat":40.813588,"lon":14.3476526,"date_only":"2025-04-21T00:00:00.000"},{"station":"IT2270A","station_name":"Portici parco Reggia","pollutant":"O3","date":"2025-04-21T00:00:00.000","value":61.7913043478,"Ore_Disponibili":23,"lat":40.813588,"lon":14.3476526,"date_only":"2025-04-21T00:00:00.000"},{"station":"IT2270A","station_name":"Portici parco Reggia","pollutant":"PM10","date":"2025-04-21T00:00:00.000","value":14.4416666667,"Ore_Disponibili":24,"lat":40.813588,"lon":14.3476526,"date_only":"2025-04-21T00:00:00.000"},{"station":"IT2270A","station_name":"Portici parco Reggia","pollutant":"PM2,5","date":"2025-04-21T00:00:00.000","value":6.9375,"Ore_Disponibili":24,"lat":40.813588,"lon":14.3476526,"date_only":"2025-04-21T00:00:00.000"},{"station":"IT2271A","station_name":"Aversa scuola Cirillo","pollutant":"NO2","date":"2025-04-21T00:00:00.000","value":23.0608695652,"Ore_Disponibili":23,"lat":40.9758352,"lon":14.2117669,"date_only":"2025-04-21T00:00:00.000"},{"station":"IT2271A","station_name":"Aversa scuola Cirillo","pollutant":"PM10","date":"2025-04-21T00:00:00.000","value":20.9708333333,"Ore_Disponibili":24,"lat":40.9758352,"lon":14.2117669,"date_only":"2025-04-21T00:00:00.000"},{"station":"IT2271A","station_name":"Aversa scuola Cirillo","pollutant":"PM2,5","date":"2025-04-21T00:00:00.000","value":10.6875,"Ore_Disponibili":24,"lat":40.9758352,"lon":14.2117669,"date_only":"2025-04-21T00:00:00.000"},{"station":"IT2272A","station_name":"Pozzuoli ex Villa Avellino","pollutant":"NO2","date":"2025-04-21T00:00:00.000","value":19.3291666667,"Ore_Disponibili":24,"lat":40.834,"lon":14.119,"date_only":"2025-04-21T00:00:00.000"},{"station":"IT2272A","station_name":"Pozzuoli ex Villa Avellino","pollutant":"O3","date":"2025-04-21T00:00:00.000","value":57.1458333333,"Ore_Disponibili":24,"lat":40.834,"lon":14.119,"date_only":"2025-04-21T00:00:00.000"},{"station":"IT2272A","station_name":"Pozzuoli ex Villa Avellino","pollutant":"PM10","date":"2025-04-21T00:00:00.000","value":16.0166666667,"Ore_Disponibili":24,"lat":40.834,"lon":14.119,"date_only":"2025-04-21T00:00:00.000"},{"station":"IT2272A","station_name":"Pozzuoli ex Villa Avellino","pollutant":"PM2,5","date":"2025-04-21T00:00:00.000","value":7.5041666667,"Ore_Disponibili":24,"lat":40.834,"lon":14.119,"date_only":"2025-04-21T00:00:00.000"},{"station":"IT2273A","station_name":"Polla Area tritovagliatore","pollutant":"NO2","date":"2025-04-21T00:00:00.000","value":11.6318181818,"Ore_Disponibili":22,"lat":40.412,"lon":15.341,"date_only":"2025-04-21T00:00:00.000"},{"station":"IT2273A","station_name":"Polla Area tritovagliatore","pollutant":"PM10","date":"2025-04-21T00:00:00.000","value":9.1083333333,"Ore_Disponibili":24,"lat":40.412,"lon":15.341,"date_only":"2025-04-21T00:00:00.000"},{"station":"IT2273A","station_name":"Polla Area tritovagliatore","pollutant":"PM2,5","date":"2025-04-21T00:00:00.000","value":6.0291666667,"Ore_Disponibili":24,"lat":40.412,"lon":15.341,"date_only":"2025-04-21T00:00:00.000"},{"station":"IT2276A","station_name":"Ariano Irpino Villa Comunale","pollutant":"NO2","date":"2025-04-21T00:00:00.000","value":1.5833333333,"Ore_Disponibili":24,"lat":41.1549432,"lon":15.0951624,"date_only":"2025-04-21T00:00:00.000"},{"station":"IT2276A","station_name":"Ariano Irpino Villa Comunale","pollutant":"O3","date":"2025-04-21T00:00:00.000","value":101.7,"Ore_Disponibili":22,"lat":41.1549432,"lon":15.0951624,"date_only":"2025-04-21T00:00:00.000"},{"station":"IT2277A","station_name":"Napoli parco Virgiliano","pollutant":"NO2","date":"2025-04-21T00:00:00.000","value":12.9458333333,"Ore_Disponibili":24,"lat":40.7984999,"lon":14.1790765,"date_only":"2025-04-21T00:00:00.000"},{"station":"IT2277A","station_name":"Napoli parco Virgiliano","pollutant":"O3","date":"2025-04-21T00:00:00.000","value":89.4625,"Ore_Disponibili":24,"lat":40.7984999,"lon":14.1790765,"date_only":"2025-04-21T00:00:00.000"},{"station":"IT2277A","station_name":"Napoli parco Virgiliano","pollutant":"PM10","date":"2025-04-21T00:00:00.000","value":12.4,"Ore_Disponibili":24,"lat":40.7984999,"lon":14.1790765,"date_only":"2025-04-21T00:00:00.000"},{"station":"IT2277A","station_name":"Napoli parco Virgiliano","pollutant":"PM2,5","date":"2025-04-21T00:00:00.000","value":5.5,"Ore_Disponibili":24,"lat":40.7984999,"lon":14.1790765,"date_only":"2025-04-21T00:00:00.000"},{"station":"IT2283A","station_name":"OTTATI - ALBURNI","pollutant":"NO2","date":"2025-04-21T00:00:00.000","value":2.6043478261,"Ore_Disponibili":23,"lat":40.560311,"lon":15.303957,"date_only":"2025-04-21T00:00:00.000"},{"station":"IT2283A","station_name":"OTTATI - ALBURNI","pollutant":"O3","date":"2025-04-21T00:00:00.000","value":81.8,"Ore_Disponibili":23,"lat":40.560311,"lon":15.303957,"date_only":"2025-04-21T00:00:00.000"},{"station":"IT2283A","station_name":"OTTATI - ALBURNI","pollutant":"PM10","date":"2025-04-21T00:00:00.000","value":17.4,"Ore_Disponibili":24,"lat":40.560311,"lon":15.303957,"date_only":"2025-04-21T00:00:00.000"},{"station":"IT2283A","station_name":"OTTATI - ALBURNI","pollutant":"PM2,5","date":"2025-04-21T00:00:00.000","value":5.0,"Ore_Disponibili":24,"lat":40.560311,"lon":15.303957,"date_only":"2025-04-21T00:00:00.000"}]