[{"station":"IT0898A","station_name":"Napoli NA06 Museo Nazionale","pollutant":"NO2","date":"2025-12-07T00:00:00.000","value":50.6083333333,"Ore_Disponibili":24,"lat":40.8536064,"lon":14.25115,"date_only":"2025-12-07T00:00:00.000"},{"station":"IT0898A","station_name":"Napoli NA06 Museo Nazionale","pollutant":"PM10","date":"2025-12-07T00:00:00.000","value":29.3291666667,"Ore_Disponibili":24,"lat":40.8536064,"lon":14.25115,"date_only":"2025-12-07T00:00:00.000"},{"station":"IT0898A","station_name":"Napoli NA06 Museo Nazionale","pollutant":"PM2,5","date":"2025-12-07T00:00:00.000","value":23.6291666667,"Ore_Disponibili":24,"lat":40.8536064,"lon":14.25115,"date_only":"2025-12-07T00:00:00.000"},{"station":"IT0934A","station_name":"Benevento BN32 Via Mustilli","pollutant":"NO2","date":"2025-12-07T00:00:00.000","value":19.2158333333,"Ore_Disponibili":24,"lat":41.1317868,"lon":14.7885516,"date_only":"2025-12-07T00:00:00.000"},{"station":"IT0934A","station_name":"Benevento BN32 Via Mustilli","pollutant":"PM10","date":"2025-12-07T00:00:00.000","value":51.2416666667,"Ore_Disponibili":24,"lat":41.1317868,"lon":14.7885516,"date_only":"2025-12-07T00:00:00.000"},{"station":"IT0934A","station_name":"Benevento BN32 Via Mustilli","pollutant":"PM2,5","date":"2025-12-07T00:00:00.000","value":43.6,"Ore_Disponibili":18,"lat":41.1317868,"lon":14.7885516,"date_only":"2025-12-07T00:00:00.000"},{"station":"IT0936A","station_name":"Avellino AV41 Sc. V Circolo \u00b0","pollutant":"NO2","date":"2025-12-07T00:00:00.000","value":24.9295833333,"Ore_Disponibili":24,"lat":40.9152,"lon":14.7955,"date_only":"2025-12-07T00:00:00.000"},{"station":"IT0936A","station_name":"Avellino AV41 Sc. V Circolo \u00b0","pollutant":"O3","date":"2025-12-07T00:00:00.000","value":23.3691666667,"Ore_Disponibili":24,"lat":40.9152,"lon":14.7955,"date_only":"2025-12-07T00:00:00.000"},{"station":"IT0936A","station_name":"Avellino AV41 Sc. V Circolo \u00b0","pollutant":"PM10","date":"2025-12-07T00:00:00.000","value":38.9754166667,"Ore_Disponibili":24,"lat":40.9152,"lon":14.7955,"date_only":"2025-12-07T00:00:00.000"},{"station":"IT0936A","station_name":"Avellino AV41 Sc. V Circolo \u00b0","pollutant":"PM2,5","date":"2025-12-07T00:00:00.000","value":36.75,"Ore_Disponibili":24,"lat":40.9152,"lon":14.7955,"date_only":"2025-12-07T00:00:00.000"},{"station":"IT1041A","station_name":"Salerno SA23 Scuola Conti \u00b0","pollutant":"NO2","date":"2025-12-07T00:00:00.000","value":27.72875,"Ore_Disponibili":24,"lat":40.675,"lon":14.768,"date_only":"2025-12-07T00:00:00.000"},{"station":"IT1041A","station_name":"Salerno SA23 Scuola Conti \u00b0","pollutant":"O3","date":"2025-12-07T00:00:00.000","value":29.2704347826,"Ore_Disponibili":23,"lat":40.675,"lon":14.768,"date_only":"2025-12-07T00:00:00.000"},{"station":"IT1041A","station_name":"Salerno SA23 Scuola Conti \u00b0","pollutant":"PM2,5","date":"2025-12-07T00:00:00.000","value":18.4,"Ore_Disponibili":24,"lat":40.675,"lon":14.768,"date_only":"2025-12-07T00:00:00.000"},{"station":"IT1486A","station_name":"Caserta CE51 Ist. Manzoni","pollutant":"NO2","date":"2025-12-07T00:00:00.000","value":27.6083333333,"Ore_Disponibili":24,"lat":41.0818,"lon":14.3349,"date_only":"2025-12-07T00:00:00.000"},{"station":"IT1486A","station_name":"Caserta CE51 Ist. Manzoni","pollutant":"O3","date":"2025-12-07T00:00:00.000","value":32.8416666667,"Ore_Disponibili":24,"lat":41.0818,"lon":14.3349,"date_only":"2025-12-07T00:00:00.000"},{"station":"IT1486A","station_name":"Caserta CE51 Ist. Manzoni","pollutant":"PM10","date":"2025-12-07T00:00:00.000","value":20.4541666667,"Ore_Disponibili":24,"lat":41.0818,"lon":14.3349,"date_only":"2025-12-07T00:00:00.000"},{"station":"IT1486A","station_name":"Caserta CE51 Ist. Manzoni","pollutant":"PM2,5","date":"2025-12-07T00:00:00.000","value":15.3291666667,"Ore_Disponibili":24,"lat":41.0818,"lon":14.3349,"date_only":"2025-12-07T00:00:00.000"},{"station":"IT1487A","station_name":"Caserta CE52 Sc. De Amicis","pollutant":"NO2","date":"2025-12-07T00:00:00.000","value":16.1830434783,"Ore_Disponibili":23,"lat":41.0085302,"lon":14.0787912,"date_only":"2025-12-07T00:00:00.000"},{"station":"IT1487A","station_name":"Caserta CE52 Sc. De Amicis","pollutant":"PM10","date":"2025-12-07T00:00:00.000","value":25.7,"Ore_Disponibili":24,"lat":41.0085302,"lon":14.0787912,"date_only":"2025-12-07T00:00:00.000"},{"station":"IT1487A","station_name":"Caserta CE52 Sc. De Amicis","pollutant":"PM2,5","date":"2025-12-07T00:00:00.000","value":9.3,"Ore_Disponibili":24,"lat":41.0085302,"lon":14.0787912,"date_only":"2025-12-07T00:00:00.000"},{"station":"IT1488A","station_name":"Maddaloni CE54 Sc. Settembrini","pollutant":"NO2","date":"2025-12-07T00:00:00.000","value":31.6647826087,"Ore_Disponibili":23,"lat":41.094,"lon":14.402,"date_only":"2025-12-07T00:00:00.000"},{"station":"IT1488A","station_name":"Maddaloni CE54 Sc. Settembrini","pollutant":"O3","date":"2025-12-07T00:00:00.000","value":21.3347826087,"Ore_Disponibili":23,"lat":41.094,"lon":14.402,"date_only":"2025-12-07T00:00:00.000"},{"station":"IT1488A","station_name":"Maddaloni CE54 Sc. Settembrini","pollutant":"PM10","date":"2025-12-07T00:00:00.000","value":54.2116666667,"Ore_Disponibili":24,"lat":41.094,"lon":14.402,"date_only":"2025-12-07T00:00:00.000"},{"station":"IT1488A","station_name":"Maddaloni CE54 Sc. Settembrini","pollutant":"PM2,5","date":"2025-12-07T00:00:00.000","value":45.5154166667,"Ore_Disponibili":24,"lat":41.094,"lon":14.402,"date_only":"2025-12-07T00:00:00.000"},{"station":"IT1491A","station_name":"Napoli NA07 Ferrovia \u00b0","pollutant":"NO2","date":"2025-12-07T00:00:00.000","value":41.3566666667,"Ore_Disponibili":24,"lat":40.8277815,"lon":14.3989433,"date_only":"2025-12-07T00:00:00.000"},{"station":"IT1491A","station_name":"Napoli NA07 Ferrovia \u00b0","pollutant":"PM10","date":"2025-12-07T00:00:00.000","value":33.0375,"Ore_Disponibili":24,"lat":40.8277815,"lon":14.3989433,"date_only":"2025-12-07T00:00:00.000"},{"station":"IT1491A","station_name":"Napoli NA07 Ferrovia \u00b0","pollutant":"PM2,5","date":"2025-12-07T00:00:00.000","value":29.6625,"Ore_Disponibili":24,"lat":40.8277815,"lon":14.3989433,"date_only":"2025-12-07T00:00:00.000"},{"station":"IT1493A","station_name":"Napoli NA09 Via Argine","pollutant":"NO2","date":"2025-12-07T00:00:00.000","value":51.2916666667,"Ore_Disponibili":24,"lat":40.8560636,"lon":14.3234622,"date_only":"2025-12-07T00:00:00.000"},{"station":"IT1493A","station_name":"Napoli NA09 Via Argine","pollutant":"PM10","date":"2025-12-07T00:00:00.000","value":63.7833333333,"Ore_Disponibili":24,"lat":40.8560636,"lon":14.3234622,"date_only":"2025-12-07T00:00:00.000"},{"station":"IT1493A","station_name":"Napoli NA09 Via Argine","pollutant":"PM2,5","date":"2025-12-07T00:00:00.000","value":45.4458333333,"Ore_Disponibili":24,"lat":40.8560636,"lon":14.3234622,"date_only":"2025-12-07T00:00:00.000"},{"station":"IT1495A","station_name":"Napoli NA08 Osp. N. Pellegrini","pollutant":"NO2","date":"2025-12-07T00:00:00.000","value":42.2204166667,"Ore_Disponibili":24,"lat":40.8535,"lon":14.235,"date_only":"2025-12-07T00:00:00.000"},{"station":"IT1496A","station_name":"Napoli NA02 Osp. Santobono \u00b0","pollutant":"NO2","date":"2025-12-07T00:00:00.000","value":53.5908333333,"Ore_Disponibili":24,"lat":40.8554,"lon":14.2231,"date_only":"2025-12-07T00:00:00.000"},{"station":"IT1496A","station_name":"Napoli NA02 Osp. Santobono \u00b0","pollutant":"PM10","date":"2025-12-07T00:00:00.000","value":23.085,"Ore_Disponibili":24,"lat":40.8554,"lon":14.2231,"date_only":"2025-12-07T00:00:00.000"},{"station":"IT1496A","station_name":"Napoli NA02 Osp. Santobono \u00b0","pollutant":"PM2,5","date":"2025-12-07T00:00:00.000","value":18.2683333333,"Ore_Disponibili":24,"lat":40.8554,"lon":14.2231,"date_only":"2025-12-07T00:00:00.000"},{"station":"IT1497A","station_name":"Napoli NA01 Oss. Astronomico","pollutant":"NO2","date":"2025-12-07T00:00:00.000","value":22.737826087,"Ore_Disponibili":23,"lat":40.853,"lon":14.305,"date_only":"2025-12-07T00:00:00.000"},{"station":"IT1497A","station_name":"Napoli NA01 Oss. Astronomico","pollutant":"O3","date":"2025-12-07T00:00:00.000","value":46.6275,"Ore_Disponibili":24,"lat":40.853,"lon":14.305,"date_only":"2025-12-07T00:00:00.000"},{"station":"IT1497A","station_name":"Napoli NA01 Oss. Astronomico","pollutant":"PM10","date":"2025-12-07T00:00:00.000","value":24.4575,"Ore_Disponibili":24,"lat":40.853,"lon":14.305,"date_only":"2025-12-07T00:00:00.000"},{"station":"IT1497A","station_name":"Napoli NA01 Oss. Astronomico","pollutant":"PM2,5","date":"2025-12-07T00:00:00.000","value":21.9720833333,"Ore_Disponibili":24,"lat":40.853,"lon":14.305,"date_only":"2025-12-07T00:00:00.000"},{"station":"IT1504A","station_name":"Salerno SA22 Osp. Via Vernieri","pollutant":"NO2","date":"2025-12-07T00:00:00.000","value":33.12625,"Ore_Disponibili":24,"lat":40.682,"lon":14.766,"date_only":"2025-12-07T00:00:00.000"},{"station":"IT1504A","station_name":"Salerno SA22 Osp. Via Vernieri","pollutant":"PM10","date":"2025-12-07T00:00:00.000","value":20.3095238095,"Ore_Disponibili":21,"lat":40.682,"lon":14.766,"date_only":"2025-12-07T00:00:00.000"},{"station":"IT1504A","station_name":"Salerno SA22 Osp. Via Vernieri","pollutant":"PM2,5","date":"2025-12-07T00:00:00.000","value":18.3909090909,"Ore_Disponibili":22,"lat":40.682,"lon":14.766,"date_only":"2025-12-07T00:00:00.000"},{"station":"IT2210A","station_name":"Solofra Zona Industriale","pollutant":"NO2","date":"2025-12-07T00:00:00.000","value":15.27,"Ore_Disponibili":23,"lat":41.058,"lon":14.808,"date_only":"2025-12-07T00:00:00.000"},{"station":"IT2210A","station_name":"Solofra Zona Industriale","pollutant":"PM10","date":"2025-12-07T00:00:00.000","value":30.7508333333,"Ore_Disponibili":24,"lat":41.058,"lon":14.808,"date_only":"2025-12-07T00:00:00.000"},{"station":"IT2210A","station_name":"Solofra Zona Industriale","pollutant":"PM2,5","date":"2025-12-07T00:00:00.000","value":28.1041666667,"Ore_Disponibili":24,"lat":41.058,"lon":14.808,"date_only":"2025-12-07T00:00:00.000"},{"station":"IT2211A","station_name":"Acerra Zona Industriale","pollutant":"NO2","date":"2025-12-07T00:00:00.000","value":33.3417391304,"Ore_Disponibili":23,"lat":40.9847962,"lon":14.3679606,"date_only":"2025-12-07T00:00:00.000"},{"station":"IT2211A","station_name":"Acerra Zona Industriale","pollutant":"PM10","date":"2025-12-07T00:00:00.000","value":63.4,"Ore_Disponibili":24,"lat":40.9847962,"lon":14.3679606,"date_only":"2025-12-07T00:00:00.000"},{"station":"IT2211A","station_name":"Acerra Zona Industriale","pollutant":"PM2,5","date":"2025-12-07T00:00:00.000","value":42.0,"Ore_Disponibili":24,"lat":40.9847962,"lon":14.3679606,"date_only":"2025-12-07T00:00:00.000"},{"station":"IT2212A","station_name":"S. Vitaliano Scuola Marconi","pollutant":"NO2","date":"2025-12-07T00:00:00.000","value":56.9465217391,"Ore_Disponibili":23,"lat":40.896,"lon":14.46,"date_only":"2025-12-07T00:00:00.000"},{"station":"IT2212A","station_name":"S. Vitaliano Scuola Marconi","pollutant":"O3","date":"2025-12-07T00:00:00.000","value":13.287826087,"Ore_Disponibili":23,"lat":40.896,"lon":14.46,"date_only":"2025-12-07T00:00:00.000"},{"station":"IT2212A","station_name":"S. Vitaliano Scuola Marconi","pollutant":"PM10","date":"2025-12-07T00:00:00.000","value":114.9541666667,"Ore_Disponibili":24,"lat":40.896,"lon":14.46,"date_only":"2025-12-07T00:00:00.000"},{"station":"IT2212A","station_name":"S. Vitaliano Scuola Marconi","pollutant":"PM2,5","date":"2025-12-07T00:00:00.000","value":109.2891666667,"Ore_Disponibili":24,"lat":40.896,"lon":14.46,"date_only":"2025-12-07T00:00:00.000"},{"station":"IT2213A","station_name":"Cava dei Tirreni Stadio","pollutant":"NO2","date":"2025-12-07T00:00:00.000","value":32.1439130435,"Ore_Disponibili":23,"lat":40.7125,"lon":14.638,"date_only":"2025-12-07T00:00:00.000"},{"station":"IT2213A","station_name":"Cava dei Tirreni Stadio","pollutant":"O3","date":"2025-12-07T00:00:00.000","value":34.0854545455,"Ore_Disponibili":22,"lat":40.7125,"lon":14.638,"date_only":"2025-12-07T00:00:00.000"},{"station":"IT2213A","station_name":"Cava dei Tirreni Stadio","pollutant":"PM10","date":"2025-12-07T00:00:00.000","value":25.2654166667,"Ore_Disponibili":24,"lat":40.7125,"lon":14.638,"date_only":"2025-12-07T00:00:00.000"},{"station":"IT2213A","station_name":"Cava dei Tirreni Stadio","pollutant":"PM2,5","date":"2025-12-07T00:00:00.000","value":21.5791666667,"Ore_Disponibili":24,"lat":40.7125,"lon":14.638,"date_only":"2025-12-07T00:00:00.000"},{"station":"IT2214A","station_name":"Nocera Inferiore Sc. Solimena","pollutant":"NO2","date":"2025-12-07T00:00:00.000","value":41.0756521739,"Ore_Disponibili":23,"lat":40.7473393,"lon":14.6410145,"date_only":"2025-12-07T00:00:00.000"},{"station":"IT2214A","station_name":"Nocera Inferiore Sc. Solimena","pollutant":"PM10","date":"2025-12-07T00:00:00.000","value":43.8733333333,"Ore_Disponibili":24,"lat":40.7473393,"lon":14.6410145,"date_only":"2025-12-07T00:00:00.000"},{"station":"IT2214A","station_name":"Nocera Inferiore Sc. Solimena","pollutant":"PM2,5","date":"2025-12-07T00:00:00.000","value":38.1625,"Ore_Disponibili":24,"lat":40.7473393,"lon":14.6410145,"date_only":"2025-12-07T00:00:00.000"},{"station":"IT2215A","station_name":"Benevento Zona Industriale \u00b0","pollutant":"NO2","date":"2025-12-07T00:00:00.000","value":8.7466666667,"Ore_Disponibili":24,"lat":41.2293368,"lon":14.4782074,"date_only":"2025-12-07T00:00:00.000"},{"station":"IT2215A","station_name":"Benevento Zona Industriale \u00b0","pollutant":"O3","date":"2025-12-07T00:00:00.000","value":15.9836363636,"Ore_Disponibili":22,"lat":41.2293368,"lon":14.4782074,"date_only":"2025-12-07T00:00:00.000"},{"station":"IT2215A","station_name":"Benevento Zona Industriale \u00b0","pollutant":"PM10","date":"2025-12-07T00:00:00.000","value":22.1479166667,"Ore_Disponibili":24,"lat":41.2293368,"lon":14.4782074,"date_only":"2025-12-07T00:00:00.000"},{"station":"IT2215A","station_name":"Benevento Zona Industriale \u00b0","pollutant":"PM2,5","date":"2025-12-07T00:00:00.000","value":19.4979166667,"Ore_Disponibili":24,"lat":41.2293368,"lon":14.4782074,"date_only":"2025-12-07T00:00:00.000"},{"station":"IT2216A","station_name":"Casoria Scuola Palizzi","pollutant":"NO2","date":"2025-12-07T00:00:00.000","value":41.9856521739,"Ore_Disponibili":23,"lat":40.904,"lon":14.289,"date_only":"2025-12-07T00:00:00.000"},{"station":"IT2216A","station_name":"Casoria Scuola Palizzi","pollutant":"O3","date":"2025-12-07T00:00:00.000","value":15.1139130435,"Ore_Disponibili":23,"lat":40.904,"lon":14.289,"date_only":"2025-12-07T00:00:00.000"},{"station":"IT2216A","station_name":"Casoria Scuola Palizzi","pollutant":"PM10","date":"2025-12-07T00:00:00.000","value":118.45375,"Ore_Disponibili":24,"lat":40.904,"lon":14.289,"date_only":"2025-12-07T00:00:00.000"},{"station":"IT2216A","station_name":"Casoria Scuola Palizzi","pollutant":"PM2,5","date":"2025-12-07T00:00:00.000","value":107.1870833333,"Ore_Disponibili":24,"lat":40.904,"lon":14.289,"date_only":"2025-12-07T00:00:00.000"},{"station":"IT2218A","station_name":"San Felice a Cancello C. Scolast.","pollutant":"NO2","date":"2025-12-07T00:00:00.000","value":23.4339130435,"Ore_Disponibili":23,"lat":41.015,"lon":14.287,"date_only":"2025-12-07T00:00:00.000"},{"station":"IT2218A","station_name":"San Felice a Cancello C. Scolast.","pollutant":"O3","date":"2025-12-07T00:00:00.000","value":20.5295652174,"Ore_Disponibili":23,"lat":41.015,"lon":14.287,"date_only":"2025-12-07T00:00:00.000"},{"station":"IT2218A","station_name":"San Felice a Cancello C. Scolast.","pollutant":"PM10","date":"2025-12-07T00:00:00.000","value":52.2116666667,"Ore_Disponibili":24,"lat":41.015,"lon":14.287,"date_only":"2025-12-07T00:00:00.000"},{"station":"IT2218A","station_name":"San Felice a Cancello C. Scolast.","pollutant":"PM2,5","date":"2025-12-07T00:00:00.000","value":47.0554166667,"Ore_Disponibili":24,"lat":41.015,"lon":14.287,"date_only":"2025-12-07T00:00:00.000"},{"station":"IT2219A","station_name":"Acerra Scuola Caporale","pollutant":"NO2","date":"2025-12-07T00:00:00.000","value":30.1565217391,"Ore_Disponibili":23,"lat":40.9071,"lon":14.3429,"date_only":"2025-12-07T00:00:00.000"},{"station":"IT2219A","station_name":"Acerra Scuola Caporale","pollutant":"PM10","date":"2025-12-07T00:00:00.000","value":81.6204166667,"Ore_Disponibili":24,"lat":40.9071,"lon":14.3429,"date_only":"2025-12-07T00:00:00.000"},{"station":"IT2219A","station_name":"Acerra Scuola Caporale","pollutant":"PM2,5","date":"2025-12-07T00:00:00.000","value":74.3491666667,"Ore_Disponibili":24,"lat":40.9071,"lon":14.3429,"date_only":"2025-12-07T00:00:00.000"},{"station":"IT2221A","station_name":"Napoli via Epomeo *\u00b0","pollutant":"NO2","date":"2025-12-07T00:00:00.000","value":39.8839130435,"Ore_Disponibili":23,"lat":40.7205434,"lon":13.8987737,"date_only":"2025-12-07T00:00:00.000"},{"station":"IT2221A","station_name":"Napoli via Epomeo *\u00b0","pollutant":"O3","date":"2025-12-07T00:00:00.000","value":7.5666666667,"Ore_Disponibili":24,"lat":40.7205434,"lon":13.8987737,"date_only":"2025-12-07T00:00:00.000"},{"station":"IT2221A","station_name":"Napoli via Epomeo *\u00b0","pollutant":"PM10","date":"2025-12-07T00:00:00.000","value":29.4625,"Ore_Disponibili":24,"lat":40.7205434,"lon":13.8987737,"date_only":"2025-12-07T00:00:00.000"},{"station":"IT2221A","station_name":"Napoli via Epomeo *\u00b0","pollutant":"PM2,5","date":"2025-12-07T00:00:00.000","value":23.9770833333,"Ore_Disponibili":24,"lat":40.7205434,"lon":13.8987737,"date_only":"2025-12-07T00:00:00.000"},{"station":"IT2223A","station_name":"Volla Via Filichito *\u00b0","pollutant":"NO2","date":"2025-12-07T00:00:00.000","value":39.72875,"Ore_Disponibili":24,"lat":40.8824226,"lon":14.3478545,"date_only":"2025-12-07T00:00:00.000"},{"station":"IT2223A","station_name":"Volla Via Filichito *\u00b0","pollutant":"O3","date":"2025-12-07T00:00:00.000","value":11.6347826087,"Ore_Disponibili":23,"lat":40.8824226,"lon":14.3478545,"date_only":"2025-12-07T00:00:00.000"},{"station":"IT2223A","station_name":"Volla Via Filichito *\u00b0","pollutant":"PM10","date":"2025-12-07T00:00:00.000","value":58.1704347826,"Ore_Disponibili":23,"lat":40.8824226,"lon":14.3478545,"date_only":"2025-12-07T00:00:00.000"},{"station":"IT2223A","station_name":"Volla Via Filichito *\u00b0","pollutant":"PM2,5","date":"2025-12-07T00:00:00.000","value":53.9213043478,"Ore_Disponibili":23,"lat":40.8824226,"lon":14.3478545,"date_only":"2025-12-07T00:00:00.000"},{"station":"IT2226A","station_name":"Pomigliano d'Arco Area Asi","pollutant":"NO2","date":"2025-12-07T00:00:00.000","value":40.0560869565,"Ore_Disponibili":23,"lat":40.412,"lon":15.341,"date_only":"2025-12-07T00:00:00.000"},{"station":"IT2226A","station_name":"Pomigliano d'Arco Area Asi","pollutant":"PM10","date":"2025-12-07T00:00:00.000","value":59.0458333333,"Ore_Disponibili":24,"lat":40.412,"lon":15.341,"date_only":"2025-12-07T00:00:00.000"},{"station":"IT2226A","station_name":"Pomigliano d'Arco Area Asi","pollutant":"PM2,5","date":"2025-12-07T00:00:00.000","value":51.925,"Ore_Disponibili":24,"lat":40.412,"lon":15.341,"date_only":"2025-12-07T00:00:00.000"},{"station":"IT2227A","station_name":"Avellino Scuola Alighieri","pollutant":"NO2","date":"2025-12-07T00:00:00.000","value":33.0245833333,"Ore_Disponibili":24,"lat":40.9190395,"lon":14.784947,"date_only":"2025-12-07T00:00:00.000"},{"station":"IT2227A","station_name":"Avellino Scuola Alighieri","pollutant":"PM10","date":"2025-12-07T00:00:00.000","value":22.765,"Ore_Disponibili":24,"lat":40.9190395,"lon":14.784947,"date_only":"2025-12-07T00:00:00.000"},{"station":"IT2227A","station_name":"Avellino Scuola Alighieri","pollutant":"PM2,5","date":"2025-12-07T00:00:00.000","value":21.12125,"Ore_Disponibili":24,"lat":40.9190395,"lon":14.784947,"date_only":"2025-12-07T00:00:00.000"},{"station":"IT2228A","station_name":"Benevento Campo Sportivo","pollutant":"NO2","date":"2025-12-07T00:00:00.000","value":15.55875,"Ore_Disponibili":24,"lat":41.2315276,"lon":14.5332703,"date_only":"2025-12-07T00:00:00.000"},{"station":"IT2228A","station_name":"Benevento Campo Sportivo","pollutant":"O3","date":"2025-12-07T00:00:00.000","value":8.4458333333,"Ore_Disponibili":24,"lat":41.2315276,"lon":14.5332703,"date_only":"2025-12-07T00:00:00.000"},{"station":"IT2228A","station_name":"Benevento Campo Sportivo","pollutant":"PM10","date":"2025-12-07T00:00:00.000","value":44.8083333333,"Ore_Disponibili":24,"lat":41.2315276,"lon":14.5332703,"date_only":"2025-12-07T00:00:00.000"},{"station":"IT2228A","station_name":"Benevento Campo Sportivo","pollutant":"PM2,5","date":"2025-12-07T00:00:00.000","value":38.9125,"Ore_Disponibili":24,"lat":41.2315276,"lon":14.5332703,"date_only":"2025-12-07T00:00:00.000"},{"station":"IT2268A","station_name":"Battipaglia Parco Fiume","pollutant":"NO2","date":"2025-12-07T00:00:00.000","value":28.9339130435,"Ore_Disponibili":23,"lat":40.6167,"lon":14.9833,"date_only":"2025-12-07T00:00:00.000"},{"station":"IT2268A","station_name":"Battipaglia Parco Fiume","pollutant":"O3","date":"2025-12-07T00:00:00.000","value":25.8782608696,"Ore_Disponibili":23,"lat":40.6167,"lon":14.9833,"date_only":"2025-12-07T00:00:00.000"},{"station":"IT2268A","station_name":"Battipaglia Parco Fiume","pollutant":"PM10","date":"2025-12-07T00:00:00.000","value":23.1,"Ore_Disponibili":24,"lat":40.6167,"lon":14.9833,"date_only":"2025-12-07T00:00:00.000"},{"station":"IT2268A","station_name":"Battipaglia Parco Fiume","pollutant":"PM2,5","date":"2025-12-07T00:00:00.000","value":12.9,"Ore_Disponibili":24,"lat":40.6167,"lon":14.9833,"date_only":"2025-12-07T00:00:00.000"},{"station":"IT2270A","station_name":"Portici Parco Reggia","pollutant":"NO2","date":"2025-12-07T00:00:00.000","value":36.5008695652,"Ore_Disponibili":23,"lat":40.813588,"lon":14.3476526,"date_only":"2025-12-07T00:00:00.000"},{"station":"IT2270A","station_name":"Portici Parco Reggia","pollutant":"O3","date":"2025-12-07T00:00:00.000","value":20.74,"Ore_Disponibili":23,"lat":40.813588,"lon":14.3476526,"date_only":"2025-12-07T00:00:00.000"},{"station":"IT2270A","station_name":"Portici Parco Reggia","pollutant":"PM10","date":"2025-12-07T00:00:00.000","value":24.6941666667,"Ore_Disponibili":24,"lat":40.813588,"lon":14.3476526,"date_only":"2025-12-07T00:00:00.000"},{"station":"IT2270A","station_name":"Portici Parco Reggia","pollutant":"PM2,5","date":"2025-12-07T00:00:00.000","value":21.62125,"Ore_Disponibili":24,"lat":40.813588,"lon":14.3476526,"date_only":"2025-12-07T00:00:00.000"},{"station":"IT2271A","station_name":"Aversa Scuola Cirillo \u00b0","pollutant":"NO2","date":"2025-12-07T00:00:00.000","value":46.45,"Ore_Disponibili":23,"lat":40.9758352,"lon":14.2117669,"date_only":"2025-12-07T00:00:00.000"},{"station":"IT2271A","station_name":"Aversa Scuola Cirillo \u00b0","pollutant":"PM10","date":"2025-12-07T00:00:00.000","value":95.3208333333,"Ore_Disponibili":24,"lat":40.9758352,"lon":14.2117669,"date_only":"2025-12-07T00:00:00.000"},{"station":"IT2271A","station_name":"Aversa Scuola Cirillo \u00b0","pollutant":"PM2,5","date":"2025-12-07T00:00:00.000","value":87.0075,"Ore_Disponibili":24,"lat":40.9758352,"lon":14.2117669,"date_only":"2025-12-07T00:00:00.000"},{"station":"IT2272A","station_name":"Pozzuoli Zona Villa Avellino","pollutant":"NO2","date":"2025-12-07T00:00:00.000","value":28.6291304348,"Ore_Disponibili":23,"lat":40.834,"lon":14.119,"date_only":"2025-12-07T00:00:00.000"},{"station":"IT2272A","station_name":"Pozzuoli Zona Villa Avellino","pollutant":"O3","date":"2025-12-07T00:00:00.000","value":27.5683333333,"Ore_Disponibili":24,"lat":40.834,"lon":14.119,"date_only":"2025-12-07T00:00:00.000"},{"station":"IT2272A","station_name":"Pozzuoli Zona Villa Avellino","pollutant":"PM10","date":"2025-12-07T00:00:00.000","value":22.2479166667,"Ore_Disponibili":24,"lat":40.834,"lon":14.119,"date_only":"2025-12-07T00:00:00.000"},{"station":"IT2272A","station_name":"Pozzuoli Zona Villa Avellino","pollutant":"PM2,5","date":"2025-12-07T00:00:00.000","value":18.1608333333,"Ore_Disponibili":24,"lat":40.834,"lon":14.119,"date_only":"2025-12-07T00:00:00.000"},{"station":"IT2273A","station_name":"Polla Area Tritovagliatore","pollutant":"NO2","date":"2025-12-07T00:00:00.000","value":20.04,"Ore_Disponibili":23,"lat":40.412,"lon":15.341,"date_only":"2025-12-07T00:00:00.000"},{"station":"IT2273A","station_name":"Polla Area Tritovagliatore","pollutant":"PM10","date":"2025-12-07T00:00:00.000","value":13.84375,"Ore_Disponibili":24,"lat":40.412,"lon":15.341,"date_only":"2025-12-07T00:00:00.000"},{"station":"IT2273A","station_name":"Polla Area Tritovagliatore","pollutant":"PM2,5","date":"2025-12-07T00:00:00.000","value":12.6845833333,"Ore_Disponibili":24,"lat":40.412,"lon":15.341,"date_only":"2025-12-07T00:00:00.000"},{"station":"IT2276A","station_name":"Ariano Irpino Stadio","pollutant":"NO2","date":"2025-12-07T00:00:00.000","value":3.5579166667,"Ore_Disponibili":24,"lat":41.1555975,"lon":15.0967062,"date_only":"2025-12-07T00:00:00.000"},{"station":"IT2276A","station_name":"Ariano Irpino Stadio","pollutant":"O3","date":"2025-12-07T00:00:00.000","value":73.6417391304,"Ore_Disponibili":23,"lat":41.1555975,"lon":15.0967062,"date_only":"2025-12-07T00:00:00.000"},{"station":"IT2277A","station_name":"Napoli Parco Virgiliano","pollutant":"NO2","date":"2025-12-07T00:00:00.000","value":16.2595652174,"Ore_Disponibili":23,"lat":40.7984999,"lon":14.1790765,"date_only":"2025-12-07T00:00:00.000"},{"station":"IT2277A","station_name":"Napoli Parco Virgiliano","pollutant":"O3","date":"2025-12-07T00:00:00.000","value":47.32,"Ore_Disponibili":24,"lat":40.7984999,"lon":14.1790765,"date_only":"2025-12-07T00:00:00.000"},{"station":"IT2277A","station_name":"Napoli Parco Virgiliano","pollutant":"PM10","date":"2025-12-07T00:00:00.000","value":14.3,"Ore_Disponibili":24,"lat":40.7984999,"lon":14.1790765,"date_only":"2025-12-07T00:00:00.000"},{"station":"IT2277A","station_name":"Napoli Parco Virgiliano","pollutant":"PM2,5","date":"2025-12-07T00:00:00.000","value":12.5,"Ore_Disponibili":24,"lat":40.7984999,"lon":14.1790765,"date_only":"2025-12-07T00:00:00.000"},{"station":"IT2283A","station_name":"Ottati Alburni","pollutant":"NO2","date":"2025-12-07T00:00:00.000","value":2.2943478261,"Ore_Disponibili":23,"lat":40.306,"lon":15.277,"date_only":"2025-12-07T00:00:00.000"},{"station":"IT2283A","station_name":"Ottati Alburni","pollutant":"O3","date":"2025-12-07T00:00:00.000","value":65.0147826087,"Ore_Disponibili":23,"lat":40.306,"lon":15.277,"date_only":"2025-12-07T00:00:00.000"},{"station":"IT2283A","station_name":"Ottati Alburni","pollutant":"PM10","date":"2025-12-07T00:00:00.000","value":1.1,"Ore_Disponibili":24,"lat":40.306,"lon":15.277,"date_only":"2025-12-07T00:00:00.000"},{"station":"IT2283A","station_name":"Ottati Alburni","pollutant":"PM2,5","date":"2025-12-07T00:00:00.000","value":1.8,"Ore_Disponibili":24,"lat":40.306,"lon":15.277,"date_only":"2025-12-07T00:00:00.000"}]