[{"station":"IT0898A","station_name":"Napoli NA06 Museo Nazionale","pollutant":"NO2","date":"2025-11-09T00:00:00.000","value":30.09125,"Ore_Disponibili":24,"lat":40.8536064,"lon":14.25115,"date_only":"2025-11-09T00:00:00.000"},{"station":"IT0898A","station_name":"Napoli NA06 Museo Nazionale","pollutant":"PM10","date":"2025-11-09T00:00:00.000","value":11.3217391304,"Ore_Disponibili":23,"lat":40.8536064,"lon":14.25115,"date_only":"2025-11-09T00:00:00.000"},{"station":"IT0898A","station_name":"Napoli NA06 Museo Nazionale","pollutant":"PM2,5","date":"2025-11-09T00:00:00.000","value":8.8541666667,"Ore_Disponibili":24,"lat":40.8536064,"lon":14.25115,"date_only":"2025-11-09T00:00:00.000"},{"station":"IT0934A","station_name":"Benevento BN32 Via Mustilli","pollutant":"NO2","date":"2025-11-09T00:00:00.000","value":15.4754166667,"Ore_Disponibili":24,"lat":41.1317868,"lon":14.7885516,"date_only":"2025-11-09T00:00:00.000"},{"station":"IT0934A","station_name":"Benevento BN32 Via Mustilli","pollutant":"PM10","date":"2025-11-09T00:00:00.000","value":19.6454545455,"Ore_Disponibili":22,"lat":41.1317868,"lon":14.7885516,"date_only":"2025-11-09T00:00:00.000"},{"station":"IT0934A","station_name":"Benevento BN32 Via Mustilli","pollutant":"PM2,5","date":"2025-11-09T00:00:00.000","value":15.0833333333,"Ore_Disponibili":24,"lat":41.1317868,"lon":14.7885516,"date_only":"2025-11-09T00:00:00.000"},{"station":"IT0936A","station_name":"Avellino AV41 Sc. V Circolo \u00b0","pollutant":"NO2","date":"2025-11-09T00:00:00.000","value":8.97375,"Ore_Disponibili":24,"lat":40.9152,"lon":14.7955,"date_only":"2025-11-09T00:00:00.000"},{"station":"IT0936A","station_name":"Avellino AV41 Sc. V Circolo \u00b0","pollutant":"O3","date":"2025-11-09T00:00:00.000","value":31.2166666667,"Ore_Disponibili":24,"lat":40.9152,"lon":14.7955,"date_only":"2025-11-09T00:00:00.000"},{"station":"IT0936A","station_name":"Avellino AV41 Sc. V Circolo \u00b0","pollutant":"PM10","date":"2025-11-09T00:00:00.000","value":13.19875,"Ore_Disponibili":24,"lat":40.9152,"lon":14.7955,"date_only":"2025-11-09T00:00:00.000"},{"station":"IT0936A","station_name":"Avellino AV41 Sc. V Circolo \u00b0","pollutant":"PM2,5","date":"2025-11-09T00:00:00.000","value":11.5508333333,"Ore_Disponibili":24,"lat":40.9152,"lon":14.7955,"date_only":"2025-11-09T00:00:00.000"},{"station":"IT1041A","station_name":"Salerno SA23 Scuola Conti \u00b0","pollutant":"NO2","date":"2025-11-09T00:00:00.000","value":14.30875,"Ore_Disponibili":24,"lat":40.675,"lon":14.768,"date_only":"2025-11-09T00:00:00.000"},{"station":"IT1041A","station_name":"Salerno SA23 Scuola Conti \u00b0","pollutant":"O3","date":"2025-11-09T00:00:00.000","value":26.6643478261,"Ore_Disponibili":23,"lat":40.675,"lon":14.768,"date_only":"2025-11-09T00:00:00.000"},{"station":"IT1041A","station_name":"Salerno SA23 Scuola Conti \u00b0","pollutant":"PM2,5","date":"2025-11-09T00:00:00.000","value":19.2,"Ore_Disponibili":24,"lat":40.675,"lon":14.768,"date_only":"2025-11-09T00:00:00.000"},{"station":"IT1486A","station_name":"Caserta CE51 Ist. Manzoni","pollutant":"NO2","date":"2025-11-09T00:00:00.000","value":6.1133333333,"Ore_Disponibili":24,"lat":41.0818,"lon":14.3349,"date_only":"2025-11-09T00:00:00.000"},{"station":"IT1486A","station_name":"Caserta CE51 Ist. Manzoni","pollutant":"O3","date":"2025-11-09T00:00:00.000","value":66.9908333333,"Ore_Disponibili":24,"lat":41.0818,"lon":14.3349,"date_only":"2025-11-09T00:00:00.000"},{"station":"IT1486A","station_name":"Caserta CE51 Ist. Manzoni","pollutant":"PM10","date":"2025-11-09T00:00:00.000","value":6.3913043478,"Ore_Disponibili":23,"lat":41.0818,"lon":14.3349,"date_only":"2025-11-09T00:00:00.000"},{"station":"IT1486A","station_name":"Caserta CE51 Ist. Manzoni","pollutant":"PM2,5","date":"2025-11-09T00:00:00.000","value":4.6869565217,"Ore_Disponibili":23,"lat":41.0818,"lon":14.3349,"date_only":"2025-11-09T00:00:00.000"},{"station":"IT1487A","station_name":"Caserta CE52 Sc. De Amicis","pollutant":"NO2","date":"2025-11-09T00:00:00.000","value":5.6290909091,"Ore_Disponibili":22,"lat":41.0085302,"lon":14.0787912,"date_only":"2025-11-09T00:00:00.000"},{"station":"IT1487A","station_name":"Caserta CE52 Sc. De Amicis","pollutant":"PM10","date":"2025-11-09T00:00:00.000","value":12.0,"Ore_Disponibili":24,"lat":41.0085302,"lon":14.0787912,"date_only":"2025-11-09T00:00:00.000"},{"station":"IT1487A","station_name":"Caserta CE52 Sc. De Amicis","pollutant":"PM2,5","date":"2025-11-09T00:00:00.000","value":3.3,"Ore_Disponibili":24,"lat":41.0085302,"lon":14.0787912,"date_only":"2025-11-09T00:00:00.000"},{"station":"IT1488A","station_name":"Maddaloni CE54 Sc. Settembrini","pollutant":"NO2","date":"2025-11-09T00:00:00.000","value":6.5339130435,"Ore_Disponibili":23,"lat":41.094,"lon":14.402,"date_only":"2025-11-09T00:00:00.000"},{"station":"IT1488A","station_name":"Maddaloni CE54 Sc. Settembrini","pollutant":"O3","date":"2025-11-09T00:00:00.000","value":48.4356521739,"Ore_Disponibili":23,"lat":41.094,"lon":14.402,"date_only":"2025-11-09T00:00:00.000"},{"station":"IT1488A","station_name":"Maddaloni CE54 Sc. Settembrini","pollutant":"PM10","date":"2025-11-09T00:00:00.000","value":10.0804166667,"Ore_Disponibili":24,"lat":41.094,"lon":14.402,"date_only":"2025-11-09T00:00:00.000"},{"station":"IT1488A","station_name":"Maddaloni CE54 Sc. Settembrini","pollutant":"PM2,5","date":"2025-11-09T00:00:00.000","value":7.6591666667,"Ore_Disponibili":24,"lat":41.094,"lon":14.402,"date_only":"2025-11-09T00:00:00.000"},{"station":"IT1491A","station_name":"Napoli NA07 Ferrovia \u00b0","pollutant":"NO2","date":"2025-11-09T00:00:00.000","value":30.8675,"Ore_Disponibili":24,"lat":40.8277815,"lon":14.3989433,"date_only":"2025-11-09T00:00:00.000"},{"station":"IT1491A","station_name":"Napoli NA07 Ferrovia \u00b0","pollutant":"PM10","date":"2025-11-09T00:00:00.000","value":13.49,"Ore_Disponibili":20,"lat":40.8277815,"lon":14.3989433,"date_only":"2025-11-09T00:00:00.000"},{"station":"IT1491A","station_name":"Napoli NA07 Ferrovia \u00b0","pollutant":"PM2,5","date":"2025-11-09T00:00:00.000","value":6.4090909091,"Ore_Disponibili":22,"lat":40.8277815,"lon":14.3989433,"date_only":"2025-11-09T00:00:00.000"},{"station":"IT1493A","station_name":"Napoli NA09 Via Argine","pollutant":"NO2","date":"2025-11-09T00:00:00.000","value":37.10625,"Ore_Disponibili":24,"lat":40.8560636,"lon":14.3234622,"date_only":"2025-11-09T00:00:00.000"},{"station":"IT1493A","station_name":"Napoli NA09 Via Argine","pollutant":"PM10","date":"2025-11-09T00:00:00.000","value":16.1583333333,"Ore_Disponibili":24,"lat":40.8560636,"lon":14.3234622,"date_only":"2025-11-09T00:00:00.000"},{"station":"IT1493A","station_name":"Napoli NA09 Via Argine","pollutant":"PM2,5","date":"2025-11-09T00:00:00.000","value":11.8333333333,"Ore_Disponibili":24,"lat":40.8560636,"lon":14.3234622,"date_only":"2025-11-09T00:00:00.000"},{"station":"IT1495A","station_name":"Napoli NA08 Osp. N. Pellegrini","pollutant":"NO2","date":"2025-11-09T00:00:00.000","value":29.42125,"Ore_Disponibili":24,"lat":40.8535,"lon":14.235,"date_only":"2025-11-09T00:00:00.000"},{"station":"IT1495A","station_name":"Napoli NA08 Osp. N. Pellegrini","pollutant":"PM10","date":"2025-11-09T00:00:00.000","value":13.9,"Ore_Disponibili":24,"lat":40.8535,"lon":14.235,"date_only":"2025-11-09T00:00:00.000"},{"station":"IT1496A","station_name":"Napoli NA02 Osp. Santobono \u00b0","pollutant":"NO2","date":"2025-11-09T00:00:00.000","value":43.1966666667,"Ore_Disponibili":24,"lat":40.8554,"lon":14.2231,"date_only":"2025-11-09T00:00:00.000"},{"station":"IT1496A","station_name":"Napoli NA02 Osp. Santobono \u00b0","pollutant":"PM10","date":"2025-11-09T00:00:00.000","value":6.93375,"Ore_Disponibili":24,"lat":40.8554,"lon":14.2231,"date_only":"2025-11-09T00:00:00.000"},{"station":"IT1496A","station_name":"Napoli NA02 Osp. Santobono \u00b0","pollutant":"PM2,5","date":"2025-11-09T00:00:00.000","value":4.8075,"Ore_Disponibili":24,"lat":40.8554,"lon":14.2231,"date_only":"2025-11-09T00:00:00.000"},{"station":"IT1497A","station_name":"Napoli NA01 Oss. Astronomico","pollutant":"NO2","date":"2025-11-09T00:00:00.000","value":13.1275,"Ore_Disponibili":24,"lat":40.853,"lon":14.305,"date_only":"2025-11-09T00:00:00.000"},{"station":"IT1497A","station_name":"Napoli NA01 Oss. Astronomico","pollutant":"O3","date":"2025-11-09T00:00:00.000","value":41.7316666667,"Ore_Disponibili":24,"lat":40.853,"lon":14.305,"date_only":"2025-11-09T00:00:00.000"},{"station":"IT1497A","station_name":"Napoli NA01 Oss. Astronomico","pollutant":"PM10","date":"2025-11-09T00:00:00.000","value":6.9091666667,"Ore_Disponibili":24,"lat":40.853,"lon":14.305,"date_only":"2025-11-09T00:00:00.000"},{"station":"IT1497A","station_name":"Napoli NA01 Oss. Astronomico","pollutant":"PM2,5","date":"2025-11-09T00:00:00.000","value":4.965,"Ore_Disponibili":24,"lat":40.853,"lon":14.305,"date_only":"2025-11-09T00:00:00.000"},{"station":"IT1504A","station_name":"Salerno SA22 Osp. Via Vernieri","pollutant":"NO2","date":"2025-11-09T00:00:00.000","value":10.4120833333,"Ore_Disponibili":24,"lat":40.682,"lon":14.766,"date_only":"2025-11-09T00:00:00.000"},{"station":"IT1504A","station_name":"Salerno SA22 Osp. Via Vernieri","pollutant":"PM10","date":"2025-11-09T00:00:00.000","value":7.8619047619,"Ore_Disponibili":21,"lat":40.682,"lon":14.766,"date_only":"2025-11-09T00:00:00.000"},{"station":"IT1504A","station_name":"Salerno SA22 Osp. Via Vernieri","pollutant":"PM2,5","date":"2025-11-09T00:00:00.000","value":5.6142857143,"Ore_Disponibili":21,"lat":40.682,"lon":14.766,"date_only":"2025-11-09T00:00:00.000"},{"station":"IT2210A","station_name":"Solofra Zona Industriale","pollutant":"NO2","date":"2025-11-09T00:00:00.000","value":4.657826087,"Ore_Disponibili":23,"lat":41.058,"lon":14.808,"date_only":"2025-11-09T00:00:00.000"},{"station":"IT2210A","station_name":"Solofra Zona Industriale","pollutant":"PM10","date":"2025-11-09T00:00:00.000","value":15.4633333333,"Ore_Disponibili":24,"lat":41.058,"lon":14.808,"date_only":"2025-11-09T00:00:00.000"},{"station":"IT2210A","station_name":"Solofra Zona Industriale","pollutant":"PM2,5","date":"2025-11-09T00:00:00.000","value":11.5929166667,"Ore_Disponibili":24,"lat":41.058,"lon":14.808,"date_only":"2025-11-09T00:00:00.000"},{"station":"IT2211A","station_name":"Acerra Zona Industriale","pollutant":"NO2","date":"2025-11-09T00:00:00.000","value":24.5717391304,"Ore_Disponibili":23,"lat":40.9847962,"lon":14.3679606,"date_only":"2025-11-09T00:00:00.000"},{"station":"IT2211A","station_name":"Acerra Zona Industriale","pollutant":"PM10","date":"2025-11-09T00:00:00.000","value":9.8,"Ore_Disponibili":24,"lat":40.9847962,"lon":14.3679606,"date_only":"2025-11-09T00:00:00.000"},{"station":"IT2211A","station_name":"Acerra Zona Industriale","pollutant":"PM2,5","date":"2025-11-09T00:00:00.000","value":7.8,"Ore_Disponibili":24,"lat":40.9847962,"lon":14.3679606,"date_only":"2025-11-09T00:00:00.000"},{"station":"IT2212A","station_name":"S. Vitaliano Scuola Marconi","pollutant":"NO2","date":"2025-11-09T00:00:00.000","value":20.416,"Ore_Disponibili":15,"lat":40.896,"lon":14.46,"date_only":"2025-11-09T00:00:00.000"},{"station":"IT2212A","station_name":"S. Vitaliano Scuola Marconi","pollutant":"O3","date":"2025-11-09T00:00:00.000","value":52.9813333333,"Ore_Disponibili":15,"lat":40.896,"lon":14.46,"date_only":"2025-11-09T00:00:00.000"},{"station":"IT2212A","station_name":"S. Vitaliano Scuola Marconi","pollutant":"PM10","date":"2025-11-09T00:00:00.000","value":8.5,"Ore_Disponibili":16,"lat":40.896,"lon":14.46,"date_only":"2025-11-09T00:00:00.000"},{"station":"IT2212A","station_name":"S. Vitaliano Scuola Marconi","pollutant":"PM2,5","date":"2025-11-09T00:00:00.000","value":6.36125,"Ore_Disponibili":16,"lat":40.896,"lon":14.46,"date_only":"2025-11-09T00:00:00.000"},{"station":"IT2213A","station_name":"Cava dei Tirreni Stadio","pollutant":"NO2","date":"2025-11-09T00:00:00.000","value":9.7647826087,"Ore_Disponibili":23,"lat":40.7125,"lon":14.638,"date_only":"2025-11-09T00:00:00.000"},{"station":"IT2213A","station_name":"Cava dei Tirreni Stadio","pollutant":"O3","date":"2025-11-09T00:00:00.000","value":52.4913043478,"Ore_Disponibili":23,"lat":40.7125,"lon":14.638,"date_only":"2025-11-09T00:00:00.000"},{"station":"IT2213A","station_name":"Cava dei Tirreni Stadio","pollutant":"PM10","date":"2025-11-09T00:00:00.000","value":8.2483333333,"Ore_Disponibili":24,"lat":40.7125,"lon":14.638,"date_only":"2025-11-09T00:00:00.000"},{"station":"IT2213A","station_name":"Cava dei Tirreni Stadio","pollutant":"PM2,5","date":"2025-11-09T00:00:00.000","value":5.7179166667,"Ore_Disponibili":24,"lat":40.7125,"lon":14.638,"date_only":"2025-11-09T00:00:00.000"},{"station":"IT2214A","station_name":"Nocera Inferiore Sc. Solimena","pollutant":"NO2","date":"2025-11-09T00:00:00.000","value":8.9360869565,"Ore_Disponibili":23,"lat":40.7473393,"lon":14.6410145,"date_only":"2025-11-09T00:00:00.000"},{"station":"IT2214A","station_name":"Nocera Inferiore Sc. Solimena","pollutant":"PM10","date":"2025-11-09T00:00:00.000","value":8.2633333333,"Ore_Disponibili":24,"lat":40.7473393,"lon":14.6410145,"date_only":"2025-11-09T00:00:00.000"},{"station":"IT2214A","station_name":"Nocera Inferiore Sc. Solimena","pollutant":"PM2,5","date":"2025-11-09T00:00:00.000","value":5.6125,"Ore_Disponibili":24,"lat":40.7473393,"lon":14.6410145,"date_only":"2025-11-09T00:00:00.000"},{"station":"IT2215A","station_name":"Benevento Zona Industriale \u00b0","pollutant":"NO2","date":"2025-11-09T00:00:00.000","value":9.6058333333,"Ore_Disponibili":24,"lat":41.2293368,"lon":14.4782074,"date_only":"2025-11-09T00:00:00.000"},{"station":"IT2215A","station_name":"Benevento Zona Industriale \u00b0","pollutant":"O3","date":"2025-11-09T00:00:00.000","value":27.6434782609,"Ore_Disponibili":23,"lat":41.2293368,"lon":14.4782074,"date_only":"2025-11-09T00:00:00.000"},{"station":"IT2215A","station_name":"Benevento Zona Industriale \u00b0","pollutant":"PM10","date":"2025-11-09T00:00:00.000","value":17.8779166667,"Ore_Disponibili":24,"lat":41.2293368,"lon":14.4782074,"date_only":"2025-11-09T00:00:00.000"},{"station":"IT2215A","station_name":"Benevento Zona Industriale \u00b0","pollutant":"PM2,5","date":"2025-11-09T00:00:00.000","value":15.5704166667,"Ore_Disponibili":24,"lat":41.2293368,"lon":14.4782074,"date_only":"2025-11-09T00:00:00.000"},{"station":"IT2216A","station_name":"Casoria Scuola Palizzi","pollutant":"NO2","date":"2025-11-09T00:00:00.000","value":18.4417391304,"Ore_Disponibili":23,"lat":40.904,"lon":14.289,"date_only":"2025-11-09T00:00:00.000"},{"station":"IT2216A","station_name":"Casoria Scuola Palizzi","pollutant":"O3","date":"2025-11-09T00:00:00.000","value":31.9060869565,"Ore_Disponibili":23,"lat":40.904,"lon":14.289,"date_only":"2025-11-09T00:00:00.000"},{"station":"IT2216A","station_name":"Casoria Scuola Palizzi","pollutant":"PM10","date":"2025-11-09T00:00:00.000","value":18.3283333333,"Ore_Disponibili":24,"lat":40.904,"lon":14.289,"date_only":"2025-11-09T00:00:00.000"},{"station":"IT2216A","station_name":"Casoria Scuola Palizzi","pollutant":"PM2,5","date":"2025-11-09T00:00:00.000","value":12.5308333333,"Ore_Disponibili":24,"lat":40.904,"lon":14.289,"date_only":"2025-11-09T00:00:00.000"},{"station":"IT2217A","station_name":"Torre Annunziata Sc. Pascoli","pollutant":"NO2","date":"2025-11-09T00:00:00.000","value":11.6736363636,"Ore_Disponibili":22,"lat":40.7469754,"lon":14.4608234,"date_only":"2025-11-09T00:00:00.000"},{"station":"IT2217A","station_name":"Torre Annunziata Sc. Pascoli","pollutant":"O3","date":"2025-11-09T00:00:00.000","value":47.7139130435,"Ore_Disponibili":23,"lat":40.7469754,"lon":14.4608234,"date_only":"2025-11-09T00:00:00.000"},{"station":"IT2218A","station_name":"San Felice a Cancello C. Scolast.","pollutant":"NO2","date":"2025-11-09T00:00:00.000","value":3.016,"Ore_Disponibili":20,"lat":41.015,"lon":14.287,"date_only":"2025-11-09T00:00:00.000"},{"station":"IT2218A","station_name":"San Felice a Cancello C. Scolast.","pollutant":"O3","date":"2025-11-09T00:00:00.000","value":60.1704347826,"Ore_Disponibili":23,"lat":41.015,"lon":14.287,"date_only":"2025-11-09T00:00:00.000"},{"station":"IT2218A","station_name":"San Felice a Cancello C. Scolast.","pollutant":"PM10","date":"2025-11-09T00:00:00.000","value":7.2941666667,"Ore_Disponibili":24,"lat":41.015,"lon":14.287,"date_only":"2025-11-09T00:00:00.000"},{"station":"IT2218A","station_name":"San Felice a Cancello C. Scolast.","pollutant":"PM2,5","date":"2025-11-09T00:00:00.000","value":5.5375,"Ore_Disponibili":24,"lat":41.015,"lon":14.287,"date_only":"2025-11-09T00:00:00.000"},{"station":"IT2219A","station_name":"Acerra Scuola Caporale","pollutant":"NO2","date":"2025-11-09T00:00:00.000","value":19.6133333333,"Ore_Disponibili":21,"lat":40.9071,"lon":14.3429,"date_only":"2025-11-09T00:00:00.000"},{"station":"IT2219A","station_name":"Acerra Scuola Caporale","pollutant":"PM10","date":"2025-11-09T00:00:00.000","value":12.7379166667,"Ore_Disponibili":24,"lat":40.9071,"lon":14.3429,"date_only":"2025-11-09T00:00:00.000"},{"station":"IT2219A","station_name":"Acerra Scuola Caporale","pollutant":"PM2,5","date":"2025-11-09T00:00:00.000","value":9.09875,"Ore_Disponibili":24,"lat":40.9071,"lon":14.3429,"date_only":"2025-11-09T00:00:00.000"},{"station":"IT2221A","station_name":"Napoli via Epomeo *\u00b0","pollutant":"NO2","date":"2025-11-09T00:00:00.000","value":21.7173913043,"Ore_Disponibili":23,"lat":40.7205434,"lon":13.8987737,"date_only":"2025-11-09T00:00:00.000"},{"station":"IT2221A","station_name":"Napoli via Epomeo *\u00b0","pollutant":"O3","date":"2025-11-09T00:00:00.000","value":29.5941666667,"Ore_Disponibili":24,"lat":40.7205434,"lon":13.8987737,"date_only":"2025-11-09T00:00:00.000"},{"station":"IT2221A","station_name":"Napoli via Epomeo *\u00b0","pollutant":"PM10","date":"2025-11-09T00:00:00.000","value":10.3204166667,"Ore_Disponibili":24,"lat":40.7205434,"lon":13.8987737,"date_only":"2025-11-09T00:00:00.000"},{"station":"IT2221A","station_name":"Napoli via Epomeo *\u00b0","pollutant":"PM2,5","date":"2025-11-09T00:00:00.000","value":7.5958333333,"Ore_Disponibili":24,"lat":40.7205434,"lon":13.8987737,"date_only":"2025-11-09T00:00:00.000"},{"station":"IT2223A","station_name":"Volla Via Filichito *\u00b0","pollutant":"NO2","date":"2025-11-09T00:00:00.000","value":23.5995833333,"Ore_Disponibili":24,"lat":40.8824226,"lon":14.3478545,"date_only":"2025-11-09T00:00:00.000"},{"station":"IT2223A","station_name":"Volla Via Filichito *\u00b0","pollutant":"O3","date":"2025-11-09T00:00:00.000","value":18.7733333333,"Ore_Disponibili":24,"lat":40.8824226,"lon":14.3478545,"date_only":"2025-11-09T00:00:00.000"},{"station":"IT2223A","station_name":"Volla Via Filichito *\u00b0","pollutant":"PM10","date":"2025-11-09T00:00:00.000","value":7.6508333333,"Ore_Disponibili":24,"lat":40.8824226,"lon":14.3478545,"date_only":"2025-11-09T00:00:00.000"},{"station":"IT2223A","station_name":"Volla Via Filichito *\u00b0","pollutant":"PM2,5","date":"2025-11-09T00:00:00.000","value":6.0670833333,"Ore_Disponibili":24,"lat":40.8824226,"lon":14.3478545,"date_only":"2025-11-09T00:00:00.000"},{"station":"IT2226A","station_name":"Pomigliano d'Arco Area Asi","pollutant":"NO2","date":"2025-11-09T00:00:00.000","value":21.5982608696,"Ore_Disponibili":23,"lat":40.412,"lon":15.341,"date_only":"2025-11-09T00:00:00.000"},{"station":"IT2226A","station_name":"Pomigliano d'Arco Area Asi","pollutant":"PM10","date":"2025-11-09T00:00:00.000","value":9.0434782609,"Ore_Disponibili":23,"lat":40.412,"lon":15.341,"date_only":"2025-11-09T00:00:00.000"},{"station":"IT2226A","station_name":"Pomigliano d'Arco Area Asi","pollutant":"PM2,5","date":"2025-11-09T00:00:00.000","value":6.8095238095,"Ore_Disponibili":21,"lat":40.412,"lon":15.341,"date_only":"2025-11-09T00:00:00.000"},{"station":"IT2227A","station_name":"Avellino Scuola Alighieri","pollutant":"NO2","date":"2025-11-09T00:00:00.000","value":15.43,"Ore_Disponibili":24,"lat":40.9190395,"lon":14.784947,"date_only":"2025-11-09T00:00:00.000"},{"station":"IT2227A","station_name":"Avellino Scuola Alighieri","pollutant":"PM10","date":"2025-11-09T00:00:00.000","value":7.7495833333,"Ore_Disponibili":24,"lat":40.9190395,"lon":14.784947,"date_only":"2025-11-09T00:00:00.000"},{"station":"IT2227A","station_name":"Avellino Scuola Alighieri","pollutant":"PM2,5","date":"2025-11-09T00:00:00.000","value":6.5429166667,"Ore_Disponibili":24,"lat":40.9190395,"lon":14.784947,"date_only":"2025-11-09T00:00:00.000"},{"station":"IT2228A","station_name":"Benevento Campo Sportivo","pollutant":"NO2","date":"2025-11-09T00:00:00.000","value":12.9545833333,"Ore_Disponibili":24,"lat":41.2315276,"lon":14.5332703,"date_only":"2025-11-09T00:00:00.000"},{"station":"IT2228A","station_name":"Benevento Campo Sportivo","pollutant":"O3","date":"2025-11-09T00:00:00.000","value":24.0325,"Ore_Disponibili":24,"lat":41.2315276,"lon":14.5332703,"date_only":"2025-11-09T00:00:00.000"},{"station":"IT2228A","station_name":"Benevento Campo Sportivo","pollutant":"PM10","date":"2025-11-09T00:00:00.000","value":20.3145833333,"Ore_Disponibili":24,"lat":41.2315276,"lon":14.5332703,"date_only":"2025-11-09T00:00:00.000"},{"station":"IT2228A","station_name":"Benevento Campo Sportivo","pollutant":"PM2,5","date":"2025-11-09T00:00:00.000","value":16.6329166667,"Ore_Disponibili":24,"lat":41.2315276,"lon":14.5332703,"date_only":"2025-11-09T00:00:00.000"},{"station":"IT2268A","station_name":"Battipaglia Parco Fiume","pollutant":"NO2","date":"2025-11-09T00:00:00.000","value":17.9743478261,"Ore_Disponibili":23,"lat":40.6167,"lon":14.9833,"date_only":"2025-11-09T00:00:00.000"},{"station":"IT2268A","station_name":"Battipaglia Parco Fiume","pollutant":"O3","date":"2025-11-09T00:00:00.000","value":32.4086956522,"Ore_Disponibili":23,"lat":40.6167,"lon":14.9833,"date_only":"2025-11-09T00:00:00.000"},{"station":"IT2268A","station_name":"Battipaglia Parco Fiume","pollutant":"PM10","date":"2025-11-09T00:00:00.000","value":6.6,"Ore_Disponibili":24,"lat":40.6167,"lon":14.9833,"date_only":"2025-11-09T00:00:00.000"},{"station":"IT2268A","station_name":"Battipaglia Parco Fiume","pollutant":"PM2,5","date":"2025-11-09T00:00:00.000","value":6.9,"Ore_Disponibili":24,"lat":40.6167,"lon":14.9833,"date_only":"2025-11-09T00:00:00.000"},{"station":"IT2270A","station_name":"Portici Parco Reggia","pollutant":"NO2","date":"2025-11-09T00:00:00.000","value":19.7765217391,"Ore_Disponibili":23,"lat":40.813588,"lon":14.3476526,"date_only":"2025-11-09T00:00:00.000"},{"station":"IT2270A","station_name":"Portici Parco Reggia","pollutant":"O3","date":"2025-11-09T00:00:00.000","value":30.5295652174,"Ore_Disponibili":23,"lat":40.813588,"lon":14.3476526,"date_only":"2025-11-09T00:00:00.000"},{"station":"IT2270A","station_name":"Portici Parco Reggia","pollutant":"PM10","date":"2025-11-09T00:00:00.000","value":9.04625,"Ore_Disponibili":24,"lat":40.813588,"lon":14.3476526,"date_only":"2025-11-09T00:00:00.000"},{"station":"IT2270A","station_name":"Portici Parco Reggia","pollutant":"PM2,5","date":"2025-11-09T00:00:00.000","value":6.0791666667,"Ore_Disponibili":24,"lat":40.813588,"lon":14.3476526,"date_only":"2025-11-09T00:00:00.000"},{"station":"IT2271A","station_name":"Aversa Scuola Cirillo \u00b0","pollutant":"NO2","date":"2025-11-09T00:00:00.000","value":21.64,"Ore_Disponibili":23,"lat":40.9758352,"lon":14.2117669,"date_only":"2025-11-09T00:00:00.000"},{"station":"IT2271A","station_name":"Aversa Scuola Cirillo \u00b0","pollutant":"PM10","date":"2025-11-09T00:00:00.000","value":13.1733333333,"Ore_Disponibili":24,"lat":40.9758352,"lon":14.2117669,"date_only":"2025-11-09T00:00:00.000"},{"station":"IT2271A","station_name":"Aversa Scuola Cirillo \u00b0","pollutant":"PM2,5","date":"2025-11-09T00:00:00.000","value":10.34,"Ore_Disponibili":24,"lat":40.9758352,"lon":14.2117669,"date_only":"2025-11-09T00:00:00.000"},{"station":"IT2272A","station_name":"Pozzuoli Zona Villa Avellino","pollutant":"O3","date":"2025-11-09T00:00:00.000","value":30.745,"Ore_Disponibili":24,"lat":40.834,"lon":14.119,"date_only":"2025-11-09T00:00:00.000"},{"station":"IT2272A","station_name":"Pozzuoli Zona Villa Avellino","pollutant":"PM10","date":"2025-11-09T00:00:00.000","value":7.7316666667,"Ore_Disponibili":24,"lat":40.834,"lon":14.119,"date_only":"2025-11-09T00:00:00.000"},{"station":"IT2272A","station_name":"Pozzuoli Zona Villa Avellino","pollutant":"PM2,5","date":"2025-11-09T00:00:00.000","value":4.9454166667,"Ore_Disponibili":24,"lat":40.834,"lon":14.119,"date_only":"2025-11-09T00:00:00.000"},{"station":"IT2273A","station_name":"Polla Area Tritovagliatore","pollutant":"NO2","date":"2025-11-09T00:00:00.000","value":13.4439130435,"Ore_Disponibili":23,"lat":40.412,"lon":15.341,"date_only":"2025-11-09T00:00:00.000"},{"station":"IT2273A","station_name":"Polla Area Tritovagliatore","pollutant":"PM10","date":"2025-11-09T00:00:00.000","value":10.15375,"Ore_Disponibili":24,"lat":40.412,"lon":15.341,"date_only":"2025-11-09T00:00:00.000"},{"station":"IT2273A","station_name":"Polla Area Tritovagliatore","pollutant":"PM2,5","date":"2025-11-09T00:00:00.000","value":7.61375,"Ore_Disponibili":24,"lat":40.412,"lon":15.341,"date_only":"2025-11-09T00:00:00.000"},{"station":"IT2276A","station_name":"Ariano Irpino Stadio","pollutant":"NO2","date":"2025-11-09T00:00:00.000","value":2.9934782609,"Ore_Disponibili":23,"lat":41.1555975,"lon":15.0967062,"date_only":"2025-11-09T00:00:00.000"},{"station":"IT2276A","station_name":"Ariano Irpino Stadio","pollutant":"O3","date":"2025-11-09T00:00:00.000","value":71.6243478261,"Ore_Disponibili":23,"lat":41.1555975,"lon":15.0967062,"date_only":"2025-11-09T00:00:00.000"},{"station":"IT2277A","station_name":"Napoli Parco Virgiliano","pollutant":"NO2","date":"2025-11-09T00:00:00.000","value":9.887826087,"Ore_Disponibili":23,"lat":40.7984999,"lon":14.1790765,"date_only":"2025-11-09T00:00:00.000"},{"station":"IT2277A","station_name":"Napoli Parco Virgiliano","pollutant":"O3","date":"2025-11-09T00:00:00.000","value":57.1925,"Ore_Disponibili":24,"lat":40.7984999,"lon":14.1790765,"date_only":"2025-11-09T00:00:00.000"},{"station":"IT2277A","station_name":"Napoli Parco Virgiliano","pollutant":"PM10","date":"2025-11-09T00:00:00.000","value":6.6,"Ore_Disponibili":24,"lat":40.7984999,"lon":14.1790765,"date_only":"2025-11-09T00:00:00.000"},{"station":"IT2277A","station_name":"Napoli Parco Virgiliano","pollutant":"PM2,5","date":"2025-11-09T00:00:00.000","value":3.4,"Ore_Disponibili":24,"lat":40.7984999,"lon":14.1790765,"date_only":"2025-11-09T00:00:00.000"},{"station":"IT2283A","station_name":"Ottati Alburni","pollutant":"NO2","date":"2025-11-09T00:00:00.000","value":1.6647826087,"Ore_Disponibili":23,"lat":40.306,"lon":15.277,"date_only":"2025-11-09T00:00:00.000"},{"station":"IT2283A","station_name":"Ottati Alburni","pollutant":"O3","date":"2025-11-09T00:00:00.000","value":55.2556521739,"Ore_Disponibili":23,"lat":40.306,"lon":15.277,"date_only":"2025-11-09T00:00:00.000"},{"station":"IT2283A","station_name":"Ottati Alburni","pollutant":"PM10","date":"2025-11-09T00:00:00.000","value":5.6,"Ore_Disponibili":24,"lat":40.306,"lon":15.277,"date_only":"2025-11-09T00:00:00.000"},{"station":"IT2283A","station_name":"Ottati Alburni","pollutant":"PM2,5","date":"2025-11-09T00:00:00.000","value":1.2,"Ore_Disponibili":24,"lat":40.306,"lon":15.277,"date_only":"2025-11-09T00:00:00.000"}]