[{"station":"IT0898A","station_name":"Napoli NA06 Museo Nazionale","pollutant":"CO","date":"2025-11-18T00:00:00.000","value":0.505,"Ore_Disponibili":24,"lat":40.8536064,"lon":14.25115,"date_only":"2025-11-18T00:00:00.000"},{"station":"IT0898A","station_name":"Napoli NA06 Museo Nazionale","pollutant":"NO2","date":"2025-11-18T00:00:00.000","value":41.75875,"Ore_Disponibili":24,"lat":40.8536064,"lon":14.25115,"date_only":"2025-11-18T00:00:00.000"},{"station":"IT0898A","station_name":"Napoli NA06 Museo Nazionale","pollutant":"PM10","date":"2025-11-18T00:00:00.000","value":16.4583333333,"Ore_Disponibili":24,"lat":40.8536064,"lon":14.25115,"date_only":"2025-11-18T00:00:00.000"},{"station":"IT0898A","station_name":"Napoli NA06 Museo Nazionale","pollutant":"PM2,5","date":"2025-11-18T00:00:00.000","value":10.3130434783,"Ore_Disponibili":23,"lat":40.8536064,"lon":14.25115,"date_only":"2025-11-18T00:00:00.000"},{"station":"IT0934A","station_name":"Benevento BN32 Via Mustilli","pollutant":"NO2","date":"2025-11-18T00:00:00.000","value":29.9641666667,"Ore_Disponibili":24,"lat":41.1317868,"lon":14.7885516,"date_only":"2025-11-18T00:00:00.000"},{"station":"IT0934A","station_name":"Benevento BN32 Via Mustilli","pollutant":"PM10","date":"2025-11-18T00:00:00.000","value":17.7833333333,"Ore_Disponibili":24,"lat":41.1317868,"lon":14.7885516,"date_only":"2025-11-18T00:00:00.000"},{"station":"IT0934A","station_name":"Benevento BN32 Via Mustilli","pollutant":"PM2,5","date":"2025-11-18T00:00:00.000","value":12.035,"Ore_Disponibili":20,"lat":41.1317868,"lon":14.7885516,"date_only":"2025-11-18T00:00:00.000"},{"station":"IT0936A","station_name":"Avellino AV41 Sc. V Circolo \u00b0","pollutant":"NO2","date":"2025-11-18T00:00:00.000","value":14.35375,"Ore_Disponibili":24,"lat":40.9152,"lon":14.7955,"date_only":"2025-11-18T00:00:00.000"},{"station":"IT0936A","station_name":"Avellino AV41 Sc. V Circolo \u00b0","pollutant":"O3","date":"2025-11-18T00:00:00.000","value":37.195,"Ore_Disponibili":24,"lat":40.9152,"lon":14.7955,"date_only":"2025-11-18T00:00:00.000"},{"station":"IT0936A","station_name":"Avellino AV41 Sc. V Circolo \u00b0","pollutant":"PM10","date":"2025-11-18T00:00:00.000","value":14.2120833333,"Ore_Disponibili":24,"lat":40.9152,"lon":14.7955,"date_only":"2025-11-18T00:00:00.000"},{"station":"IT0936A","station_name":"Avellino AV41 Sc. V Circolo \u00b0","pollutant":"PM2,5","date":"2025-11-18T00:00:00.000","value":10.9433333333,"Ore_Disponibili":24,"lat":40.9152,"lon":14.7955,"date_only":"2025-11-18T00:00:00.000"},{"station":"IT1041A","station_name":"Salerno SA23 Scuola Conti \u00b0","pollutant":"NO2","date":"2025-11-18T00:00:00.000","value":41.1933333333,"Ore_Disponibili":24,"lat":40.675,"lon":14.768,"date_only":"2025-11-18T00:00:00.000"},{"station":"IT1041A","station_name":"Salerno SA23 Scuola Conti \u00b0","pollutant":"PM2,5","date":"2025-11-18T00:00:00.000","value":15.8,"Ore_Disponibili":24,"lat":40.675,"lon":14.768,"date_only":"2025-11-18T00:00:00.000"},{"station":"IT1486A","station_name":"Caserta CE51 Ist. Manzoni","pollutant":"NO2","date":"2025-11-18T00:00:00.000","value":29.7354166667,"Ore_Disponibili":24,"lat":41.0818,"lon":14.3349,"date_only":"2025-11-18T00:00:00.000"},{"station":"IT1486A","station_name":"Caserta CE51 Ist. Manzoni","pollutant":"O3","date":"2025-11-18T00:00:00.000","value":29.4966666667,"Ore_Disponibili":24,"lat":41.0818,"lon":14.3349,"date_only":"2025-11-18T00:00:00.000"},{"station":"IT1486A","station_name":"Caserta CE51 Ist. Manzoni","pollutant":"PM10","date":"2025-11-18T00:00:00.000","value":11.1708333333,"Ore_Disponibili":24,"lat":41.0818,"lon":14.3349,"date_only":"2025-11-18T00:00:00.000"},{"station":"IT1486A","station_name":"Caserta CE51 Ist. Manzoni","pollutant":"PM2,5","date":"2025-11-18T00:00:00.000","value":7.0333333333,"Ore_Disponibili":24,"lat":41.0818,"lon":14.3349,"date_only":"2025-11-18T00:00:00.000"},{"station":"IT1487A","station_name":"Caserta CE52 Sc. De Amicis","pollutant":"CO","date":"2025-11-18T00:00:00.000","value":0.4243478261,"Ore_Disponibili":23,"lat":41.0085302,"lon":14.0787912,"date_only":"2025-11-18T00:00:00.000"},{"station":"IT1487A","station_name":"Caserta CE52 Sc. De Amicis","pollutant":"NO2","date":"2025-11-18T00:00:00.000","value":20.1777272727,"Ore_Disponibili":22,"lat":41.0085302,"lon":14.0787912,"date_only":"2025-11-18T00:00:00.000"},{"station":"IT1487A","station_name":"Caserta CE52 Sc. De Amicis","pollutant":"PM10","date":"2025-11-18T00:00:00.000","value":13.3,"Ore_Disponibili":24,"lat":41.0085302,"lon":14.0787912,"date_only":"2025-11-18T00:00:00.000"},{"station":"IT1487A","station_name":"Caserta CE52 Sc. De Amicis","pollutant":"PM2,5","date":"2025-11-18T00:00:00.000","value":0.4,"Ore_Disponibili":24,"lat":41.0085302,"lon":14.0787912,"date_only":"2025-11-18T00:00:00.000"},{"station":"IT1488A","station_name":"Maddaloni CE54 Sc. Settembrini","pollutant":"NO2","date":"2025-11-18T00:00:00.000","value":19.3715789474,"Ore_Disponibili":19,"lat":41.094,"lon":14.402,"date_only":"2025-11-18T00:00:00.000"},{"station":"IT1488A","station_name":"Maddaloni CE54 Sc. Settembrini","pollutant":"O3","date":"2025-11-18T00:00:00.000","value":30.3634782609,"Ore_Disponibili":23,"lat":41.094,"lon":14.402,"date_only":"2025-11-18T00:00:00.000"},{"station":"IT1488A","station_name":"Maddaloni CE54 Sc. Settembrini","pollutant":"PM10","date":"2025-11-18T00:00:00.000","value":12.2770833333,"Ore_Disponibili":24,"lat":41.094,"lon":14.402,"date_only":"2025-11-18T00:00:00.000"},{"station":"IT1488A","station_name":"Maddaloni CE54 Sc. Settembrini","pollutant":"PM2,5","date":"2025-11-18T00:00:00.000","value":7.5845833333,"Ore_Disponibili":24,"lat":41.094,"lon":14.402,"date_only":"2025-11-18T00:00:00.000"},{"station":"IT1491A","station_name":"Napoli NA07 Ferrovia \u00b0","pollutant":"CO","date":"2025-11-18T00:00:00.000","value":0.6591666667,"Ore_Disponibili":24,"lat":40.8277815,"lon":14.3989433,"date_only":"2025-11-18T00:00:00.000"},{"station":"IT1491A","station_name":"Napoli NA07 Ferrovia \u00b0","pollutant":"NO2","date":"2025-11-18T00:00:00.000","value":40.1025,"Ore_Disponibili":24,"lat":40.8277815,"lon":14.3989433,"date_only":"2025-11-18T00:00:00.000"},{"station":"IT1491A","station_name":"Napoli NA07 Ferrovia \u00b0","pollutant":"PM10","date":"2025-11-18T00:00:00.000","value":15.25,"Ore_Disponibili":20,"lat":40.8277815,"lon":14.3989433,"date_only":"2025-11-18T00:00:00.000"},{"station":"IT1491A","station_name":"Napoli NA07 Ferrovia \u00b0","pollutant":"PM2,5","date":"2025-11-18T00:00:00.000","value":7.9769230769,"Ore_Disponibili":13,"lat":40.8277815,"lon":14.3989433,"date_only":"2025-11-18T00:00:00.000"},{"station":"IT1493A","station_name":"Napoli NA09 Via Argine","pollutant":"CO","date":"2025-11-18T00:00:00.000","value":0.7316666667,"Ore_Disponibili":24,"lat":40.8560636,"lon":14.3234622,"date_only":"2025-11-18T00:00:00.000"},{"station":"IT1493A","station_name":"Napoli NA09 Via Argine","pollutant":"NO2","date":"2025-11-18T00:00:00.000","value":41.9916666667,"Ore_Disponibili":24,"lat":40.8560636,"lon":14.3234622,"date_only":"2025-11-18T00:00:00.000"},{"station":"IT1493A","station_name":"Napoli NA09 Via Argine","pollutant":"PM10","date":"2025-11-18T00:00:00.000","value":22.0166666667,"Ore_Disponibili":18,"lat":40.8560636,"lon":14.3234622,"date_only":"2025-11-18T00:00:00.000"},{"station":"IT1493A","station_name":"Napoli NA09 Via Argine","pollutant":"PM2,5","date":"2025-11-18T00:00:00.000","value":14.4647058824,"Ore_Disponibili":17,"lat":40.8560636,"lon":14.3234622,"date_only":"2025-11-18T00:00:00.000"},{"station":"IT1495A","station_name":"Napoli NA08 Osp. N. Pellegrini","pollutant":"NO2","date":"2025-11-18T00:00:00.000","value":35.31875,"Ore_Disponibili":24,"lat":40.8535,"lon":14.235,"date_only":"2025-11-18T00:00:00.000"},{"station":"IT1495A","station_name":"Napoli NA08 Osp. N. Pellegrini","pollutant":"PM10","date":"2025-11-18T00:00:00.000","value":16.7,"Ore_Disponibili":24,"lat":40.8535,"lon":14.235,"date_only":"2025-11-18T00:00:00.000"},{"station":"IT1496A","station_name":"Napoli NA02 Osp. Santobono \u00b0","pollutant":"NO2","date":"2025-11-18T00:00:00.000","value":43.49125,"Ore_Disponibili":24,"lat":40.8554,"lon":14.2231,"date_only":"2025-11-18T00:00:00.000"},{"station":"IT1496A","station_name":"Napoli NA02 Osp. Santobono \u00b0","pollutant":"PM10","date":"2025-11-18T00:00:00.000","value":9.17125,"Ore_Disponibili":24,"lat":40.8554,"lon":14.2231,"date_only":"2025-11-18T00:00:00.000"},{"station":"IT1496A","station_name":"Napoli NA02 Osp. Santobono \u00b0","pollutant":"PM2,5","date":"2025-11-18T00:00:00.000","value":5.0954166667,"Ore_Disponibili":24,"lat":40.8554,"lon":14.2231,"date_only":"2025-11-18T00:00:00.000"},{"station":"IT1497A","station_name":"Napoli NA01 Oss. Astronomico","pollutant":"CO","date":"2025-11-18T00:00:00.000","value":0.3108333333,"Ore_Disponibili":24,"lat":40.853,"lon":14.305,"date_only":"2025-11-18T00:00:00.000"},{"station":"IT1497A","station_name":"Napoli NA01 Oss. Astronomico","pollutant":"NO2","date":"2025-11-18T00:00:00.000","value":31.5047826087,"Ore_Disponibili":23,"lat":40.853,"lon":14.305,"date_only":"2025-11-18T00:00:00.000"},{"station":"IT1497A","station_name":"Napoli NA01 Oss. Astronomico","pollutant":"PM10","date":"2025-11-18T00:00:00.000","value":9.1079166667,"Ore_Disponibili":24,"lat":40.853,"lon":14.305,"date_only":"2025-11-18T00:00:00.000"},{"station":"IT1497A","station_name":"Napoli NA01 Oss. Astronomico","pollutant":"PM2,5","date":"2025-11-18T00:00:00.000","value":5.4275,"Ore_Disponibili":24,"lat":40.853,"lon":14.305,"date_only":"2025-11-18T00:00:00.000"},{"station":"IT1504A","station_name":"Salerno SA22 Osp. Via Vernieri","pollutant":"CO","date":"2025-11-18T00:00:00.000","value":0.6541666667,"Ore_Disponibili":24,"lat":40.682,"lon":14.766,"date_only":"2025-11-18T00:00:00.000"},{"station":"IT1504A","station_name":"Salerno SA22 Osp. Via Vernieri","pollutant":"NO2","date":"2025-11-18T00:00:00.000","value":30.3525,"Ore_Disponibili":24,"lat":40.682,"lon":14.766,"date_only":"2025-11-18T00:00:00.000"},{"station":"IT1504A","station_name":"Salerno SA22 Osp. Via Vernieri","pollutant":"PM10","date":"2025-11-18T00:00:00.000","value":16.9136363636,"Ore_Disponibili":22,"lat":40.682,"lon":14.766,"date_only":"2025-11-18T00:00:00.000"},{"station":"IT1504A","station_name":"Salerno SA22 Osp. Via Vernieri","pollutant":"PM2,5","date":"2025-11-18T00:00:00.000","value":10.1333333333,"Ore_Disponibili":21,"lat":40.682,"lon":14.766,"date_only":"2025-11-18T00:00:00.000"},{"station":"IT2210A","station_name":"Solofra Zona Industriale","pollutant":"CO","date":"2025-11-18T00:00:00.000","value":0.6969565217,"Ore_Disponibili":23,"lat":41.058,"lon":14.808,"date_only":"2025-11-18T00:00:00.000"},{"station":"IT2210A","station_name":"Solofra Zona Industriale","pollutant":"PM10","date":"2025-11-18T00:00:00.000","value":28.71,"Ore_Disponibili":24,"lat":41.058,"lon":14.808,"date_only":"2025-11-18T00:00:00.000"},{"station":"IT2210A","station_name":"Solofra Zona Industriale","pollutant":"PM2,5","date":"2025-11-18T00:00:00.000","value":21.1175,"Ore_Disponibili":24,"lat":41.058,"lon":14.808,"date_only":"2025-11-18T00:00:00.000"},{"station":"IT2211A","station_name":"Acerra Zona Industriale","pollutant":"CO","date":"2025-11-18T00:00:00.000","value":0.4995652174,"Ore_Disponibili":23,"lat":40.9847962,"lon":14.3679606,"date_only":"2025-11-18T00:00:00.000"},{"station":"IT2211A","station_name":"Acerra Zona Industriale","pollutant":"NO2","date":"2025-11-18T00:00:00.000","value":33.6552631579,"Ore_Disponibili":19,"lat":40.9847962,"lon":14.3679606,"date_only":"2025-11-18T00:00:00.000"},{"station":"IT2211A","station_name":"Acerra Zona Industriale","pollutant":"PM10","date":"2025-11-18T00:00:00.000","value":27.4,"Ore_Disponibili":24,"lat":40.9847962,"lon":14.3679606,"date_only":"2025-11-18T00:00:00.000"},{"station":"IT2211A","station_name":"Acerra Zona Industriale","pollutant":"PM2,5","date":"2025-11-18T00:00:00.000","value":8.6,"Ore_Disponibili":24,"lat":40.9847962,"lon":14.3679606,"date_only":"2025-11-18T00:00:00.000"},{"station":"IT2212A","station_name":"S. Vitaliano Scuola Marconi","pollutant":"NO2","date":"2025-11-18T00:00:00.000","value":55.5643478261,"Ore_Disponibili":23,"lat":40.896,"lon":14.46,"date_only":"2025-11-18T00:00:00.000"},{"station":"IT2212A","station_name":"S. Vitaliano Scuola Marconi","pollutant":"O3","date":"2025-11-18T00:00:00.000","value":15.5982608696,"Ore_Disponibili":23,"lat":40.896,"lon":14.46,"date_only":"2025-11-18T00:00:00.000"},{"station":"IT2212A","station_name":"S. Vitaliano Scuola Marconi","pollutant":"PM10","date":"2025-11-18T00:00:00.000","value":25.1604166667,"Ore_Disponibili":24,"lat":40.896,"lon":14.46,"date_only":"2025-11-18T00:00:00.000"},{"station":"IT2212A","station_name":"S. Vitaliano Scuola Marconi","pollutant":"PM2,5","date":"2025-11-18T00:00:00.000","value":17.8954166667,"Ore_Disponibili":24,"lat":40.896,"lon":14.46,"date_only":"2025-11-18T00:00:00.000"},{"station":"IT2213A","station_name":"Cava dei Tirreni Stadio","pollutant":"CO","date":"2025-11-18T00:00:00.000","value":0.6135714286,"Ore_Disponibili":14,"lat":40.7125,"lon":14.638,"date_only":"2025-11-18T00:00:00.000"},{"station":"IT2213A","station_name":"Cava dei Tirreni Stadio","pollutant":"NO2","date":"2025-11-18T00:00:00.000","value":33.1857142857,"Ore_Disponibili":14,"lat":40.7125,"lon":14.638,"date_only":"2025-11-18T00:00:00.000"},{"station":"IT2213A","station_name":"Cava dei Tirreni Stadio","pollutant":"O3","date":"2025-11-18T00:00:00.000","value":29.5542857143,"Ore_Disponibili":14,"lat":40.7125,"lon":14.638,"date_only":"2025-11-18T00:00:00.000"},{"station":"IT2213A","station_name":"Cava dei Tirreni Stadio","pollutant":"PM10","date":"2025-11-18T00:00:00.000","value":18.143125,"Ore_Disponibili":16,"lat":40.7125,"lon":14.638,"date_only":"2025-11-18T00:00:00.000"},{"station":"IT2213A","station_name":"Cava dei Tirreni Stadio","pollutant":"PM2,5","date":"2025-11-18T00:00:00.000","value":13.13125,"Ore_Disponibili":16,"lat":40.7125,"lon":14.638,"date_only":"2025-11-18T00:00:00.000"},{"station":"IT2214A","station_name":"Nocera Inferiore Sc. Solimena","pollutant":"CO","date":"2025-11-18T00:00:00.000","value":0.37,"Ore_Disponibili":23,"lat":40.7473393,"lon":14.6410145,"date_only":"2025-11-18T00:00:00.000"},{"station":"IT2214A","station_name":"Nocera Inferiore Sc. Solimena","pollutant":"NO2","date":"2025-11-18T00:00:00.000","value":35.0204347826,"Ore_Disponibili":23,"lat":40.7473393,"lon":14.6410145,"date_only":"2025-11-18T00:00:00.000"},{"station":"IT2214A","station_name":"Nocera Inferiore Sc. Solimena","pollutant":"PM10","date":"2025-11-18T00:00:00.000","value":18.9454166667,"Ore_Disponibili":24,"lat":40.7473393,"lon":14.6410145,"date_only":"2025-11-18T00:00:00.000"},{"station":"IT2214A","station_name":"Nocera Inferiore Sc. Solimena","pollutant":"PM2,5","date":"2025-11-18T00:00:00.000","value":13.1466666667,"Ore_Disponibili":24,"lat":40.7473393,"lon":14.6410145,"date_only":"2025-11-18T00:00:00.000"},{"station":"IT2215A","station_name":"Benevento Zona Industriale \u00b0","pollutant":"NO2","date":"2025-11-18T00:00:00.000","value":22.0320833333,"Ore_Disponibili":24,"lat":41.2293368,"lon":14.4782074,"date_only":"2025-11-18T00:00:00.000"},{"station":"IT2215A","station_name":"Benevento Zona Industriale \u00b0","pollutant":"O3","date":"2025-11-18T00:00:00.000","value":18.1747826087,"Ore_Disponibili":23,"lat":41.2293368,"lon":14.4782074,"date_only":"2025-11-18T00:00:00.000"},{"station":"IT2215A","station_name":"Benevento Zona Industriale \u00b0","pollutant":"PM10","date":"2025-11-18T00:00:00.000","value":12.5566666667,"Ore_Disponibili":24,"lat":41.2293368,"lon":14.4782074,"date_only":"2025-11-18T00:00:00.000"},{"station":"IT2215A","station_name":"Benevento Zona Industriale \u00b0","pollutant":"PM2,5","date":"2025-11-18T00:00:00.000","value":8.8295833333,"Ore_Disponibili":24,"lat":41.2293368,"lon":14.4782074,"date_only":"2025-11-18T00:00:00.000"},{"station":"IT2216A","station_name":"Casoria Scuola Palizzi","pollutant":"NO2","date":"2025-11-18T00:00:00.000","value":34.1339130435,"Ore_Disponibili":23,"lat":40.904,"lon":14.289,"date_only":"2025-11-18T00:00:00.000"},{"station":"IT2216A","station_name":"Casoria Scuola Palizzi","pollutant":"O3","date":"2025-11-18T00:00:00.000","value":19.1,"Ore_Disponibili":23,"lat":40.904,"lon":14.289,"date_only":"2025-11-18T00:00:00.000"},{"station":"IT2216A","station_name":"Casoria Scuola Palizzi","pollutant":"PM10","date":"2025-11-18T00:00:00.000","value":24.3566666667,"Ore_Disponibili":24,"lat":40.904,"lon":14.289,"date_only":"2025-11-18T00:00:00.000"},{"station":"IT2216A","station_name":"Casoria Scuola Palizzi","pollutant":"PM2,5","date":"2025-11-18T00:00:00.000","value":16.785,"Ore_Disponibili":24,"lat":40.904,"lon":14.289,"date_only":"2025-11-18T00:00:00.000"},{"station":"IT2217A","station_name":"Torre Annunziata Sc. Pascoli","pollutant":"NO2","date":"2025-11-18T00:00:00.000","value":27.2034782609,"Ore_Disponibili":23,"lat":40.7469754,"lon":14.4608234,"date_only":"2025-11-18T00:00:00.000"},{"station":"IT2217A","station_name":"Torre Annunziata Sc. Pascoli","pollutant":"O3","date":"2025-11-18T00:00:00.000","value":31.7173913043,"Ore_Disponibili":23,"lat":40.7469754,"lon":14.4608234,"date_only":"2025-11-18T00:00:00.000"},{"station":"IT2218A","station_name":"San Felice a Cancello C. Scolast.","pollutant":"CO","date":"2025-11-18T00:00:00.000","value":0.1995833333,"Ore_Disponibili":24,"lat":41.015,"lon":14.287,"date_only":"2025-11-18T00:00:00.000"},{"station":"IT2218A","station_name":"San Felice a Cancello C. Scolast.","pollutant":"NO2","date":"2025-11-18T00:00:00.000","value":16.330952381,"Ore_Disponibili":21,"lat":41.015,"lon":14.287,"date_only":"2025-11-18T00:00:00.000"},{"station":"IT2218A","station_name":"San Felice a Cancello C. Scolast.","pollutant":"O3","date":"2025-11-18T00:00:00.000","value":37.9713043478,"Ore_Disponibili":23,"lat":41.015,"lon":14.287,"date_only":"2025-11-18T00:00:00.000"},{"station":"IT2218A","station_name":"San Felice a Cancello C. Scolast.","pollutant":"PM10","date":"2025-11-18T00:00:00.000","value":14.8033333333,"Ore_Disponibili":24,"lat":41.015,"lon":14.287,"date_only":"2025-11-18T00:00:00.000"},{"station":"IT2218A","station_name":"San Felice a Cancello C. Scolast.","pollutant":"PM2,5","date":"2025-11-18T00:00:00.000","value":8.9545833333,"Ore_Disponibili":24,"lat":41.015,"lon":14.287,"date_only":"2025-11-18T00:00:00.000"},{"station":"IT2219A","station_name":"Acerra Scuola Caporale","pollutant":"CO","date":"2025-11-18T00:00:00.000","value":1.0477272727,"Ore_Disponibili":22,"lat":40.9071,"lon":14.3429,"date_only":"2025-11-18T00:00:00.000"},{"station":"IT2219A","station_name":"Acerra Scuola Caporale","pollutant":"NO2","date":"2025-11-18T00:00:00.000","value":34.3942105263,"Ore_Disponibili":19,"lat":40.9071,"lon":14.3429,"date_only":"2025-11-18T00:00:00.000"},{"station":"IT2219A","station_name":"Acerra Scuola Caporale","pollutant":"PM10","date":"2025-11-18T00:00:00.000","value":20.7395833333,"Ore_Disponibili":24,"lat":40.9071,"lon":14.3429,"date_only":"2025-11-18T00:00:00.000"},{"station":"IT2219A","station_name":"Acerra Scuola Caporale","pollutant":"PM2,5","date":"2025-11-18T00:00:00.000","value":14.8441666667,"Ore_Disponibili":24,"lat":40.9071,"lon":14.3429,"date_only":"2025-11-18T00:00:00.000"},{"station":"IT2221A","station_name":"Napoli via Epomeo *\u00b0","pollutant":"CO","date":"2025-11-18T00:00:00.000","value":0.3241666667,"Ore_Disponibili":24,"lat":40.7205434,"lon":13.8987737,"date_only":"2025-11-18T00:00:00.000"},{"station":"IT2221A","station_name":"Napoli via Epomeo *\u00b0","pollutant":"NO2","date":"2025-11-18T00:00:00.000","value":29.0725,"Ore_Disponibili":24,"lat":40.7205434,"lon":13.8987737,"date_only":"2025-11-18T00:00:00.000"},{"station":"IT2221A","station_name":"Napoli via Epomeo *\u00b0","pollutant":"O3","date":"2025-11-18T00:00:00.000","value":17.845,"Ore_Disponibili":24,"lat":40.7205434,"lon":13.8987737,"date_only":"2025-11-18T00:00:00.000"},{"station":"IT2221A","station_name":"Napoli via Epomeo *\u00b0","pollutant":"PM10","date":"2025-11-18T00:00:00.000","value":11.8954166667,"Ore_Disponibili":24,"lat":40.7205434,"lon":13.8987737,"date_only":"2025-11-18T00:00:00.000"},{"station":"IT2221A","station_name":"Napoli via Epomeo *\u00b0","pollutant":"PM2,5","date":"2025-11-18T00:00:00.000","value":6.6733333333,"Ore_Disponibili":24,"lat":40.7205434,"lon":13.8987737,"date_only":"2025-11-18T00:00:00.000"},{"station":"IT2223A","station_name":"Volla Via Filichito *\u00b0","pollutant":"CO","date":"2025-11-18T00:00:00.000","value":0.26375,"Ore_Disponibili":24,"lat":40.8824226,"lon":14.3478545,"date_only":"2025-11-18T00:00:00.000"},{"station":"IT2223A","station_name":"Volla Via Filichito *\u00b0","pollutant":"NO2","date":"2025-11-18T00:00:00.000","value":39.4527272727,"Ore_Disponibili":22,"lat":40.8824226,"lon":14.3478545,"date_only":"2025-11-18T00:00:00.000"},{"station":"IT2223A","station_name":"Volla Via Filichito *\u00b0","pollutant":"O3","date":"2025-11-18T00:00:00.000","value":5.8816666667,"Ore_Disponibili":24,"lat":40.8824226,"lon":14.3478545,"date_only":"2025-11-18T00:00:00.000"},{"station":"IT2223A","station_name":"Volla Via Filichito *\u00b0","pollutant":"PM10","date":"2025-11-18T00:00:00.000","value":10.14625,"Ore_Disponibili":24,"lat":40.8824226,"lon":14.3478545,"date_only":"2025-11-18T00:00:00.000"},{"station":"IT2223A","station_name":"Volla Via Filichito *\u00b0","pollutant":"PM2,5","date":"2025-11-18T00:00:00.000","value":7.8916666667,"Ore_Disponibili":24,"lat":40.8824226,"lon":14.3478545,"date_only":"2025-11-18T00:00:00.000"},{"station":"IT2226A","station_name":"Pomigliano d'Arco Area Asi","pollutant":"CO","date":"2025-11-18T00:00:00.000","value":0.4,"Ore_Disponibili":23,"lat":40.412,"lon":15.341,"date_only":"2025-11-18T00:00:00.000"},{"station":"IT2226A","station_name":"Pomigliano d'Arco Area Asi","pollutant":"NO2","date":"2025-11-18T00:00:00.000","value":48.1963636364,"Ore_Disponibili":22,"lat":40.412,"lon":15.341,"date_only":"2025-11-18T00:00:00.000"},{"station":"IT2226A","station_name":"Pomigliano d'Arco Area Asi","pollutant":"PM10","date":"2025-11-18T00:00:00.000","value":17.6291666667,"Ore_Disponibili":24,"lat":40.412,"lon":15.341,"date_only":"2025-11-18T00:00:00.000"},{"station":"IT2226A","station_name":"Pomigliano d'Arco Area Asi","pollutant":"PM2,5","date":"2025-11-18T00:00:00.000","value":12.2666666667,"Ore_Disponibili":21,"lat":40.412,"lon":15.341,"date_only":"2025-11-18T00:00:00.000"},{"station":"IT2227A","station_name":"Avellino Scuola Alighieri","pollutant":"CO","date":"2025-11-18T00:00:00.000","value":0.31875,"Ore_Disponibili":24,"lat":40.9190395,"lon":14.784947,"date_only":"2025-11-18T00:00:00.000"},{"station":"IT2227A","station_name":"Avellino Scuola Alighieri","pollutant":"NO2","date":"2025-11-18T00:00:00.000","value":27.0725,"Ore_Disponibili":24,"lat":40.9190395,"lon":14.784947,"date_only":"2025-11-18T00:00:00.000"},{"station":"IT2227A","station_name":"Avellino Scuola Alighieri","pollutant":"PM10","date":"2025-11-18T00:00:00.000","value":7.9183333333,"Ore_Disponibili":24,"lat":40.9190395,"lon":14.784947,"date_only":"2025-11-18T00:00:00.000"},{"station":"IT2227A","station_name":"Avellino Scuola Alighieri","pollutant":"PM2,5","date":"2025-11-18T00:00:00.000","value":5.88125,"Ore_Disponibili":24,"lat":40.9190395,"lon":14.784947,"date_only":"2025-11-18T00:00:00.000"},{"station":"IT2228A","station_name":"Benevento Campo Sportivo","pollutant":"NO2","date":"2025-11-18T00:00:00.000","value":29.1429166667,"Ore_Disponibili":24,"lat":41.2315276,"lon":14.5332703,"date_only":"2025-11-18T00:00:00.000"},{"station":"IT2228A","station_name":"Benevento Campo Sportivo","pollutant":"O3","date":"2025-11-18T00:00:00.000","value":15.8391666667,"Ore_Disponibili":24,"lat":41.2315276,"lon":14.5332703,"date_only":"2025-11-18T00:00:00.000"},{"station":"IT2228A","station_name":"Benevento Campo Sportivo","pollutant":"PM10","date":"2025-11-18T00:00:00.000","value":14.3220833333,"Ore_Disponibili":24,"lat":41.2315276,"lon":14.5332703,"date_only":"2025-11-18T00:00:00.000"},{"station":"IT2228A","station_name":"Benevento Campo Sportivo","pollutant":"PM2,5","date":"2025-11-18T00:00:00.000","value":10.5670833333,"Ore_Disponibili":24,"lat":41.2315276,"lon":14.5332703,"date_only":"2025-11-18T00:00:00.000"},{"station":"IT2268A","station_name":"Battipaglia Parco Fiume","pollutant":"NO2","date":"2025-11-18T00:00:00.000","value":25.9814285714,"Ore_Disponibili":21,"lat":40.6167,"lon":14.9833,"date_only":"2025-11-18T00:00:00.000"},{"station":"IT2268A","station_name":"Battipaglia Parco Fiume","pollutant":"O3","date":"2025-11-18T00:00:00.000","value":27.892173913,"Ore_Disponibili":23,"lat":40.6167,"lon":14.9833,"date_only":"2025-11-18T00:00:00.000"},{"station":"IT2268A","station_name":"Battipaglia Parco Fiume","pollutant":"PM10","date":"2025-11-18T00:00:00.000","value":11.0,"Ore_Disponibili":24,"lat":40.6167,"lon":14.9833,"date_only":"2025-11-18T00:00:00.000"},{"station":"IT2268A","station_name":"Battipaglia Parco Fiume","pollutant":"PM2,5","date":"2025-11-18T00:00:00.000","value":10.4,"Ore_Disponibili":24,"lat":40.6167,"lon":14.9833,"date_only":"2025-11-18T00:00:00.000"},{"station":"IT2270A","station_name":"Portici Parco Reggia","pollutant":"NO2","date":"2025-11-18T00:00:00.000","value":16.1439130435,"Ore_Disponibili":23,"lat":40.813588,"lon":14.3476526,"date_only":"2025-11-18T00:00:00.000"},{"station":"IT2270A","station_name":"Portici Parco Reggia","pollutant":"O3","date":"2025-11-18T00:00:00.000","value":48.0747826087,"Ore_Disponibili":23,"lat":40.813588,"lon":14.3476526,"date_only":"2025-11-18T00:00:00.000"},{"station":"IT2270A","station_name":"Portici Parco Reggia","pollutant":"PM10","date":"2025-11-18T00:00:00.000","value":11.11375,"Ore_Disponibili":24,"lat":40.813588,"lon":14.3476526,"date_only":"2025-11-18T00:00:00.000"},{"station":"IT2270A","station_name":"Portici Parco Reggia","pollutant":"PM2,5","date":"2025-11-18T00:00:00.000","value":6.1225,"Ore_Disponibili":24,"lat":40.813588,"lon":14.3476526,"date_only":"2025-11-18T00:00:00.000"},{"station":"IT2271A","station_name":"Aversa Scuola Cirillo \u00b0","pollutant":"CO","date":"2025-11-18T00:00:00.000","value":0.9747826087,"Ore_Disponibili":23,"lat":40.9758352,"lon":14.2117669,"date_only":"2025-11-18T00:00:00.000"},{"station":"IT2271A","station_name":"Aversa Scuola Cirillo \u00b0","pollutant":"NO2","date":"2025-11-18T00:00:00.000","value":38.9660869565,"Ore_Disponibili":23,"lat":40.9758352,"lon":14.2117669,"date_only":"2025-11-18T00:00:00.000"},{"station":"IT2271A","station_name":"Aversa Scuola Cirillo \u00b0","pollutant":"PM10","date":"2025-11-18T00:00:00.000","value":15.91625,"Ore_Disponibili":24,"lat":40.9758352,"lon":14.2117669,"date_only":"2025-11-18T00:00:00.000"},{"station":"IT2271A","station_name":"Aversa Scuola Cirillo \u00b0","pollutant":"PM2,5","date":"2025-11-18T00:00:00.000","value":11.7825,"Ore_Disponibili":24,"lat":40.9758352,"lon":14.2117669,"date_only":"2025-11-18T00:00:00.000"},{"station":"IT2272A","station_name":"Pozzuoli Zona Villa Avellino","pollutant":"NO2","date":"2025-11-18T00:00:00.000","value":15.2265217391,"Ore_Disponibili":23,"lat":40.834,"lon":14.119,"date_only":"2025-11-18T00:00:00.000"},{"station":"IT2272A","station_name":"Pozzuoli Zona Villa Avellino","pollutant":"O3","date":"2025-11-18T00:00:00.000","value":40.2691666667,"Ore_Disponibili":24,"lat":40.834,"lon":14.119,"date_only":"2025-11-18T00:00:00.000"},{"station":"IT2272A","station_name":"Pozzuoli Zona Villa Avellino","pollutant":"PM10","date":"2025-11-18T00:00:00.000","value":11.6658333333,"Ore_Disponibili":24,"lat":40.834,"lon":14.119,"date_only":"2025-11-18T00:00:00.000"},{"station":"IT2272A","station_name":"Pozzuoli Zona Villa Avellino","pollutant":"PM2,5","date":"2025-11-18T00:00:00.000","value":5.4120833333,"Ore_Disponibili":24,"lat":40.834,"lon":14.119,"date_only":"2025-11-18T00:00:00.000"},{"station":"IT2273A","station_name":"Polla Area Tritovagliatore","pollutant":"CO","date":"2025-11-18T00:00:00.000","value":0.715,"Ore_Disponibili":6,"lat":40.412,"lon":15.341,"date_only":"2025-11-18T00:00:00.000"},{"station":"IT2273A","station_name":"Polla Area Tritovagliatore","pollutant":"NO2","date":"2025-11-18T00:00:00.000","value":32.7328571429,"Ore_Disponibili":21,"lat":40.412,"lon":15.341,"date_only":"2025-11-18T00:00:00.000"},{"station":"IT2273A","station_name":"Polla Area Tritovagliatore","pollutant":"PM10","date":"2025-11-18T00:00:00.000","value":11.6095833333,"Ore_Disponibili":24,"lat":40.412,"lon":15.341,"date_only":"2025-11-18T00:00:00.000"},{"station":"IT2273A","station_name":"Polla Area Tritovagliatore","pollutant":"PM2,5","date":"2025-11-18T00:00:00.000","value":6.9016666667,"Ore_Disponibili":24,"lat":40.412,"lon":15.341,"date_only":"2025-11-18T00:00:00.000"},{"station":"IT2276A","station_name":"Ariano Irpino Stadio","pollutant":"CO","date":"2025-11-18T00:00:00.000","value":0.2141666667,"Ore_Disponibili":24,"lat":41.1555975,"lon":15.0967062,"date_only":"2025-11-18T00:00:00.000"},{"station":"IT2276A","station_name":"Ariano Irpino Stadio","pollutant":"NO2","date":"2025-11-18T00:00:00.000","value":9.4940909091,"Ore_Disponibili":22,"lat":41.1555975,"lon":15.0967062,"date_only":"2025-11-18T00:00:00.000"},{"station":"IT2276A","station_name":"Ariano Irpino Stadio","pollutant":"O3","date":"2025-11-18T00:00:00.000","value":69.5773913043,"Ore_Disponibili":23,"lat":41.1555975,"lon":15.0967062,"date_only":"2025-11-18T00:00:00.000"},{"station":"IT2277A","station_name":"Napoli Parco Virgiliano","pollutant":"CO","date":"2025-11-18T00:00:00.000","value":0.1725,"Ore_Disponibili":24,"lat":40.7984999,"lon":14.1790765,"date_only":"2025-11-18T00:00:00.000"},{"station":"IT2277A","station_name":"Napoli Parco Virgiliano","pollutant":"NO2","date":"2025-11-18T00:00:00.000","value":12.552173913,"Ore_Disponibili":23,"lat":40.7984999,"lon":14.1790765,"date_only":"2025-11-18T00:00:00.000"},{"station":"IT2277A","station_name":"Napoli Parco Virgiliano","pollutant":"O3","date":"2025-11-18T00:00:00.000","value":61.96,"Ore_Disponibili":24,"lat":40.7984999,"lon":14.1790765,"date_only":"2025-11-18T00:00:00.000"},{"station":"IT2277A","station_name":"Napoli Parco Virgiliano","pollutant":"PM10","date":"2025-11-18T00:00:00.000","value":0.1,"Ore_Disponibili":24,"lat":40.7984999,"lon":14.1790765,"date_only":"2025-11-18T00:00:00.000"},{"station":"IT2277A","station_name":"Napoli Parco Virgiliano","pollutant":"PM2,5","date":"2025-11-18T00:00:00.000","value":3.3,"Ore_Disponibili":24,"lat":40.7984999,"lon":14.1790765,"date_only":"2025-11-18T00:00:00.000"},{"station":"IT2283A","station_name":"Ottati Alburni","pollutant":"NO2","date":"2025-11-18T00:00:00.000","value":1.2634782609,"Ore_Disponibili":23,"lat":40.306,"lon":15.277,"date_only":"2025-11-18T00:00:00.000"},{"station":"IT2283A","station_name":"Ottati Alburni","pollutant":"O3","date":"2025-11-18T00:00:00.000","value":66.1695652174,"Ore_Disponibili":23,"lat":40.306,"lon":15.277,"date_only":"2025-11-18T00:00:00.000"},{"station":"IT2283A","station_name":"Ottati Alburni","pollutant":"PM10","date":"2025-11-18T00:00:00.000","value":15.6,"Ore_Disponibili":24,"lat":40.306,"lon":15.277,"date_only":"2025-11-18T00:00:00.000"},{"station":"IT2283A","station_name":"Ottati Alburni","pollutant":"PM2,5","date":"2025-11-18T00:00:00.000","value":2.4,"Ore_Disponibili":24,"lat":40.306,"lon":15.277,"date_only":"2025-11-18T00:00:00.000"}]