[{"station":"IT0898A","station_name":"Napoli NA06 Museo Nazionale","pollutant":"NO2","date":"2025-12-24","value":26.919375,"Ore_Disponibili":24,"lat":40.8536064,"lon":14.25115,"date_only":"2025-12-24T00:00:00.000"},{"station":"IT0898A","station_name":"Napoli NA06 Museo Nazionale","pollutant":"PM10","date":"2025-12-24","value":9.4,"Ore_Disponibili":7,"lat":40.8536064,"lon":14.25115,"date_only":"2025-12-24T00:00:00.000"},{"station":"IT0934A","station_name":"Benevento BN32 Via Mustilli","pollutant":"NO2","date":"2025-12-24","value":25.75425,"Ore_Disponibili":24,"lat":41.1317868,"lon":14.7885516,"date_only":"2025-12-24T00:00:00.000"},{"station":"IT0936A","station_name":"Avellino AV41 Sc. V Circolo \u00b0","pollutant":"NO2","date":"2025-12-24","value":20.06475,"Ore_Disponibili":24,"lat":40.9152,"lon":14.7955,"date_only":"2025-12-24T00:00:00.000"},{"station":"IT0936A","station_name":"Avellino AV41 Sc. V Circolo \u00b0","pollutant":"O3","date":"2025-12-24","value":36.3108333333,"Ore_Disponibili":24,"lat":40.9152,"lon":14.7955,"date_only":"2025-12-24T00:00:00.000"},{"station":"IT0936A","station_name":"Avellino AV41 Sc. V Circolo \u00b0","pollutant":"PM10","date":"2025-12-24","value":19.9095833333,"Ore_Disponibili":24,"lat":40.9152,"lon":14.7955,"date_only":"2025-12-24T00:00:00.000"},{"station":"IT1041A","station_name":"Salerno SA23 Scuola Conti \u00b0","pollutant":"NO2","date":"2025-12-24","value":25.6470416667,"Ore_Disponibili":24,"lat":40.675,"lon":14.768,"date_only":"2025-12-24T00:00:00.000"},{"station":"IT1041A","station_name":"Salerno SA23 Scuola Conti \u00b0","pollutant":"O3","date":"2025-12-24","value":26.8266666667,"Ore_Disponibili":24,"lat":40.675,"lon":14.768,"date_only":"2025-12-24T00:00:00.000"},{"station":"IT1486A","station_name":"Caserta CE51 Ist. Manzoni","pollutant":"NO2","date":"2025-12-24","value":21.2780434783,"Ore_Disponibili":23,"lat":41.0818,"lon":14.3349,"date_only":"2025-12-24T00:00:00.000"},{"station":"IT1486A","station_name":"Caserta CE51 Ist. Manzoni","pollutant":"O3","date":"2025-12-24","value":59.0625,"Ore_Disponibili":24,"lat":41.0818,"lon":14.3349,"date_only":"2025-12-24T00:00:00.000"},{"station":"IT1487A","station_name":"Caserta CE52 Sc. De Amicis","pollutant":"NO2","date":"2025-12-24","value":19.5778636364,"Ore_Disponibili":22,"lat":41.0085302,"lon":14.0787912,"date_only":"2025-12-24T00:00:00.000"},{"station":"IT1487A","station_name":"Caserta CE52 Sc. De Amicis","pollutant":"PM10","date":"2025-12-24","value":17.8,"Ore_Disponibili":24,"lat":41.0085302,"lon":14.0787912,"date_only":"2025-12-24T00:00:00.000"},{"station":"IT1488A","station_name":"Maddaloni CE54 Sc. Settembrini","pollutant":"NO2","date":"2025-12-24","value":14.236,"Ore_Disponibili":22,"lat":41.094,"lon":14.402,"date_only":"2025-12-24T00:00:00.000"},{"station":"IT1488A","station_name":"Maddaloni CE54 Sc. Settembrini","pollutant":"O3","date":"2025-12-24","value":58.4739130435,"Ore_Disponibili":23,"lat":41.094,"lon":14.402,"date_only":"2025-12-24T00:00:00.000"},{"station":"IT1488A","station_name":"Maddaloni CE54 Sc. Settembrini","pollutant":"PM10","date":"2025-12-24","value":12.3875,"Ore_Disponibili":24,"lat":41.094,"lon":14.402,"date_only":"2025-12-24T00:00:00.000"},{"station":"IT1491A","station_name":"Napoli NA07 Ferrovia \u00b0","pollutant":"NO2","date":"2025-12-24","value":37.4136666667,"Ore_Disponibili":24,"lat":40.8277815,"lon":14.3989433,"date_only":"2025-12-24T00:00:00.000"},{"station":"IT1491A","station_name":"Napoli NA07 Ferrovia \u00b0","pollutant":"PM10","date":"2025-12-24","value":11.1111111111,"Ore_Disponibili":9,"lat":40.8277815,"lon":14.3989433,"date_only":"2025-12-24T00:00:00.000"},{"station":"IT1493A","station_name":"Napoli NA09 Via Argine","pollutant":"NO2","date":"2025-12-24","value":29.0023043478,"Ore_Disponibili":23,"lat":40.8560636,"lon":14.3234622,"date_only":"2025-12-24T00:00:00.000"},{"station":"IT1493A","station_name":"Napoli NA09 Via Argine","pollutant":"PM10","date":"2025-12-24","value":7.6777777778,"Ore_Disponibili":9,"lat":40.8560636,"lon":14.3234622,"date_only":"2025-12-24T00:00:00.000"},{"station":"IT1495A","station_name":"Napoli NA08 Osp. N. Pellegrini","pollutant":"NO2","date":"2025-12-24","value":28.5584285714,"Ore_Disponibili":14,"lat":40.8535,"lon":14.235,"date_only":"2025-12-24T00:00:00.000"},{"station":"IT1496A","station_name":"Napoli NA02 Osp. Santobono \u00b0","pollutant":"NO2","date":"2025-12-24","value":40.4209166667,"Ore_Disponibili":24,"lat":40.8554,"lon":14.2231,"date_only":"2025-12-24T00:00:00.000"},{"station":"IT1496A","station_name":"Napoli NA02 Osp. Santobono \u00b0","pollutant":"PM10","date":"2025-12-24","value":9.17625,"Ore_Disponibili":24,"lat":40.8554,"lon":14.2231,"date_only":"2025-12-24T00:00:00.000"},{"station":"IT1497A","station_name":"Napoli NA01 Oss. Astronomico","pollutant":"NO2","date":"2025-12-24","value":13.4015217391,"Ore_Disponibili":23,"lat":40.853,"lon":14.305,"date_only":"2025-12-24T00:00:00.000"},{"station":"IT1497A","station_name":"Napoli NA01 Oss. Astronomico","pollutant":"O3","date":"2025-12-24","value":70.21,"Ore_Disponibili":24,"lat":40.853,"lon":14.305,"date_only":"2025-12-24T00:00:00.000"},{"station":"IT1497A","station_name":"Napoli NA01 Oss. Astronomico","pollutant":"PM10","date":"2025-12-24","value":8.6108333333,"Ore_Disponibili":24,"lat":40.853,"lon":14.305,"date_only":"2025-12-24T00:00:00.000"},{"station":"IT1504A","station_name":"Salerno SA22 Osp. Via Vernieri","pollutant":"NO2","date":"2025-12-24","value":20.7425,"Ore_Disponibili":24,"lat":40.682,"lon":14.766,"date_only":"2025-12-24T00:00:00.000"},{"station":"IT1504A","station_name":"Salerno SA22 Osp. Via Vernieri","pollutant":"PM10","date":"2025-12-24","value":10.0571428571,"Ore_Disponibili":7,"lat":40.682,"lon":14.766,"date_only":"2025-12-24T00:00:00.000"},{"station":"IT2210A","station_name":"Solofra Zona Industriale","pollutant":"NO2","date":"2025-12-24","value":10.2471304348,"Ore_Disponibili":23,"lat":41.058,"lon":14.808,"date_only":"2025-12-24T00:00:00.000"},{"station":"IT2210A","station_name":"Solofra Zona Industriale","pollutant":"PM10","date":"2025-12-24","value":17.6991666667,"Ore_Disponibili":24,"lat":41.058,"lon":14.808,"date_only":"2025-12-24T00:00:00.000"},{"station":"IT2211A","station_name":"Acerra Zona Industriale","pollutant":"NO2","date":"2025-12-24","value":22.9557272727,"Ore_Disponibili":22,"lat":40.9847962,"lon":14.3679606,"date_only":"2025-12-24T00:00:00.000"},{"station":"IT2211A","station_name":"Acerra Zona Industriale","pollutant":"PM10","date":"2025-12-24","value":18.9,"Ore_Disponibili":24,"lat":40.9847962,"lon":14.3679606,"date_only":"2025-12-24T00:00:00.000"},{"station":"IT2212A","station_name":"S. Vitaliano Scuola Marconi","pollutant":"NO2","date":"2025-12-24","value":43.9783913043,"Ore_Disponibili":23,"lat":40.896,"lon":14.46,"date_only":"2025-12-24T00:00:00.000"},{"station":"IT2212A","station_name":"S. Vitaliano Scuola Marconi","pollutant":"O3","date":"2025-12-24","value":53.1713043478,"Ore_Disponibili":23,"lat":40.896,"lon":14.46,"date_only":"2025-12-24T00:00:00.000"},{"station":"IT2212A","station_name":"S. Vitaliano Scuola Marconi","pollutant":"PM10","date":"2025-12-24","value":29.325,"Ore_Disponibili":24,"lat":40.896,"lon":14.46,"date_only":"2025-12-24T00:00:00.000"},{"station":"IT2213A","station_name":"Cava dei Tirreni Stadio","pollutant":"NO2","date":"2025-12-24","value":20.4736956522,"Ore_Disponibili":23,"lat":40.7125,"lon":14.638,"date_only":"2025-12-24T00:00:00.000"},{"station":"IT2213A","station_name":"Cava dei Tirreni Stadio","pollutant":"O3","date":"2025-12-24","value":58.1027272727,"Ore_Disponibili":22,"lat":40.7125,"lon":14.638,"date_only":"2025-12-24T00:00:00.000"},{"station":"IT2213A","station_name":"Cava dei Tirreni Stadio","pollutant":"PM10","date":"2025-12-24","value":15.1604166667,"Ore_Disponibili":24,"lat":40.7125,"lon":14.638,"date_only":"2025-12-24T00:00:00.000"},{"station":"IT2214A","station_name":"Nocera Inferiore Sc. Solimena","pollutant":"NO2","date":"2025-12-24","value":22.0507391304,"Ore_Disponibili":23,"lat":40.7473393,"lon":14.6410145,"date_only":"2025-12-24T00:00:00.000"},{"station":"IT2214A","station_name":"Nocera Inferiore Sc. Solimena","pollutant":"PM10","date":"2025-12-24","value":12.9883333333,"Ore_Disponibili":24,"lat":40.7473393,"lon":14.6410145,"date_only":"2025-12-24T00:00:00.000"},{"station":"IT2215A","station_name":"Benevento Zona Industriale \u00b0","pollutant":"NO2","date":"2025-12-24","value":14.5651111111,"Ore_Disponibili":18,"lat":41.2293368,"lon":14.4782074,"date_only":"2025-12-24T00:00:00.000"},{"station":"IT2215A","station_name":"Benevento Zona Industriale \u00b0","pollutant":"O3","date":"2025-12-24","value":24.252,"Ore_Disponibili":5,"lat":41.2293368,"lon":14.4782074,"date_only":"2025-12-24T00:00:00.000"},{"station":"IT2215A","station_name":"Benevento Zona Industriale \u00b0","pollutant":"PM10","date":"2025-12-24","value":8.1408333333,"Ore_Disponibili":24,"lat":41.2293368,"lon":14.4782074,"date_only":"2025-12-24T00:00:00.000"},{"station":"IT2216A","station_name":"Casoria Scuola Palizzi","pollutant":"NO2","date":"2025-12-24","value":23.907173913,"Ore_Disponibili":23,"lat":40.904,"lon":14.289,"date_only":"2025-12-24T00:00:00.000"},{"station":"IT2216A","station_name":"Casoria Scuola Palizzi","pollutant":"O3","date":"2025-12-24","value":44.1808695652,"Ore_Disponibili":23,"lat":40.904,"lon":14.289,"date_only":"2025-12-24T00:00:00.000"},{"station":"IT2216A","station_name":"Casoria Scuola Palizzi","pollutant":"PM10","date":"2025-12-24","value":28.25625,"Ore_Disponibili":24,"lat":40.904,"lon":14.289,"date_only":"2025-12-24T00:00:00.000"},{"station":"IT2217A","station_name":"Torre Annunziata Sc. Pascoli","pollutant":"NO2","date":"2025-12-24","value":10.479826087,"Ore_Disponibili":23,"lat":40.7469754,"lon":14.4608234,"date_only":"2025-12-24T00:00:00.000"},{"station":"IT2217A","station_name":"Torre Annunziata Sc. Pascoli","pollutant":"O3","date":"2025-12-24","value":62.512173913,"Ore_Disponibili":23,"lat":40.7469754,"lon":14.4608234,"date_only":"2025-12-24T00:00:00.000"},{"station":"IT2218A","station_name":"San Felice a Cancello C. Scolast.","pollutant":"NO2","date":"2025-12-24","value":16.3163846154,"Ore_Disponibili":13,"lat":41.015,"lon":14.287,"date_only":"2025-12-24T00:00:00.000"},{"station":"IT2218A","station_name":"San Felice a Cancello C. Scolast.","pollutant":"O3","date":"2025-12-24","value":59.1626086957,"Ore_Disponibili":23,"lat":41.015,"lon":14.287,"date_only":"2025-12-24T00:00:00.000"},{"station":"IT2218A","station_name":"San Felice a Cancello C. Scolast.","pollutant":"PM10","date":"2025-12-24","value":16.5795833333,"Ore_Disponibili":24,"lat":41.015,"lon":14.287,"date_only":"2025-12-24T00:00:00.000"},{"station":"IT2219A","station_name":"Acerra Scuola Caporale","pollutant":"NO2","date":"2025-12-24","value":24.4466875,"Ore_Disponibili":16,"lat":40.9071,"lon":14.3429,"date_only":"2025-12-24T00:00:00.000"},{"station":"IT2219A","station_name":"Acerra Scuola Caporale","pollutant":"PM10","date":"2025-12-24","value":23.74625,"Ore_Disponibili":24,"lat":40.9071,"lon":14.3429,"date_only":"2025-12-24T00:00:00.000"},{"station":"IT2221A","station_name":"Napoli via Epomeo *\u00b0","pollutant":"NO2","date":"2025-12-24","value":17.6257333333,"Ore_Disponibili":15,"lat":40.7205434,"lon":13.8987737,"date_only":"2025-12-24T00:00:00.000"},{"station":"IT2221A","station_name":"Napoli via Epomeo *\u00b0","pollutant":"O3","date":"2025-12-24","value":36.88875,"Ore_Disponibili":16,"lat":40.7205434,"lon":13.8987737,"date_only":"2025-12-24T00:00:00.000"},{"station":"IT2221A","station_name":"Napoli via Epomeo *\u00b0","pollutant":"PM10","date":"2025-12-24","value":10.68875,"Ore_Disponibili":16,"lat":40.7205434,"lon":13.8987737,"date_only":"2025-12-24T00:00:00.000"},{"station":"IT2223A","station_name":"Volla Via Filichito *\u00b0","pollutant":"NO2","date":"2025-12-24","value":31.7366086957,"Ore_Disponibili":23,"lat":40.8824226,"lon":14.3478545,"date_only":"2025-12-24T00:00:00.000"},{"station":"IT2223A","station_name":"Volla Via Filichito *\u00b0","pollutant":"O3","date":"2025-12-24","value":17.9658333333,"Ore_Disponibili":24,"lat":40.8824226,"lon":14.3478545,"date_only":"2025-12-24T00:00:00.000"},{"station":"IT2223A","station_name":"Volla Via Filichito *\u00b0","pollutant":"PM10","date":"2025-12-24","value":14.3683333333,"Ore_Disponibili":24,"lat":40.8824226,"lon":14.3478545,"date_only":"2025-12-24T00:00:00.000"},{"station":"IT2226A","station_name":"Pomigliano d'Arco Area Asi","pollutant":"NO2","date":"2025-12-24","value":29.0977727273,"Ore_Disponibili":22,"lat":40.412,"lon":15.341,"date_only":"2025-12-24T00:00:00.000"},{"station":"IT2226A","station_name":"Pomigliano d'Arco Area Asi","pollutant":"PM10","date":"2025-12-24","value":12.8285714286,"Ore_Disponibili":7,"lat":40.412,"lon":15.341,"date_only":"2025-12-24T00:00:00.000"},{"station":"IT2227A","station_name":"Avellino Scuola Alighieri","pollutant":"NO2","date":"2025-12-24","value":27.196375,"Ore_Disponibili":24,"lat":40.9190395,"lon":14.784947,"date_only":"2025-12-24T00:00:00.000"},{"station":"IT2227A","station_name":"Avellino Scuola Alighieri","pollutant":"PM10","date":"2025-12-24","value":10.92,"Ore_Disponibili":24,"lat":40.9190395,"lon":14.784947,"date_only":"2025-12-24T00:00:00.000"},{"station":"IT2228A","station_name":"Benevento Campo Sportivo","pollutant":"NO2","date":"2025-12-24","value":20.3110833333,"Ore_Disponibili":24,"lat":41.2315276,"lon":14.5332703,"date_only":"2025-12-24T00:00:00.000"},{"station":"IT2228A","station_name":"Benevento Campo Sportivo","pollutant":"O3","date":"2025-12-24","value":40.5175,"Ore_Disponibili":24,"lat":41.2315276,"lon":14.5332703,"date_only":"2025-12-24T00:00:00.000"},{"station":"IT2228A","station_name":"Benevento Campo Sportivo","pollutant":"PM10","date":"2025-12-24","value":17.95625,"Ore_Disponibili":24,"lat":41.2315276,"lon":14.5332703,"date_only":"2025-12-24T00:00:00.000"},{"station":"IT2268A","station_name":"Battipaglia Parco Fiume","pollutant":"NO2","date":"2025-12-24","value":17.8507826087,"Ore_Disponibili":23,"lat":40.6167,"lon":14.9833,"date_only":"2025-12-24T00:00:00.000"},{"station":"IT2268A","station_name":"Battipaglia Parco Fiume","pollutant":"O3","date":"2025-12-24","value":54.4026086957,"Ore_Disponibili":23,"lat":40.6167,"lon":14.9833,"date_only":"2025-12-24T00:00:00.000"},{"station":"IT2268A","station_name":"Battipaglia Parco Fiume","pollutant":"PM10","date":"2025-12-24","value":1.4,"Ore_Disponibili":24,"lat":40.6167,"lon":14.9833,"date_only":"2025-12-24T00:00:00.000"},{"station":"IT2270A","station_name":"Portici Parco Reggia","pollutant":"NO2","date":"2025-12-24","value":13.6396315789,"Ore_Disponibili":19,"lat":40.813588,"lon":14.3476526,"date_only":"2025-12-24T00:00:00.000"},{"station":"IT2270A","station_name":"Portici Parco Reggia","pollutant":"O3","date":"2025-12-24","value":63.1269565217,"Ore_Disponibili":23,"lat":40.813588,"lon":14.3476526,"date_only":"2025-12-24T00:00:00.000"},{"station":"IT2270A","station_name":"Portici Parco Reggia","pollutant":"PM10","date":"2025-12-24","value":13.8829166667,"Ore_Disponibili":24,"lat":40.813588,"lon":14.3476526,"date_only":"2025-12-24T00:00:00.000"},{"station":"IT2271A","station_name":"Aversa Scuola Cirillo \u00b0","pollutant":"NO2","date":"2025-12-24","value":30.6228695652,"Ore_Disponibili":23,"lat":40.9758352,"lon":14.2117669,"date_only":"2025-12-24T00:00:00.000"},{"station":"IT2271A","station_name":"Aversa Scuola Cirillo \u00b0","pollutant":"PM10","date":"2025-12-24","value":17.5270833333,"Ore_Disponibili":24,"lat":40.9758352,"lon":14.2117669,"date_only":"2025-12-24T00:00:00.000"},{"station":"IT2272A","station_name":"Pozzuoli Zona Villa Avellino","pollutant":"NO2","date":"2025-12-24","value":7.1998695652,"Ore_Disponibili":23,"lat":40.834,"lon":14.119,"date_only":"2025-12-24T00:00:00.000"},{"station":"IT2272A","station_name":"Pozzuoli Zona Villa Avellino","pollutant":"O3","date":"2025-12-24","value":62.7916666667,"Ore_Disponibili":24,"lat":40.834,"lon":14.119,"date_only":"2025-12-24T00:00:00.000"},{"station":"IT2272A","station_name":"Pozzuoli Zona Villa Avellino","pollutant":"PM10","date":"2025-12-24","value":34.05,"Ore_Disponibili":24,"lat":40.834,"lon":14.119,"date_only":"2025-12-24T00:00:00.000"},{"station":"IT2273A","station_name":"Polla Area Tritovagliatore","pollutant":"NO2","date":"2025-12-24","value":18.1577391304,"Ore_Disponibili":23,"lat":40.412,"lon":15.341,"date_only":"2025-12-24T00:00:00.000"},{"station":"IT2273A","station_name":"Polla Area Tritovagliatore","pollutant":"PM10","date":"2025-12-24","value":4.7133333333,"Ore_Disponibili":24,"lat":40.412,"lon":15.341,"date_only":"2025-12-24T00:00:00.000"},{"station":"IT2276A","station_name":"Ariano Irpino Stadio","pollutant":"NO2","date":"2025-12-24","value":2.5378333333,"Ore_Disponibili":6,"lat":41.1555975,"lon":15.0967062,"date_only":"2025-12-24T00:00:00.000"},{"station":"IT2276A","station_name":"Ariano Irpino Stadio","pollutant":"O3","date":"2025-12-24","value":86.5660869565,"Ore_Disponibili":23,"lat":41.1555975,"lon":15.0967062,"date_only":"2025-12-24T00:00:00.000"},{"station":"IT2277A","station_name":"Napoli Parco Virgiliano","pollutant":"NO2","date":"2025-12-24","value":4.3754782609,"Ore_Disponibili":23,"lat":40.7984999,"lon":14.1790765,"date_only":"2025-12-24T00:00:00.000"},{"station":"IT2277A","station_name":"Napoli Parco Virgiliano","pollutant":"O3","date":"2025-12-24","value":77.0708333333,"Ore_Disponibili":24,"lat":40.7984999,"lon":14.1790765,"date_only":"2025-12-24T00:00:00.000"},{"station":"IT2277A","station_name":"Napoli Parco Virgiliano","pollutant":"PM10","date":"2025-12-24","value":8.3,"Ore_Disponibili":24,"lat":40.7984999,"lon":14.1790765,"date_only":"2025-12-24T00:00:00.000"},{"station":"IT2283A","station_name":"Ottati Alburni","pollutant":"NO2","date":"2025-12-24","value":1.2487391304,"Ore_Disponibili":23,"lat":40.306,"lon":15.277,"date_only":"2025-12-24T00:00:00.000"},{"station":"IT2283A","station_name":"Ottati Alburni","pollutant":"O3","date":"2025-12-24","value":74.4904347826,"Ore_Disponibili":23,"lat":40.306,"lon":15.277,"date_only":"2025-12-24T00:00:00.000"},{"station":"IT2283A","station_name":"Ottati Alburni","pollutant":"PM10","date":"2025-12-24","value":9.6,"Ore_Disponibili":24,"lat":40.306,"lon":15.277,"date_only":"2025-12-24T00:00:00.000"}]