[{"station":"IT0898A","station_name":"Napoli NA06 Museo Nazionale","pollutant":"NO2","date":"2025-11-05T00:00:00.000","value":45.1904166667,"Ore_Disponibili":24,"lat":40.8536064,"lon":14.25115,"date_only":"2025-11-05T00:00:00.000"},{"station":"IT0898A","station_name":"Napoli NA06 Museo Nazionale","pollutant":"PM10","date":"2025-11-05T00:00:00.000","value":21.0916666667,"Ore_Disponibili":24,"lat":40.8536064,"lon":14.25115,"date_only":"2025-11-05T00:00:00.000"},{"station":"IT0898A","station_name":"Napoli NA06 Museo Nazionale","pollutant":"PM2,5","date":"2025-11-05T00:00:00.000","value":15.3166666667,"Ore_Disponibili":24,"lat":40.8536064,"lon":14.25115,"date_only":"2025-11-05T00:00:00.000"},{"station":"IT0934A","station_name":"Benevento BN32 Via Mustilli","pollutant":"NO2","date":"2025-11-05T00:00:00.000","value":23.6358333333,"Ore_Disponibili":24,"lat":41.1317868,"lon":14.7885516,"date_only":"2025-11-05T00:00:00.000"},{"station":"IT0934A","station_name":"Benevento BN32 Via Mustilli","pollutant":"PM10","date":"2025-11-05T00:00:00.000","value":37.2818181818,"Ore_Disponibili":22,"lat":41.1317868,"lon":14.7885516,"date_only":"2025-11-05T00:00:00.000"},{"station":"IT0934A","station_name":"Benevento BN32 Via Mustilli","pollutant":"PM2,5","date":"2025-11-05T00:00:00.000","value":26.1217391304,"Ore_Disponibili":23,"lat":41.1317868,"lon":14.7885516,"date_only":"2025-11-05T00:00:00.000"},{"station":"IT0936A","station_name":"Avellino AV41 Sc. V Circolo \u00b0","pollutant":"NO2","date":"2025-11-05T00:00:00.000","value":21.16625,"Ore_Disponibili":24,"lat":40.9152,"lon":14.7955,"date_only":"2025-11-05T00:00:00.000"},{"station":"IT0936A","station_name":"Avellino AV41 Sc. V Circolo \u00b0","pollutant":"O3","date":"2025-11-05T00:00:00.000","value":51.3008333333,"Ore_Disponibili":24,"lat":40.9152,"lon":14.7955,"date_only":"2025-11-05T00:00:00.000"},{"station":"IT0936A","station_name":"Avellino AV41 Sc. V Circolo \u00b0","pollutant":"PM10","date":"2025-11-05T00:00:00.000","value":16.0666666667,"Ore_Disponibili":24,"lat":40.9152,"lon":14.7955,"date_only":"2025-11-05T00:00:00.000"},{"station":"IT0936A","station_name":"Avellino AV41 Sc. V Circolo \u00b0","pollutant":"PM2,5","date":"2025-11-05T00:00:00.000","value":12.5675,"Ore_Disponibili":24,"lat":40.9152,"lon":14.7955,"date_only":"2025-11-05T00:00:00.000"},{"station":"IT1041A","station_name":"Salerno SA23 Scuola Conti \u00b0","pollutant":"NO2","date":"2025-11-05T00:00:00.000","value":28.0004166667,"Ore_Disponibili":24,"lat":40.675,"lon":14.768,"date_only":"2025-11-05T00:00:00.000"},{"station":"IT1041A","station_name":"Salerno SA23 Scuola Conti \u00b0","pollutant":"O3","date":"2025-11-05T00:00:00.000","value":49.6042105263,"Ore_Disponibili":19,"lat":40.675,"lon":14.768,"date_only":"2025-11-05T00:00:00.000"},{"station":"IT1041A","station_name":"Salerno SA23 Scuola Conti \u00b0","pollutant":"PM2,5","date":"2025-11-05T00:00:00.000","value":12.1,"Ore_Disponibili":24,"lat":40.675,"lon":14.768,"date_only":"2025-11-05T00:00:00.000"},{"station":"IT1486A","station_name":"Caserta CE51 Ist. Manzoni","pollutant":"NO2","date":"2025-11-05T00:00:00.000","value":22.0454166667,"Ore_Disponibili":24,"lat":41.0818,"lon":14.3349,"date_only":"2025-11-05T00:00:00.000"},{"station":"IT1486A","station_name":"Caserta CE51 Ist. Manzoni","pollutant":"O3","date":"2025-11-05T00:00:00.000","value":56.6533333333,"Ore_Disponibili":24,"lat":41.0818,"lon":14.3349,"date_only":"2025-11-05T00:00:00.000"},{"station":"IT1486A","station_name":"Caserta CE51 Ist. Manzoni","pollutant":"PM10","date":"2025-11-05T00:00:00.000","value":10.4909090909,"Ore_Disponibili":22,"lat":41.0818,"lon":14.3349,"date_only":"2025-11-05T00:00:00.000"},{"station":"IT1486A","station_name":"Caserta CE51 Ist. Manzoni","pollutant":"PM2,5","date":"2025-11-05T00:00:00.000","value":5.3272727273,"Ore_Disponibili":22,"lat":41.0818,"lon":14.3349,"date_only":"2025-11-05T00:00:00.000"},{"station":"IT1487A","station_name":"Caserta CE52 Sc. De Amicis","pollutant":"NO2","date":"2025-11-05T00:00:00.000","value":16.9117391304,"Ore_Disponibili":23,"lat":41.0085302,"lon":14.0787912,"date_only":"2025-11-05T00:00:00.000"},{"station":"IT1487A","station_name":"Caserta CE52 Sc. De Amicis","pollutant":"PM10","date":"2025-11-05T00:00:00.000","value":18.2,"Ore_Disponibili":24,"lat":41.0085302,"lon":14.0787912,"date_only":"2025-11-05T00:00:00.000"},{"station":"IT1487A","station_name":"Caserta CE52 Sc. De Amicis","pollutant":"PM2,5","date":"2025-11-05T00:00:00.000","value":6.4,"Ore_Disponibili":24,"lat":41.0085302,"lon":14.0787912,"date_only":"2025-11-05T00:00:00.000"},{"station":"IT1488A","station_name":"Maddaloni CE54 Sc. Settembrini","pollutant":"NO2","date":"2025-11-05T00:00:00.000","value":26.1239130435,"Ore_Disponibili":23,"lat":41.094,"lon":14.402,"date_only":"2025-11-05T00:00:00.000"},{"station":"IT1488A","station_name":"Maddaloni CE54 Sc. Settembrini","pollutant":"O3","date":"2025-11-05T00:00:00.000","value":39.6834782609,"Ore_Disponibili":23,"lat":41.094,"lon":14.402,"date_only":"2025-11-05T00:00:00.000"},{"station":"IT1488A","station_name":"Maddaloni CE54 Sc. Settembrini","pollutant":"PM10","date":"2025-11-05T00:00:00.000","value":21.0620833333,"Ore_Disponibili":24,"lat":41.094,"lon":14.402,"date_only":"2025-11-05T00:00:00.000"},{"station":"IT1488A","station_name":"Maddaloni CE54 Sc. Settembrini","pollutant":"PM2,5","date":"2025-11-05T00:00:00.000","value":7.85625,"Ore_Disponibili":24,"lat":41.094,"lon":14.402,"date_only":"2025-11-05T00:00:00.000"},{"station":"IT1491A","station_name":"Napoli NA07 Ferrovia \u00b0","pollutant":"NO2","date":"2025-11-05T00:00:00.000","value":43.4470833333,"Ore_Disponibili":24,"lat":40.8277815,"lon":14.3989433,"date_only":"2025-11-05T00:00:00.000"},{"station":"IT1491A","station_name":"Napoli NA07 Ferrovia \u00b0","pollutant":"PM10","date":"2025-11-05T00:00:00.000","value":18.9125,"Ore_Disponibili":24,"lat":40.8277815,"lon":14.3989433,"date_only":"2025-11-05T00:00:00.000"},{"station":"IT1491A","station_name":"Napoli NA07 Ferrovia \u00b0","pollutant":"PM2,5","date":"2025-11-05T00:00:00.000","value":12.0045454545,"Ore_Disponibili":22,"lat":40.8277815,"lon":14.3989433,"date_only":"2025-11-05T00:00:00.000"},{"station":"IT1493A","station_name":"Napoli NA09 Via Argine","pollutant":"NO2","date":"2025-11-05T00:00:00.000","value":51.65,"Ore_Disponibili":24,"lat":40.8560636,"lon":14.3234622,"date_only":"2025-11-05T00:00:00.000"},{"station":"IT1493A","station_name":"Napoli NA09 Via Argine","pollutant":"PM10","date":"2025-11-05T00:00:00.000","value":27.95,"Ore_Disponibili":24,"lat":40.8560636,"lon":14.3234622,"date_only":"2025-11-05T00:00:00.000"},{"station":"IT1493A","station_name":"Napoli NA09 Via Argine","pollutant":"PM2,5","date":"2025-11-05T00:00:00.000","value":17.6416666667,"Ore_Disponibili":24,"lat":40.8560636,"lon":14.3234622,"date_only":"2025-11-05T00:00:00.000"},{"station":"IT1495A","station_name":"Napoli NA08 Osp. N. Pellegrini","pollutant":"NO2","date":"2025-11-05T00:00:00.000","value":33.9966666667,"Ore_Disponibili":24,"lat":40.8535,"lon":14.235,"date_only":"2025-11-05T00:00:00.000"},{"station":"IT1495A","station_name":"Napoli NA08 Osp. N. Pellegrini","pollutant":"PM10","date":"2025-11-05T00:00:00.000","value":33.1,"Ore_Disponibili":24,"lat":40.8535,"lon":14.235,"date_only":"2025-11-05T00:00:00.000"},{"station":"IT1496A","station_name":"Napoli NA02 Osp. Santobono \u00b0","pollutant":"NO2","date":"2025-11-05T00:00:00.000","value":51.0783333333,"Ore_Disponibili":24,"lat":40.8554,"lon":14.2231,"date_only":"2025-11-05T00:00:00.000"},{"station":"IT1496A","station_name":"Napoli NA02 Osp. Santobono \u00b0","pollutant":"PM10","date":"2025-11-05T00:00:00.000","value":12.27125,"Ore_Disponibili":24,"lat":40.8554,"lon":14.2231,"date_only":"2025-11-05T00:00:00.000"},{"station":"IT1496A","station_name":"Napoli NA02 Osp. Santobono \u00b0","pollutant":"PM2,5","date":"2025-11-05T00:00:00.000","value":5.3295833333,"Ore_Disponibili":24,"lat":40.8554,"lon":14.2231,"date_only":"2025-11-05T00:00:00.000"},{"station":"IT1497A","station_name":"Napoli NA01 Oss. Astronomico","pollutant":"NO2","date":"2025-11-05T00:00:00.000","value":18.0375,"Ore_Disponibili":24,"lat":40.853,"lon":14.305,"date_only":"2025-11-05T00:00:00.000"},{"station":"IT1497A","station_name":"Napoli NA01 Oss. Astronomico","pollutant":"O3","date":"2025-11-05T00:00:00.000","value":66.2313043478,"Ore_Disponibili":23,"lat":40.853,"lon":14.305,"date_only":"2025-11-05T00:00:00.000"},{"station":"IT1497A","station_name":"Napoli NA01 Oss. Astronomico","pollutant":"PM10","date":"2025-11-05T00:00:00.000","value":9.3416666667,"Ore_Disponibili":24,"lat":40.853,"lon":14.305,"date_only":"2025-11-05T00:00:00.000"},{"station":"IT1497A","station_name":"Napoli NA01 Oss. Astronomico","pollutant":"PM2,5","date":"2025-11-05T00:00:00.000","value":4.0308333333,"Ore_Disponibili":24,"lat":40.853,"lon":14.305,"date_only":"2025-11-05T00:00:00.000"},{"station":"IT1504A","station_name":"Salerno SA22 Osp. Via Vernieri","pollutant":"NO2","date":"2025-11-05T00:00:00.000","value":30.165,"Ore_Disponibili":24,"lat":40.682,"lon":14.766,"date_only":"2025-11-05T00:00:00.000"},{"station":"IT1504A","station_name":"Salerno SA22 Osp. Via Vernieri","pollutant":"PM10","date":"2025-11-05T00:00:00.000","value":20.08,"Ore_Disponibili":15,"lat":40.682,"lon":14.766,"date_only":"2025-11-05T00:00:00.000"},{"station":"IT1504A","station_name":"Salerno SA22 Osp. Via Vernieri","pollutant":"PM2,5","date":"2025-11-05T00:00:00.000","value":13.9307692308,"Ore_Disponibili":13,"lat":40.682,"lon":14.766,"date_only":"2025-11-05T00:00:00.000"},{"station":"IT2210A","station_name":"Solofra Zona Industriale","pollutant":"NO2","date":"2025-11-05T00:00:00.000","value":7.055,"Ore_Disponibili":22,"lat":41.058,"lon":14.808,"date_only":"2025-11-05T00:00:00.000"},{"station":"IT2210A","station_name":"Solofra Zona Industriale","pollutant":"PM10","date":"2025-11-05T00:00:00.000","value":15.70125,"Ore_Disponibili":24,"lat":41.058,"lon":14.808,"date_only":"2025-11-05T00:00:00.000"},{"station":"IT2210A","station_name":"Solofra Zona Industriale","pollutant":"PM2,5","date":"2025-11-05T00:00:00.000","value":11.8070833333,"Ore_Disponibili":24,"lat":41.058,"lon":14.808,"date_only":"2025-11-05T00:00:00.000"},{"station":"IT2211A","station_name":"Acerra Zona Industriale","pollutant":"NO2","date":"2025-11-05T00:00:00.000","value":46.2186956522,"Ore_Disponibili":23,"lat":40.9847962,"lon":14.3679606,"date_only":"2025-11-05T00:00:00.000"},{"station":"IT2211A","station_name":"Acerra Zona Industriale","pollutant":"PM10","date":"2025-11-05T00:00:00.000","value":24.0,"Ore_Disponibili":24,"lat":40.9847962,"lon":14.3679606,"date_only":"2025-11-05T00:00:00.000"},{"station":"IT2211A","station_name":"Acerra Zona Industriale","pollutant":"PM2,5","date":"2025-11-05T00:00:00.000","value":10.4,"Ore_Disponibili":24,"lat":40.9847962,"lon":14.3679606,"date_only":"2025-11-05T00:00:00.000"},{"station":"IT2212A","station_name":"S. Vitaliano Scuola Marconi","pollutant":"NO2","date":"2025-11-05T00:00:00.000","value":53.6417391304,"Ore_Disponibili":23,"lat":40.896,"lon":14.46,"date_only":"2025-11-05T00:00:00.000"},{"station":"IT2212A","station_name":"S. Vitaliano Scuola Marconi","pollutant":"O3","date":"2025-11-05T00:00:00.000","value":31.3243478261,"Ore_Disponibili":23,"lat":40.896,"lon":14.46,"date_only":"2025-11-05T00:00:00.000"},{"station":"IT2212A","station_name":"S. Vitaliano Scuola Marconi","pollutant":"PM10","date":"2025-11-05T00:00:00.000","value":30.8620833333,"Ore_Disponibili":24,"lat":40.896,"lon":14.46,"date_only":"2025-11-05T00:00:00.000"},{"station":"IT2212A","station_name":"S. Vitaliano Scuola Marconi","pollutant":"PM2,5","date":"2025-11-05T00:00:00.000","value":18.9833333333,"Ore_Disponibili":24,"lat":40.896,"lon":14.46,"date_only":"2025-11-05T00:00:00.000"},{"station":"IT2213A","station_name":"Cava dei Tirreni Stadio","pollutant":"NO2","date":"2025-11-05T00:00:00.000","value":26.5547826087,"Ore_Disponibili":23,"lat":40.7125,"lon":14.638,"date_only":"2025-11-05T00:00:00.000"},{"station":"IT2213A","station_name":"Cava dei Tirreni Stadio","pollutant":"O3","date":"2025-11-05T00:00:00.000","value":51.0591304348,"Ore_Disponibili":23,"lat":40.7125,"lon":14.638,"date_only":"2025-11-05T00:00:00.000"},{"station":"IT2213A","station_name":"Cava dei Tirreni Stadio","pollutant":"PM10","date":"2025-11-05T00:00:00.000","value":12.47875,"Ore_Disponibili":24,"lat":40.7125,"lon":14.638,"date_only":"2025-11-05T00:00:00.000"},{"station":"IT2213A","station_name":"Cava dei Tirreni Stadio","pollutant":"PM2,5","date":"2025-11-05T00:00:00.000","value":7.9041666667,"Ore_Disponibili":24,"lat":40.7125,"lon":14.638,"date_only":"2025-11-05T00:00:00.000"},{"station":"IT2214A","station_name":"Nocera Inferiore Sc. Solimena","pollutant":"NO2","date":"2025-11-05T00:00:00.000","value":29.0104347826,"Ore_Disponibili":23,"lat":40.7473393,"lon":14.6410145,"date_only":"2025-11-05T00:00:00.000"},{"station":"IT2214A","station_name":"Nocera Inferiore Sc. Solimena","pollutant":"PM10","date":"2025-11-05T00:00:00.000","value":14.0358333333,"Ore_Disponibili":24,"lat":40.7473393,"lon":14.6410145,"date_only":"2025-11-05T00:00:00.000"},{"station":"IT2214A","station_name":"Nocera Inferiore Sc. Solimena","pollutant":"PM2,5","date":"2025-11-05T00:00:00.000","value":8.1516666667,"Ore_Disponibili":24,"lat":40.7473393,"lon":14.6410145,"date_only":"2025-11-05T00:00:00.000"},{"station":"IT2215A","station_name":"Benevento Zona Industriale \u00b0","pollutant":"NO2","date":"2025-11-05T00:00:00.000","value":12.6054166667,"Ore_Disponibili":24,"lat":41.2293368,"lon":14.4782074,"date_only":"2025-11-05T00:00:00.000"},{"station":"IT2215A","station_name":"Benevento Zona Industriale \u00b0","pollutant":"O3","date":"2025-11-05T00:00:00.000","value":31.1716666667,"Ore_Disponibili":24,"lat":41.2293368,"lon":14.4782074,"date_only":"2025-11-05T00:00:00.000"},{"station":"IT2215A","station_name":"Benevento Zona Industriale \u00b0","pollutant":"PM10","date":"2025-11-05T00:00:00.000","value":13.1045833333,"Ore_Disponibili":24,"lat":41.2293368,"lon":14.4782074,"date_only":"2025-11-05T00:00:00.000"},{"station":"IT2215A","station_name":"Benevento Zona Industriale \u00b0","pollutant":"PM2,5","date":"2025-11-05T00:00:00.000","value":6.5970833333,"Ore_Disponibili":24,"lat":41.2293368,"lon":14.4782074,"date_only":"2025-11-05T00:00:00.000"},{"station":"IT2216A","station_name":"Casoria Scuola Palizzi","pollutant":"NO2","date":"2025-11-05T00:00:00.000","value":37.9061904762,"Ore_Disponibili":21,"lat":40.904,"lon":14.289,"date_only":"2025-11-05T00:00:00.000"},{"station":"IT2216A","station_name":"Casoria Scuola Palizzi","pollutant":"O3","date":"2025-11-05T00:00:00.000","value":39.0365217391,"Ore_Disponibili":23,"lat":40.904,"lon":14.289,"date_only":"2025-11-05T00:00:00.000"},{"station":"IT2216A","station_name":"Casoria Scuola Palizzi","pollutant":"PM10","date":"2025-11-05T00:00:00.000","value":32.3504166667,"Ore_Disponibili":24,"lat":40.904,"lon":14.289,"date_only":"2025-11-05T00:00:00.000"},{"station":"IT2216A","station_name":"Casoria Scuola Palizzi","pollutant":"PM2,5","date":"2025-11-05T00:00:00.000","value":13.0245833333,"Ore_Disponibili":24,"lat":40.904,"lon":14.289,"date_only":"2025-11-05T00:00:00.000"},{"station":"IT2217A","station_name":"Torre Annunziata Sc. Pascoli","pollutant":"NO2","date":"2025-11-05T00:00:00.000","value":35.4577272727,"Ore_Disponibili":22,"lat":40.7469754,"lon":14.4608234,"date_only":"2025-11-05T00:00:00.000"},{"station":"IT2217A","station_name":"Torre Annunziata Sc. Pascoli","pollutant":"O3","date":"2025-11-05T00:00:00.000","value":40.9365217391,"Ore_Disponibili":23,"lat":40.7469754,"lon":14.4608234,"date_only":"2025-11-05T00:00:00.000"},{"station":"IT2218A","station_name":"San Felice a Cancello C. Scolast.","pollutant":"NO2","date":"2025-11-05T00:00:00.000","value":16.2595652174,"Ore_Disponibili":23,"lat":41.015,"lon":14.287,"date_only":"2025-11-05T00:00:00.000"},{"station":"IT2218A","station_name":"San Felice a Cancello C. Scolast.","pollutant":"O3","date":"2025-11-05T00:00:00.000","value":51.3573913043,"Ore_Disponibili":23,"lat":41.015,"lon":14.287,"date_only":"2025-11-05T00:00:00.000"},{"station":"IT2218A","station_name":"San Felice a Cancello C. Scolast.","pollutant":"PM10","date":"2025-11-05T00:00:00.000","value":18.4816666667,"Ore_Disponibili":24,"lat":41.015,"lon":14.287,"date_only":"2025-11-05T00:00:00.000"},{"station":"IT2218A","station_name":"San Felice a Cancello C. Scolast.","pollutant":"PM2,5","date":"2025-11-05T00:00:00.000","value":8.3845833333,"Ore_Disponibili":24,"lat":41.015,"lon":14.287,"date_only":"2025-11-05T00:00:00.000"},{"station":"IT2219A","station_name":"Acerra Scuola Caporale","pollutant":"NO2","date":"2025-11-05T00:00:00.000","value":35.519,"Ore_Disponibili":20,"lat":40.9071,"lon":14.3429,"date_only":"2025-11-05T00:00:00.000"},{"station":"IT2219A","station_name":"Acerra Scuola Caporale","pollutant":"PM10","date":"2025-11-05T00:00:00.000","value":26.6408333333,"Ore_Disponibili":24,"lat":40.9071,"lon":14.3429,"date_only":"2025-11-05T00:00:00.000"},{"station":"IT2219A","station_name":"Acerra Scuola Caporale","pollutant":"PM2,5","date":"2025-11-05T00:00:00.000","value":12.1695833333,"Ore_Disponibili":24,"lat":40.9071,"lon":14.3429,"date_only":"2025-11-05T00:00:00.000"},{"station":"IT2221A","station_name":"Napoli via Epomeo *\u00b0","pollutant":"NO2","date":"2025-11-05T00:00:00.000","value":27.4922727273,"Ore_Disponibili":22,"lat":40.7205434,"lon":13.8987737,"date_only":"2025-11-05T00:00:00.000"},{"station":"IT2221A","station_name":"Napoli via Epomeo *\u00b0","pollutant":"O3","date":"2025-11-05T00:00:00.000","value":38.3086956522,"Ore_Disponibili":23,"lat":40.7205434,"lon":13.8987737,"date_only":"2025-11-05T00:00:00.000"},{"station":"IT2221A","station_name":"Napoli via Epomeo *\u00b0","pollutant":"PM10","date":"2025-11-05T00:00:00.000","value":14.9969565217,"Ore_Disponibili":23,"lat":40.7205434,"lon":13.8987737,"date_only":"2025-11-05T00:00:00.000"},{"station":"IT2221A","station_name":"Napoli via Epomeo *\u00b0","pollutant":"PM2,5","date":"2025-11-05T00:00:00.000","value":6.5352173913,"Ore_Disponibili":23,"lat":40.7205434,"lon":13.8987737,"date_only":"2025-11-05T00:00:00.000"},{"station":"IT2223A","station_name":"Volla Via Filichito *\u00b0","pollutant":"NO2","date":"2025-11-05T00:00:00.000","value":43.855,"Ore_Disponibili":24,"lat":40.8824226,"lon":14.3478545,"date_only":"2025-11-05T00:00:00.000"},{"station":"IT2223A","station_name":"Volla Via Filichito *\u00b0","pollutant":"O3","date":"2025-11-05T00:00:00.000","value":20.5966666667,"Ore_Disponibili":24,"lat":40.8824226,"lon":14.3478545,"date_only":"2025-11-05T00:00:00.000"},{"station":"IT2223A","station_name":"Volla Via Filichito *\u00b0","pollutant":"PM10","date":"2025-11-05T00:00:00.000","value":17.9866666667,"Ore_Disponibili":24,"lat":40.8824226,"lon":14.3478545,"date_only":"2025-11-05T00:00:00.000"},{"station":"IT2223A","station_name":"Volla Via Filichito *\u00b0","pollutant":"PM2,5","date":"2025-11-05T00:00:00.000","value":8.4366666667,"Ore_Disponibili":24,"lat":40.8824226,"lon":14.3478545,"date_only":"2025-11-05T00:00:00.000"},{"station":"IT2226A","station_name":"Pomigliano d'Arco Area Asi","pollutant":"NO2","date":"2025-11-05T00:00:00.000","value":48.3830434783,"Ore_Disponibili":23,"lat":40.412,"lon":15.341,"date_only":"2025-11-05T00:00:00.000"},{"station":"IT2226A","station_name":"Pomigliano d'Arco Area Asi","pollutant":"PM10","date":"2025-11-05T00:00:00.000","value":22.9291666667,"Ore_Disponibili":24,"lat":40.412,"lon":15.341,"date_only":"2025-11-05T00:00:00.000"},{"station":"IT2226A","station_name":"Pomigliano d'Arco Area Asi","pollutant":"PM2,5","date":"2025-11-05T00:00:00.000","value":13.9952380952,"Ore_Disponibili":21,"lat":40.412,"lon":15.341,"date_only":"2025-11-05T00:00:00.000"},{"station":"IT2227A","station_name":"Avellino Scuola Alighieri","pollutant":"NO2","date":"2025-11-05T00:00:00.000","value":29.0520833333,"Ore_Disponibili":24,"lat":40.9190395,"lon":14.784947,"date_only":"2025-11-05T00:00:00.000"},{"station":"IT2227A","station_name":"Avellino Scuola Alighieri","pollutant":"PM10","date":"2025-11-05T00:00:00.000","value":10.6070833333,"Ore_Disponibili":24,"lat":40.9190395,"lon":14.784947,"date_only":"2025-11-05T00:00:00.000"},{"station":"IT2227A","station_name":"Avellino Scuola Alighieri","pollutant":"PM2,5","date":"2025-11-05T00:00:00.000","value":7.81875,"Ore_Disponibili":24,"lat":40.9190395,"lon":14.784947,"date_only":"2025-11-05T00:00:00.000"},{"station":"IT2228A","station_name":"Benevento Campo Sportivo","pollutant":"NO2","date":"2025-11-05T00:00:00.000","value":13.5918181818,"Ore_Disponibili":22,"lat":41.2315276,"lon":14.5332703,"date_only":"2025-11-05T00:00:00.000"},{"station":"IT2228A","station_name":"Benevento Campo Sportivo","pollutant":"O3","date":"2025-11-05T00:00:00.000","value":24.365,"Ore_Disponibili":24,"lat":41.2315276,"lon":14.5332703,"date_only":"2025-11-05T00:00:00.000"},{"station":"IT2228A","station_name":"Benevento Campo Sportivo","pollutant":"PM10","date":"2025-11-05T00:00:00.000","value":17.0958333333,"Ore_Disponibili":24,"lat":41.2315276,"lon":14.5332703,"date_only":"2025-11-05T00:00:00.000"},{"station":"IT2228A","station_name":"Benevento Campo Sportivo","pollutant":"PM2,5","date":"2025-11-05T00:00:00.000","value":11.10875,"Ore_Disponibili":24,"lat":41.2315276,"lon":14.5332703,"date_only":"2025-11-05T00:00:00.000"},{"station":"IT2268A","station_name":"Battipaglia Parco Fiume","pollutant":"NO2","date":"2025-11-05T00:00:00.000","value":28.4608695652,"Ore_Disponibili":23,"lat":40.6167,"lon":14.9833,"date_only":"2025-11-05T00:00:00.000"},{"station":"IT2268A","station_name":"Battipaglia Parco Fiume","pollutant":"O3","date":"2025-11-05T00:00:00.000","value":41.7034782609,"Ore_Disponibili":23,"lat":40.6167,"lon":14.9833,"date_only":"2025-11-05T00:00:00.000"},{"station":"IT2268A","station_name":"Battipaglia Parco Fiume","pollutant":"PM10","date":"2025-11-05T00:00:00.000","value":17.3,"Ore_Disponibili":24,"lat":40.6167,"lon":14.9833,"date_only":"2025-11-05T00:00:00.000"},{"station":"IT2268A","station_name":"Battipaglia Parco Fiume","pollutant":"PM2,5","date":"2025-11-05T00:00:00.000","value":8.2,"Ore_Disponibili":24,"lat":40.6167,"lon":14.9833,"date_only":"2025-11-05T00:00:00.000"},{"station":"IT2270A","station_name":"Portici Parco Reggia","pollutant":"NO2","date":"2025-11-05T00:00:00.000","value":40.2147826087,"Ore_Disponibili":23,"lat":40.813588,"lon":14.3476526,"date_only":"2025-11-05T00:00:00.000"},{"station":"IT2270A","station_name":"Portici Parco Reggia","pollutant":"O3","date":"2025-11-05T00:00:00.000","value":36.5208695652,"Ore_Disponibili":23,"lat":40.813588,"lon":14.3476526,"date_only":"2025-11-05T00:00:00.000"},{"station":"IT2270A","station_name":"Portici Parco Reggia","pollutant":"PM10","date":"2025-11-05T00:00:00.000","value":12.6916666667,"Ore_Disponibili":24,"lat":40.813588,"lon":14.3476526,"date_only":"2025-11-05T00:00:00.000"},{"station":"IT2270A","station_name":"Portici Parco Reggia","pollutant":"PM2,5","date":"2025-11-05T00:00:00.000","value":5.7795833333,"Ore_Disponibili":24,"lat":40.813588,"lon":14.3476526,"date_only":"2025-11-05T00:00:00.000"},{"station":"IT2271A","station_name":"Aversa Scuola Cirillo \u00b0","pollutant":"NO2","date":"2025-11-05T00:00:00.000","value":35.382173913,"Ore_Disponibili":23,"lat":40.9758352,"lon":14.2117669,"date_only":"2025-11-05T00:00:00.000"},{"station":"IT2271A","station_name":"Aversa Scuola Cirillo \u00b0","pollutant":"PM10","date":"2025-11-05T00:00:00.000","value":21.1529166667,"Ore_Disponibili":24,"lat":40.9758352,"lon":14.2117669,"date_only":"2025-11-05T00:00:00.000"},{"station":"IT2271A","station_name":"Aversa Scuola Cirillo \u00b0","pollutant":"PM2,5","date":"2025-11-05T00:00:00.000","value":9.3791666667,"Ore_Disponibili":24,"lat":40.9758352,"lon":14.2117669,"date_only":"2025-11-05T00:00:00.000"},{"station":"IT2272A","station_name":"Pozzuoli Zona Villa Avellino","pollutant":"NO2","date":"2025-11-05T00:00:00.000","value":22.8170588235,"Ore_Disponibili":17,"lat":40.834,"lon":14.119,"date_only":"2025-11-05T00:00:00.000"},{"station":"IT2272A","station_name":"Pozzuoli Zona Villa Avellino","pollutant":"O3","date":"2025-11-05T00:00:00.000","value":44.0358333333,"Ore_Disponibili":24,"lat":40.834,"lon":14.119,"date_only":"2025-11-05T00:00:00.000"},{"station":"IT2272A","station_name":"Pozzuoli Zona Villa Avellino","pollutant":"PM10","date":"2025-11-05T00:00:00.000","value":9.56,"Ore_Disponibili":24,"lat":40.834,"lon":14.119,"date_only":"2025-11-05T00:00:00.000"},{"station":"IT2272A","station_name":"Pozzuoli Zona Villa Avellino","pollutant":"PM2,5","date":"2025-11-05T00:00:00.000","value":4.3929166667,"Ore_Disponibili":24,"lat":40.834,"lon":14.119,"date_only":"2025-11-05T00:00:00.000"},{"station":"IT2273A","station_name":"Polla Area Tritovagliatore","pollutant":"NO2","date":"2025-11-05T00:00:00.000","value":27.2756521739,"Ore_Disponibili":23,"lat":40.412,"lon":15.341,"date_only":"2025-11-05T00:00:00.000"},{"station":"IT2273A","station_name":"Polla Area Tritovagliatore","pollutant":"PM10","date":"2025-11-05T00:00:00.000","value":6.5791666667,"Ore_Disponibili":24,"lat":40.412,"lon":15.341,"date_only":"2025-11-05T00:00:00.000"},{"station":"IT2273A","station_name":"Polla Area Tritovagliatore","pollutant":"PM2,5","date":"2025-11-05T00:00:00.000","value":3.2308333333,"Ore_Disponibili":24,"lat":40.412,"lon":15.341,"date_only":"2025-11-05T00:00:00.000"},{"station":"IT2276A","station_name":"Ariano Irpino Stadio","pollutant":"NO2","date":"2025-11-05T00:00:00.000","value":5.2034782609,"Ore_Disponibili":23,"lat":41.1555975,"lon":15.0967062,"date_only":"2025-11-05T00:00:00.000"},{"station":"IT2276A","station_name":"Ariano Irpino Stadio","pollutant":"O3","date":"2025-11-05T00:00:00.000","value":85.2817391304,"Ore_Disponibili":23,"lat":41.1555975,"lon":15.0967062,"date_only":"2025-11-05T00:00:00.000"},{"station":"IT2277A","station_name":"Napoli Parco Virgiliano","pollutant":"NO2","date":"2025-11-05T00:00:00.000","value":18.4960869565,"Ore_Disponibili":23,"lat":40.7984999,"lon":14.1790765,"date_only":"2025-11-05T00:00:00.000"},{"station":"IT2277A","station_name":"Napoli Parco Virgiliano","pollutant":"O3","date":"2025-11-05T00:00:00.000","value":63.4645454545,"Ore_Disponibili":22,"lat":40.7984999,"lon":14.1790765,"date_only":"2025-11-05T00:00:00.000"},{"station":"IT2277A","station_name":"Napoli Parco Virgiliano","pollutant":"PM10","date":"2025-11-05T00:00:00.000","value":11.9,"Ore_Disponibili":24,"lat":40.7984999,"lon":14.1790765,"date_only":"2025-11-05T00:00:00.000"},{"station":"IT2277A","station_name":"Napoli Parco Virgiliano","pollutant":"PM2,5","date":"2025-11-05T00:00:00.000","value":6.1,"Ore_Disponibili":24,"lat":40.7984999,"lon":14.1790765,"date_only":"2025-11-05T00:00:00.000"},{"station":"IT2283A","station_name":"Ottati Alburni","pollutant":"NO2","date":"2025-11-05T00:00:00.000","value":1.7813043478,"Ore_Disponibili":23,"lat":40.306,"lon":15.277,"date_only":"2025-11-05T00:00:00.000"},{"station":"IT2283A","station_name":"Ottati Alburni","pollutant":"O3","date":"2025-11-05T00:00:00.000","value":70.6652173913,"Ore_Disponibili":23,"lat":40.306,"lon":15.277,"date_only":"2025-11-05T00:00:00.000"},{"station":"IT2283A","station_name":"Ottati Alburni","pollutant":"PM10","date":"2025-11-05T00:00:00.000","value":5.6,"Ore_Disponibili":24,"lat":40.306,"lon":15.277,"date_only":"2025-11-05T00:00:00.000"},{"station":"IT2283A","station_name":"Ottati Alburni","pollutant":"PM2,5","date":"2025-11-05T00:00:00.000","value":2.0,"Ore_Disponibili":24,"lat":40.306,"lon":15.277,"date_only":"2025-11-05T00:00:00.000"}]