[{"station":"IT0898A","station_name":"NA06 MUSEO NAZIONALE","pollutant":"NO2","date":"2025-07-17T00:00:00.000","value":22.952173913,"Ore_Disponibili":23,"lat":40.8536064,"lon":14.25115,"date_only":"2025-07-17T00:00:00.000"},{"station":"IT0898A","station_name":"NA06 MUSEO NAZIONALE","pollutant":"PM10","date":"2025-07-17T00:00:00.000","value":31.6625,"Ore_Disponibili":24,"lat":40.8536064,"lon":14.25115,"date_only":"2025-07-17T00:00:00.000"},{"station":"IT0898A","station_name":"NA06 MUSEO NAZIONALE","pollutant":"PM2,5","date":"2025-07-17T00:00:00.000","value":17.1666666667,"Ore_Disponibili":24,"lat":40.8536064,"lon":14.25115,"date_only":"2025-07-17T00:00:00.000"},{"station":"IT0934A","station_name":"BN32 Via Mustilli","pollutant":"NO2","date":"2025-07-17T00:00:00.000","value":14.2,"Ore_Disponibili":23,"lat":41.7572524,"lon":12.3201661,"date_only":"2025-07-17T00:00:00.000"},{"station":"IT0934A","station_name":"BN32 Via Mustilli","pollutant":"PM10","date":"2025-07-17T00:00:00.000","value":17.7333333333,"Ore_Disponibili":24,"lat":41.7572524,"lon":12.3201661,"date_only":"2025-07-17T00:00:00.000"},{"station":"IT0934A","station_name":"BN32 Via Mustilli","pollutant":"PM2,5","date":"2025-07-17T00:00:00.000","value":9.8708333333,"Ore_Disponibili":24,"lat":41.7572524,"lon":12.3201661,"date_only":"2025-07-17T00:00:00.000"},{"station":"IT0936A","station_name":"AV41 SCUOLA V CIRCOLO","pollutant":"NO2","date":"2025-07-17T00:00:00.000","value":7.5304347826,"Ore_Disponibili":23,"lat":43.8951992,"lon":11.3222381,"date_only":"2025-07-17T00:00:00.000"},{"station":"IT0936A","station_name":"AV41 SCUOLA V CIRCOLO","pollutant":"O3","date":"2025-07-17T00:00:00.000","value":80.0454545455,"Ore_Disponibili":22,"lat":43.8951992,"lon":11.3222381,"date_only":"2025-07-17T00:00:00.000"},{"station":"IT0936A","station_name":"AV41 SCUOLA V CIRCOLO","pollutant":"PM10","date":"2025-07-17T00:00:00.000","value":21.325,"Ore_Disponibili":24,"lat":43.8951992,"lon":11.3222381,"date_only":"2025-07-17T00:00:00.000"},{"station":"IT0936A","station_name":"AV41 SCUOLA V CIRCOLO","pollutant":"PM2,5","date":"2025-07-17T00:00:00.000","value":12.575,"Ore_Disponibili":24,"lat":43.8951992,"lon":11.3222381,"date_only":"2025-07-17T00:00:00.000"},{"station":"IT1041A","station_name":"SA23 SCUOLA OSVALDO CONTI","pollutant":"NO2","date":"2025-07-17T00:00:00.000","value":19.7375,"Ore_Disponibili":24,"lat":41.058,"lon":14.808,"date_only":"2025-07-17T00:00:00.000"},{"station":"IT1041A","station_name":"SA23 SCUOLA OSVALDO CONTI","pollutant":"O3","date":"2025-07-17T00:00:00.000","value":47.7304347826,"Ore_Disponibili":23,"lat":41.058,"lon":14.808,"date_only":"2025-07-17T00:00:00.000"},{"station":"IT1041A","station_name":"SA23 SCUOLA OSVALDO CONTI","pollutant":"PM2,5","date":"2025-07-17T00:00:00.000","value":16.7,"Ore_Disponibili":24,"lat":41.058,"lon":14.808,"date_only":"2025-07-17T00:00:00.000"},{"station":"IT1486A","station_name":"CE51 ISTITUTO MANZONI","pollutant":"NO2","date":"2025-07-17T00:00:00.000","value":9.4260869565,"Ore_Disponibili":23,"lat":41.0818,"lon":14.3349,"date_only":"2025-07-17T00:00:00.000"},{"station":"IT1486A","station_name":"CE51 ISTITUTO MANZONI","pollutant":"O3","date":"2025-07-17T00:00:00.000","value":65.0869565217,"Ore_Disponibili":23,"lat":41.0818,"lon":14.3349,"date_only":"2025-07-17T00:00:00.000"},{"station":"IT1486A","station_name":"CE51 ISTITUTO MANZONI","pollutant":"PM10","date":"2025-07-17T00:00:00.000","value":24.9095238095,"Ore_Disponibili":21,"lat":41.0818,"lon":14.3349,"date_only":"2025-07-17T00:00:00.000"},{"station":"IT1486A","station_name":"CE51 ISTITUTO MANZONI","pollutant":"PM2,5","date":"2025-07-17T00:00:00.000","value":9.9166666667,"Ore_Disponibili":24,"lat":41.0818,"lon":14.3349,"date_only":"2025-07-17T00:00:00.000"},{"station":"IT1487A","station_name":"CE52 SCUOLA DE AMICIS","pollutant":"NO2","date":"2025-07-17T00:00:00.000","value":10.5636363636,"Ore_Disponibili":22,"lat":45.4166851,"lon":11.8748262,"date_only":"2025-07-17T00:00:00.000"},{"station":"IT1487A","station_name":"CE52 SCUOLA DE AMICIS","pollutant":"PM10","date":"2025-07-17T00:00:00.000","value":30.7,"Ore_Disponibili":24,"lat":45.4166851,"lon":11.8748262,"date_only":"2025-07-17T00:00:00.000"},{"station":"IT1487A","station_name":"CE52 SCUOLA DE AMICIS","pollutant":"PM2,5","date":"2025-07-17T00:00:00.000","value":0.0,"Ore_Disponibili":24,"lat":45.4166851,"lon":11.8748262,"date_only":"2025-07-17T00:00:00.000"},{"station":"IT1488A","station_name":"CE54 SCUOLA SETTEMBRINI","pollutant":"NO2","date":"2025-07-17T00:00:00.000","value":15.4772727273,"Ore_Disponibili":22,"lat":40.7402509,"lon":14.6724943,"date_only":"2025-07-17T00:00:00.000"},{"station":"IT1488A","station_name":"CE54 SCUOLA SETTEMBRINI","pollutant":"O3","date":"2025-07-17T00:00:00.000","value":66.147826087,"Ore_Disponibili":23,"lat":40.7402509,"lon":14.6724943,"date_only":"2025-07-17T00:00:00.000"},{"station":"IT1488A","station_name":"CE54 SCUOLA SETTEMBRINI","pollutant":"PM10","date":"2025-07-17T00:00:00.000","value":32.3375,"Ore_Disponibili":24,"lat":40.7402509,"lon":14.6724943,"date_only":"2025-07-17T00:00:00.000"},{"station":"IT1488A","station_name":"CE54 SCUOLA SETTEMBRINI","pollutant":"PM2,5","date":"2025-07-17T00:00:00.000","value":16.5041666667,"Ore_Disponibili":24,"lat":40.7402509,"lon":14.6724943,"date_only":"2025-07-17T00:00:00.000"},{"station":"IT1491A","station_name":"NA07 ENTE FERROVIE","pollutant":"NO2","date":"2025-07-17T00:00:00.000","value":44.1086956522,"Ore_Disponibili":23,"lat":45.6541955,"lon":13.7741392,"date_only":"2025-07-17T00:00:00.000"},{"station":"IT1491A","station_name":"NA07 ENTE FERROVIE","pollutant":"PM10","date":"2025-07-17T00:00:00.000","value":25.1208333333,"Ore_Disponibili":24,"lat":45.6541955,"lon":13.7741392,"date_only":"2025-07-17T00:00:00.000"},{"station":"IT1491A","station_name":"NA07 ENTE FERROVIE","pollutant":"PM2,5","date":"2025-07-17T00:00:00.000","value":13.3541666667,"Ore_Disponibili":24,"lat":45.6541955,"lon":13.7741392,"date_only":"2025-07-17T00:00:00.000"},{"station":"IT1493A","station_name":"NA09 I.T.I.S. ARGINE","pollutant":"NO2","date":"2025-07-17T00:00:00.000","value":21.4043478261,"Ore_Disponibili":23,"lat":44.7377462,"lon":11.6477031,"date_only":"2025-07-17T00:00:00.000"},{"station":"IT1493A","station_name":"NA09 I.T.I.S. ARGINE","pollutant":"PM10","date":"2025-07-17T00:00:00.000","value":33.9375,"Ore_Disponibili":24,"lat":44.7377462,"lon":11.6477031,"date_only":"2025-07-17T00:00:00.000"},{"station":"IT1493A","station_name":"NA09 I.T.I.S. ARGINE","pollutant":"PM2,5","date":"2025-07-17T00:00:00.000","value":19.8541666667,"Ore_Disponibili":24,"lat":44.7377462,"lon":11.6477031,"date_only":"2025-07-17T00:00:00.000"},{"station":"IT1496A","station_name":"NA02 OSPEDALE SANTOBONO","pollutant":"NO2","date":"2025-07-17T00:00:00.000","value":25.3130434783,"Ore_Disponibili":23,"lat":40.8615516,"lon":14.2278503,"date_only":"2025-07-17T00:00:00.000"},{"station":"IT1496A","station_name":"NA02 OSPEDALE SANTOBONO","pollutant":"PM10","date":"2025-07-17T00:00:00.000","value":21.6791666667,"Ore_Disponibili":24,"lat":40.8615516,"lon":14.2278503,"date_only":"2025-07-17T00:00:00.000"},{"station":"IT1496A","station_name":"NA02 OSPEDALE SANTOBONO","pollutant":"PM2,5","date":"2025-07-17T00:00:00.000","value":12.025,"Ore_Disponibili":24,"lat":40.8615516,"lon":14.2278503,"date_only":"2025-07-17T00:00:00.000"},{"station":"IT1497A","station_name":"NA01 OSSERVATORIO ASTRONOMICO","pollutant":"NO2","date":"2025-07-17T00:00:00.000","value":9.3291666667,"Ore_Disponibili":24,"lat":46.0863714,"lon":13.3165669,"date_only":"2025-07-17T00:00:00.000"},{"station":"IT1497A","station_name":"NA01 OSSERVATORIO ASTRONOMICO","pollutant":"O3","date":"2025-07-17T00:00:00.000","value":85.5217391304,"Ore_Disponibili":23,"lat":46.0863714,"lon":13.3165669,"date_only":"2025-07-17T00:00:00.000"},{"station":"IT1497A","station_name":"NA01 OSSERVATORIO ASTRONOMICO","pollutant":"PM10","date":"2025-07-17T00:00:00.000","value":18.0833333333,"Ore_Disponibili":24,"lat":46.0863714,"lon":13.3165669,"date_only":"2025-07-17T00:00:00.000"},{"station":"IT1497A","station_name":"NA01 OSSERVATORIO ASTRONOMICO","pollutant":"PM2,5","date":"2025-07-17T00:00:00.000","value":11.05,"Ore_Disponibili":24,"lat":46.0863714,"lon":13.3165669,"date_only":"2025-07-17T00:00:00.000"},{"station":"IT1504A","station_name":"SA22 Ospedale via Vernieri","pollutant":"NO2","date":"2025-07-17T00:00:00.000","value":10.2,"Ore_Disponibili":22,"lat":40.682,"lon":14.766,"date_only":"2025-07-17T00:00:00.000"},{"station":"IT1504A","station_name":"SA22 Ospedale via Vernieri","pollutant":"PM10","date":"2025-07-17T00:00:00.000","value":15.9291666667,"Ore_Disponibili":24,"lat":40.682,"lon":14.766,"date_only":"2025-07-17T00:00:00.000"},{"station":"IT1504A","station_name":"SA22 Ospedale via Vernieri","pollutant":"PM2,5","date":"2025-07-17T00:00:00.000","value":8.3608695652,"Ore_Disponibili":23,"lat":40.682,"lon":14.766,"date_only":"2025-07-17T00:00:00.000"},{"station":"IT2210A","station_name":"SOLOFRA ZONA INDUSTRIALE","pollutant":"NO2","date":"2025-07-17T00:00:00.000","value":6.3217391304,"Ore_Disponibili":23,"lat":41.058,"lon":14.808,"date_only":"2025-07-17T00:00:00.000"},{"station":"IT2210A","station_name":"SOLOFRA ZONA INDUSTRIALE","pollutant":"PM10","date":"2025-07-17T00:00:00.000","value":20.9291666667,"Ore_Disponibili":24,"lat":41.058,"lon":14.808,"date_only":"2025-07-17T00:00:00.000"},{"station":"IT2210A","station_name":"SOLOFRA ZONA INDUSTRIALE","pollutant":"PM2,5","date":"2025-07-17T00:00:00.000","value":12.7041666667,"Ore_Disponibili":24,"lat":41.058,"lon":14.808,"date_only":"2025-07-17T00:00:00.000"},{"station":"IT2211A","station_name":"ACERRA ZONA INDUSTRIALE","pollutant":"NO2","date":"2025-07-17T00:00:00.000","value":26.247826087,"Ore_Disponibili":23,"lat":40.9847962,"lon":14.3679606,"date_only":"2025-07-17T00:00:00.000"},{"station":"IT2211A","station_name":"ACERRA ZONA INDUSTRIALE","pollutant":"PM10","date":"2025-07-17T00:00:00.000","value":43.3,"Ore_Disponibili":24,"lat":40.9847962,"lon":14.3679606,"date_only":"2025-07-17T00:00:00.000"},{"station":"IT2211A","station_name":"ACERRA ZONA INDUSTRIALE","pollutant":"PM2,5","date":"2025-07-17T00:00:00.000","value":16.7,"Ore_Disponibili":24,"lat":40.9847962,"lon":14.3679606,"date_only":"2025-07-17T00:00:00.000"},{"station":"IT2212A","station_name":"San Vitaliano Scuola Elementare Marconi","pollutant":"NO2","date":"2025-07-17T00:00:00.000","value":22.4913043478,"Ore_Disponibili":23,"lat":40.896,"lon":14.46,"date_only":"2025-07-17T00:00:00.000"},{"station":"IT2212A","station_name":"San Vitaliano Scuola Elementare Marconi","pollutant":"O3","date":"2025-07-17T00:00:00.000","value":77.6173913043,"Ore_Disponibili":23,"lat":40.896,"lon":14.46,"date_only":"2025-07-17T00:00:00.000"},{"station":"IT2212A","station_name":"San Vitaliano Scuola Elementare Marconi","pollutant":"PM10","date":"2025-07-17T00:00:00.000","value":30.45,"Ore_Disponibili":24,"lat":40.896,"lon":14.46,"date_only":"2025-07-17T00:00:00.000"},{"station":"IT2212A","station_name":"San Vitaliano Scuola Elementare Marconi","pollutant":"PM2,5","date":"2025-07-17T00:00:00.000","value":17.0875,"Ore_Disponibili":24,"lat":40.896,"lon":14.46,"date_only":"2025-07-17T00:00:00.000"},{"station":"IT2213A","station_name":"CAVA DEI TIRRENI - STADIO","pollutant":"NO2","date":"2025-07-17T00:00:00.000","value":10.2173913043,"Ore_Disponibili":23,"lat":44.4937761,"lon":11.3101851,"date_only":"2025-07-17T00:00:00.000"},{"station":"IT2213A","station_name":"CAVA DEI TIRRENI - STADIO","pollutant":"O3","date":"2025-07-17T00:00:00.000","value":81.8130434783,"Ore_Disponibili":23,"lat":44.4937761,"lon":11.3101851,"date_only":"2025-07-17T00:00:00.000"},{"station":"IT2213A","station_name":"CAVA DEI TIRRENI - STADIO","pollutant":"PM10","date":"2025-07-17T00:00:00.000","value":21.5541666667,"Ore_Disponibili":24,"lat":44.4937761,"lon":11.3101851,"date_only":"2025-07-17T00:00:00.000"},{"station":"IT2213A","station_name":"CAVA DEI TIRRENI - STADIO","pollutant":"PM2,5","date":"2025-07-17T00:00:00.000","value":13.1708333333,"Ore_Disponibili":24,"lat":44.4937761,"lon":11.3101851,"date_only":"2025-07-17T00:00:00.000"},{"station":"IT2214A","station_name":"Nocera Inferiore scuola Solimene","pollutant":"NO2","date":"2025-07-17T00:00:00.000","value":14.4772727273,"Ore_Disponibili":22,"lat":40.7445,"lon":14.734,"date_only":"2025-07-17T00:00:00.000"},{"station":"IT2214A","station_name":"Nocera Inferiore scuola Solimene","pollutant":"PM10","date":"2025-07-17T00:00:00.000","value":37.65,"Ore_Disponibili":24,"lat":40.7445,"lon":14.734,"date_only":"2025-07-17T00:00:00.000"},{"station":"IT2214A","station_name":"Nocera Inferiore scuola Solimene","pollutant":"PM2,5","date":"2025-07-17T00:00:00.000","value":15.8583333333,"Ore_Disponibili":24,"lat":40.7445,"lon":14.734,"date_only":"2025-07-17T00:00:00.000"},{"station":"IT2215A","station_name":"BENEVENTO ZONA INDUSTRIALE","pollutant":"NO2","date":"2025-07-17T00:00:00.000","value":9.6,"Ore_Disponibili":24,"lat":41.2293368,"lon":14.4782074,"date_only":"2025-07-17T00:00:00.000"},{"station":"IT2215A","station_name":"BENEVENTO ZONA INDUSTRIALE","pollutant":"O3","date":"2025-07-17T00:00:00.000","value":58.9695652174,"Ore_Disponibili":23,"lat":41.2293368,"lon":14.4782074,"date_only":"2025-07-17T00:00:00.000"},{"station":"IT2215A","station_name":"BENEVENTO ZONA INDUSTRIALE","pollutant":"PM10","date":"2025-07-17T00:00:00.000","value":22.8666666667,"Ore_Disponibili":24,"lat":41.2293368,"lon":14.4782074,"date_only":"2025-07-17T00:00:00.000"},{"station":"IT2215A","station_name":"BENEVENTO ZONA INDUSTRIALE","pollutant":"PM2,5","date":"2025-07-17T00:00:00.000","value":13.075,"Ore_Disponibili":24,"lat":41.2293368,"lon":14.4782074,"date_only":"2025-07-17T00:00:00.000"},{"station":"IT2216A","station_name":"Casoria Scuola Palizzi (CAM)","pollutant":"NO2","date":"2025-07-17T00:00:00.000","value":7.0695652174,"Ore_Disponibili":23,"lat":40.904,"lon":14.289,"date_only":"2025-07-17T00:00:00.000"},{"station":"IT2216A","station_name":"Casoria Scuola Palizzi (CAM)","pollutant":"O3","date":"2025-07-17T00:00:00.000","value":69.0652173913,"Ore_Disponibili":23,"lat":40.904,"lon":14.289,"date_only":"2025-07-17T00:00:00.000"},{"station":"IT2216A","station_name":"Casoria Scuola Palizzi (CAM)","pollutant":"PM10","date":"2025-07-17T00:00:00.000","value":27.0666666667,"Ore_Disponibili":24,"lat":40.904,"lon":14.289,"date_only":"2025-07-17T00:00:00.000"},{"station":"IT2216A","station_name":"Casoria Scuola Palizzi (CAM)","pollutant":"PM2,5","date":"2025-07-17T00:00:00.000","value":19.0916666667,"Ore_Disponibili":24,"lat":40.904,"lon":14.289,"date_only":"2025-07-17T00:00:00.000"},{"station":"IT2217A","station_name":"Torre Annunziata Scuola Media Pascoli","pollutant":"NO2","date":"2025-07-17T00:00:00.000","value":10.3904761905,"Ore_Disponibili":21,"lat":40.831,"lon":14.426,"date_only":"2025-07-17T00:00:00.000"},{"station":"IT2217A","station_name":"Torre Annunziata Scuola Media Pascoli","pollutant":"O3","date":"2025-07-17T00:00:00.000","value":77.9260869565,"Ore_Disponibili":23,"lat":40.831,"lon":14.426,"date_only":"2025-07-17T00:00:00.000"},{"station":"IT2218A","station_name":"San Felice a Cancello Complesso scolastico","pollutant":"NO2","date":"2025-07-17T00:00:00.000","value":8.2869565217,"Ore_Disponibili":23,"lat":41.015,"lon":14.287,"date_only":"2025-07-17T00:00:00.000"},{"station":"IT2218A","station_name":"San Felice a Cancello Complesso scolastico","pollutant":"O3","date":"2025-07-17T00:00:00.000","value":70.2130434783,"Ore_Disponibili":23,"lat":41.015,"lon":14.287,"date_only":"2025-07-17T00:00:00.000"},{"station":"IT2218A","station_name":"San Felice a Cancello Complesso scolastico","pollutant":"PM10","date":"2025-07-17T00:00:00.000","value":29.0583333333,"Ore_Disponibili":24,"lat":41.015,"lon":14.287,"date_only":"2025-07-17T00:00:00.000"},{"station":"IT2218A","station_name":"San Felice a Cancello Complesso scolastico","pollutant":"PM2,5","date":"2025-07-17T00:00:00.000","value":15.15,"Ore_Disponibili":24,"lat":41.015,"lon":14.287,"date_only":"2025-07-17T00:00:00.000"},{"station":"IT2219A","station_name":"Acerra scuola Caporale","pollutant":"NO2","date":"2025-07-17T00:00:00.000","value":13.3565217391,"Ore_Disponibili":23,"lat":40.9169,"lon":14.3425,"date_only":"2025-07-17T00:00:00.000"},{"station":"IT2219A","station_name":"Acerra scuola Caporale","pollutant":"PM10","date":"2025-07-17T00:00:00.000","value":32.5666666667,"Ore_Disponibili":24,"lat":40.9169,"lon":14.3425,"date_only":"2025-07-17T00:00:00.000"},{"station":"IT2219A","station_name":"Acerra scuola Caporale","pollutant":"PM2,5","date":"2025-07-17T00:00:00.000","value":16.3375,"Ore_Disponibili":24,"lat":40.9169,"lon":14.3425,"date_only":"2025-07-17T00:00:00.000"},{"station":"IT2221A","station_name":"Napoli via Epomeo","pollutant":"NO2","date":"2025-07-17T00:00:00.000","value":7.9545454545,"Ore_Disponibili":22,"lat":40.7205434,"lon":13.8987737,"date_only":"2025-07-17T00:00:00.000"},{"station":"IT2221A","station_name":"Napoli via Epomeo","pollutant":"O3","date":"2025-07-17T00:00:00.000","value":49.6571428571,"Ore_Disponibili":21,"lat":40.7205434,"lon":13.8987737,"date_only":"2025-07-17T00:00:00.000"},{"station":"IT2221A","station_name":"Napoli via Epomeo","pollutant":"PM10","date":"2025-07-17T00:00:00.000","value":26.5625,"Ore_Disponibili":24,"lat":40.7205434,"lon":13.8987737,"date_only":"2025-07-17T00:00:00.000"},{"station":"IT2221A","station_name":"Napoli via Epomeo","pollutant":"PM2,5","date":"2025-07-17T00:00:00.000","value":13.7291666667,"Ore_Disponibili":24,"lat":40.7205434,"lon":13.8987737,"date_only":"2025-07-17T00:00:00.000"},{"station":"IT2223A","station_name":"Volla via Filichito","pollutant":"NO2","date":"2025-07-17T00:00:00.000","value":17.6625,"Ore_Disponibili":24,"lat":40.8824226,"lon":14.3478545,"date_only":"2025-07-17T00:00:00.000"},{"station":"IT2223A","station_name":"Volla via Filichito","pollutant":"O3","date":"2025-07-17T00:00:00.000","value":51.8782608696,"Ore_Disponibili":23,"lat":40.8824226,"lon":14.3478545,"date_only":"2025-07-17T00:00:00.000"},{"station":"IT2223A","station_name":"Volla via Filichito","pollutant":"PM10","date":"2025-07-17T00:00:00.000","value":26.575,"Ore_Disponibili":24,"lat":40.8824226,"lon":14.3478545,"date_only":"2025-07-17T00:00:00.000"},{"station":"IT2223A","station_name":"Volla via Filichito","pollutant":"PM2,5","date":"2025-07-17T00:00:00.000","value":14.8958333333,"Ore_Disponibili":24,"lat":40.8824226,"lon":14.3478545,"date_only":"2025-07-17T00:00:00.000"},{"station":"IT2226A","station_name":"Pomigliano d'Arco Area ASI","pollutant":"NO2","date":"2025-07-17T00:00:00.000","value":19.5913043478,"Ore_Disponibili":23,"lat":40.9075,"lon":14.393,"date_only":"2025-07-17T00:00:00.000"},{"station":"IT2226A","station_name":"Pomigliano d'Arco Area ASI","pollutant":"PM10","date":"2025-07-17T00:00:00.000","value":25.9916666667,"Ore_Disponibili":24,"lat":40.9075,"lon":14.393,"date_only":"2025-07-17T00:00:00.000"},{"station":"IT2226A","station_name":"Pomigliano d'Arco Area ASI","pollutant":"PM2,5","date":"2025-07-17T00:00:00.000","value":12.2458333333,"Ore_Disponibili":24,"lat":40.9075,"lon":14.393,"date_only":"2025-07-17T00:00:00.000"},{"station":"IT2227A","station_name":"AVELLINO - SCUOLA ALIGHIERI","pollutant":"NO2","date":"2025-07-17T00:00:00.000","value":12.0208333333,"Ore_Disponibili":24,"lat":40.9190395,"lon":14.784947,"date_only":"2025-07-17T00:00:00.000"},{"station":"IT2227A","station_name":"AVELLINO - SCUOLA ALIGHIERI","pollutant":"PM10","date":"2025-07-17T00:00:00.000","value":12.6375,"Ore_Disponibili":24,"lat":40.9190395,"lon":14.784947,"date_only":"2025-07-17T00:00:00.000"},{"station":"IT2227A","station_name":"AVELLINO - SCUOLA ALIGHIERI","pollutant":"PM2,5","date":"2025-07-17T00:00:00.000","value":7.2666666667,"Ore_Disponibili":24,"lat":40.9190395,"lon":14.784947,"date_only":"2025-07-17T00:00:00.000"},{"station":"IT2228A","station_name":"BENEVENTO CAMPO SPORTIVO","pollutant":"NO2","date":"2025-07-17T00:00:00.000","value":11.5666666667,"Ore_Disponibili":24,"lat":41.2315276,"lon":14.5332703,"date_only":"2025-07-17T00:00:00.000"},{"station":"IT2228A","station_name":"BENEVENTO CAMPO SPORTIVO","pollutant":"O3","date":"2025-07-17T00:00:00.000","value":53.6130434783,"Ore_Disponibili":23,"lat":41.2315276,"lon":14.5332703,"date_only":"2025-07-17T00:00:00.000"},{"station":"IT2228A","station_name":"BENEVENTO CAMPO SPORTIVO","pollutant":"PM10","date":"2025-07-17T00:00:00.000","value":21.7666666667,"Ore_Disponibili":24,"lat":41.2315276,"lon":14.5332703,"date_only":"2025-07-17T00:00:00.000"},{"station":"IT2228A","station_name":"BENEVENTO CAMPO SPORTIVO","pollutant":"PM2,5","date":"2025-07-17T00:00:00.000","value":12.9291666667,"Ore_Disponibili":24,"lat":41.2315276,"lon":14.5332703,"date_only":"2025-07-17T00:00:00.000"},{"station":"IT2268A","station_name":"BATTIPAGLIA - PARCO FIUME","pollutant":"NO2","date":"2025-07-17T00:00:00.000","value":5.9652173913,"Ore_Disponibili":23,"lat":44.3859682,"lon":7.5509829,"date_only":"2025-07-17T00:00:00.000"},{"station":"IT2268A","station_name":"BATTIPAGLIA - PARCO FIUME","pollutant":"O3","date":"2025-07-17T00:00:00.000","value":72.7173913043,"Ore_Disponibili":23,"lat":44.3859682,"lon":7.5509829,"date_only":"2025-07-17T00:00:00.000"},{"station":"IT2268A","station_name":"BATTIPAGLIA - PARCO FIUME","pollutant":"PM10","date":"2025-07-17T00:00:00.000","value":14.5,"Ore_Disponibili":24,"lat":44.3859682,"lon":7.5509829,"date_only":"2025-07-17T00:00:00.000"},{"station":"IT2268A","station_name":"BATTIPAGLIA - PARCO FIUME","pollutant":"PM2,5","date":"2025-07-17T00:00:00.000","value":8.0,"Ore_Disponibili":24,"lat":44.3859682,"lon":7.5509829,"date_only":"2025-07-17T00:00:00.000"},{"station":"IT2270A","station_name":"Portici parco Reggia","pollutant":"NO2","date":"2025-07-17T00:00:00.000","value":6.9913043478,"Ore_Disponibili":23,"lat":40.813588,"lon":14.3476526,"date_only":"2025-07-17T00:00:00.000"},{"station":"IT2270A","station_name":"Portici parco Reggia","pollutant":"O3","date":"2025-07-17T00:00:00.000","value":77.4173913043,"Ore_Disponibili":23,"lat":40.813588,"lon":14.3476526,"date_only":"2025-07-17T00:00:00.000"},{"station":"IT2270A","station_name":"Portici parco Reggia","pollutant":"PM10","date":"2025-07-17T00:00:00.000","value":22.1125,"Ore_Disponibili":24,"lat":40.813588,"lon":14.3476526,"date_only":"2025-07-17T00:00:00.000"},{"station":"IT2270A","station_name":"Portici parco Reggia","pollutant":"PM2,5","date":"2025-07-17T00:00:00.000","value":12.6791666667,"Ore_Disponibili":24,"lat":40.813588,"lon":14.3476526,"date_only":"2025-07-17T00:00:00.000"},{"station":"IT2271A","station_name":"Aversa scuola Cirillo","pollutant":"NO2","date":"2025-07-17T00:00:00.000","value":10.85,"Ore_Disponibili":22,"lat":40.9758352,"lon":14.2117669,"date_only":"2025-07-17T00:00:00.000"},{"station":"IT2271A","station_name":"Aversa scuola Cirillo","pollutant":"PM10","date":"2025-07-17T00:00:00.000","value":32.9291666667,"Ore_Disponibili":24,"lat":40.9758352,"lon":14.2117669,"date_only":"2025-07-17T00:00:00.000"},{"station":"IT2271A","station_name":"Aversa scuola Cirillo","pollutant":"PM2,5","date":"2025-07-17T00:00:00.000","value":14.4958333333,"Ore_Disponibili":24,"lat":40.9758352,"lon":14.2117669,"date_only":"2025-07-17T00:00:00.000"},{"station":"IT2272A","station_name":"Pozzuoli ex Villa Avellino","pollutant":"NO2","date":"2025-07-17T00:00:00.000","value":13.0,"Ore_Disponibili":12,"lat":40.834,"lon":14.119,"date_only":"2025-07-17T00:00:00.000"},{"station":"IT2272A","station_name":"Pozzuoli ex Villa Avellino","pollutant":"O3","date":"2025-07-17T00:00:00.000","value":61.1583333333,"Ore_Disponibili":24,"lat":40.834,"lon":14.119,"date_only":"2025-07-17T00:00:00.000"},{"station":"IT2272A","station_name":"Pozzuoli ex Villa Avellino","pollutant":"PM10","date":"2025-07-17T00:00:00.000","value":24.7708333333,"Ore_Disponibili":24,"lat":40.834,"lon":14.119,"date_only":"2025-07-17T00:00:00.000"},{"station":"IT2272A","station_name":"Pozzuoli ex Villa Avellino","pollutant":"PM2,5","date":"2025-07-17T00:00:00.000","value":13.6125,"Ore_Disponibili":24,"lat":40.834,"lon":14.119,"date_only":"2025-07-17T00:00:00.000"},{"station":"IT2273A","station_name":"Polla Area tritovagliatore","pollutant":"NO2","date":"2025-07-17T00:00:00.000","value":15.152173913,"Ore_Disponibili":23,"lat":40.412,"lon":15.341,"date_only":"2025-07-17T00:00:00.000"},{"station":"IT2273A","station_name":"Polla Area tritovagliatore","pollutant":"PM10","date":"2025-07-17T00:00:00.000","value":15.9,"Ore_Disponibili":24,"lat":40.412,"lon":15.341,"date_only":"2025-07-17T00:00:00.000"},{"station":"IT2273A","station_name":"Polla Area tritovagliatore","pollutant":"PM2,5","date":"2025-07-17T00:00:00.000","value":9.9208333333,"Ore_Disponibili":24,"lat":40.412,"lon":15.341,"date_only":"2025-07-17T00:00:00.000"},{"station":"IT2276A","station_name":"Ariano Irpino Villa Comunale","pollutant":"NO2","date":"2025-07-17T00:00:00.000","value":3.375,"Ore_Disponibili":24,"lat":41.1549432,"lon":15.0951624,"date_only":"2025-07-17T00:00:00.000"},{"station":"IT2276A","station_name":"Ariano Irpino Villa Comunale","pollutant":"O3","date":"2025-07-17T00:00:00.000","value":102.0304347826,"Ore_Disponibili":23,"lat":41.1549432,"lon":15.0951624,"date_only":"2025-07-17T00:00:00.000"},{"station":"IT2277A","station_name":"Napoli parco Virgiliano","pollutant":"NO2","date":"2025-07-17T00:00:00.000","value":5.9565217391,"Ore_Disponibili":23,"lat":40.7984999,"lon":14.1790765,"date_only":"2025-07-17T00:00:00.000"},{"station":"IT2277A","station_name":"Napoli parco Virgiliano","pollutant":"O3","date":"2025-07-17T00:00:00.000","value":97.6375,"Ore_Disponibili":24,"lat":40.7984999,"lon":14.1790765,"date_only":"2025-07-17T00:00:00.000"},{"station":"IT2277A","station_name":"Napoli parco Virgiliano","pollutant":"PM10","date":"2025-07-17T00:00:00.000","value":23.2,"Ore_Disponibili":24,"lat":40.7984999,"lon":14.1790765,"date_only":"2025-07-17T00:00:00.000"},{"station":"IT2277A","station_name":"Napoli parco Virgiliano","pollutant":"PM2,5","date":"2025-07-17T00:00:00.000","value":9.0,"Ore_Disponibili":24,"lat":40.7984999,"lon":14.1790765,"date_only":"2025-07-17T00:00:00.000"},{"station":"IT2283A","station_name":"OTTATI - ALBURNI","pollutant":"NO2","date":"2025-07-17T00:00:00.000","value":4.2608695652,"Ore_Disponibili":23,"lat":40.560311,"lon":15.303957,"date_only":"2025-07-17T00:00:00.000"},{"station":"IT2283A","station_name":"OTTATI - ALBURNI","pollutant":"O3","date":"2025-07-17T00:00:00.000","value":86.9739130435,"Ore_Disponibili":23,"lat":40.560311,"lon":15.303957,"date_only":"2025-07-17T00:00:00.000"},{"station":"IT2283A","station_name":"OTTATI - ALBURNI","pollutant":"PM2,5","date":"2025-07-17T00:00:00.000","value":9.6,"Ore_Disponibili":24,"lat":40.560311,"lon":15.303957,"date_only":"2025-07-17T00:00:00.000"}]