[{"station":"IT1487A","station_name":"CE52 SCUOLA DE AMICIS","pollutant":"NO2","date":"2025-09-20T00:00:00.000","value":12.852173913,"Ore_Disponibili":23,"lat":45.4166851,"lon":11.8748262,"date_only":"2025-09-20T00:00:00.000"},{"station":"IT1487A","station_name":"CE52 SCUOLA DE AMICIS","pollutant":"PM10","date":"2025-09-20T00:00:00.000","value":24.9,"Ore_Disponibili":24,"lat":45.4166851,"lon":11.8748262,"date_only":"2025-09-20T00:00:00.000"},{"station":"IT1487A","station_name":"CE52 SCUOLA DE AMICIS","pollutant":"PM2,5","date":"2025-09-20T00:00:00.000","value":6.3,"Ore_Disponibili":24,"lat":45.4166851,"lon":11.8748262,"date_only":"2025-09-20T00:00:00.000"},{"station":"IT1488A","station_name":"CE54 SCUOLA SETTEMBRINI","pollutant":"NO2","date":"2025-09-20T00:00:00.000","value":14.6956521739,"Ore_Disponibili":23,"lat":40.7402509,"lon":14.6724943,"date_only":"2025-09-20T00:00:00.000"},{"station":"IT1488A","station_name":"CE54 SCUOLA SETTEMBRINI","pollutant":"PM10","date":"2025-09-20T00:00:00.000","value":16.6416666667,"Ore_Disponibili":24,"lat":40.7402509,"lon":14.6724943,"date_only":"2025-09-20T00:00:00.000"},{"station":"IT1488A","station_name":"CE54 SCUOLA SETTEMBRINI","pollutant":"PM2,5","date":"2025-09-20T00:00:00.000","value":5.5916666667,"Ore_Disponibili":24,"lat":40.7402509,"lon":14.6724943,"date_only":"2025-09-20T00:00:00.000"},{"station":"IT1497A","station_name":"NA01 OSSERVATORIO ASTRONOMICO","pollutant":"NO2","date":"2025-09-20T00:00:00.000","value":24.4208333333,"Ore_Disponibili":24,"lat":46.0863714,"lon":13.3165669,"date_only":"2025-09-20T00:00:00.000"},{"station":"IT1497A","station_name":"NA01 OSSERVATORIO ASTRONOMICO","pollutant":"O3","date":"2025-09-20T00:00:00.000","value":60.8086956522,"Ore_Disponibili":23,"lat":46.0863714,"lon":13.3165669,"date_only":"2025-09-20T00:00:00.000"},{"station":"IT1497A","station_name":"NA01 OSSERVATORIO ASTRONOMICO","pollutant":"PM10","date":"2025-09-20T00:00:00.000","value":11.3041666667,"Ore_Disponibili":24,"lat":46.0863714,"lon":13.3165669,"date_only":"2025-09-20T00:00:00.000"},{"station":"IT1497A","station_name":"NA01 OSSERVATORIO ASTRONOMICO","pollutant":"PM2,5","date":"2025-09-20T00:00:00.000","value":4.9708333333,"Ore_Disponibili":24,"lat":46.0863714,"lon":13.3165669,"date_only":"2025-09-20T00:00:00.000"},{"station":"IT2210A","station_name":"SOLOFRA ZONA INDUSTRIALE","pollutant":"NO2","date":"2025-09-20T00:00:00.000","value":6.7739130435,"Ore_Disponibili":23,"lat":41.058,"lon":14.808,"date_only":"2025-09-20T00:00:00.000"},{"station":"IT2210A","station_name":"SOLOFRA ZONA INDUSTRIALE","pollutant":"PM10","date":"2025-09-20T00:00:00.000","value":15.8041666667,"Ore_Disponibili":24,"lat":41.058,"lon":14.808,"date_only":"2025-09-20T00:00:00.000"},{"station":"IT2210A","station_name":"SOLOFRA ZONA INDUSTRIALE","pollutant":"PM2,5","date":"2025-09-20T00:00:00.000","value":9.075,"Ore_Disponibili":24,"lat":41.058,"lon":14.808,"date_only":"2025-09-20T00:00:00.000"},{"station":"IT2212A","station_name":"San Vitaliano Scuola Elementare Marconi","pollutant":"NO2","date":"2025-09-20T00:00:00.000","value":43.1956521739,"Ore_Disponibili":23,"lat":40.896,"lon":14.46,"date_only":"2025-09-20T00:00:00.000"},{"station":"IT2212A","station_name":"San Vitaliano Scuola Elementare Marconi","pollutant":"O3","date":"2025-09-20T00:00:00.000","value":38.7652173913,"Ore_Disponibili":23,"lat":40.896,"lon":14.46,"date_only":"2025-09-20T00:00:00.000"},{"station":"IT2212A","station_name":"San Vitaliano Scuola Elementare Marconi","pollutant":"PM10","date":"2025-09-20T00:00:00.000","value":24.7833333333,"Ore_Disponibili":24,"lat":40.896,"lon":14.46,"date_only":"2025-09-20T00:00:00.000"},{"station":"IT2212A","station_name":"San Vitaliano Scuola Elementare Marconi","pollutant":"PM2,5","date":"2025-09-20T00:00:00.000","value":9.4958333333,"Ore_Disponibili":24,"lat":40.896,"lon":14.46,"date_only":"2025-09-20T00:00:00.000"},{"station":"IT2214A","station_name":"Nocera Inferiore scuola Solimene","pollutant":"NO2","date":"2025-09-20T00:00:00.000","value":24.2086956522,"Ore_Disponibili":23,"lat":40.7445,"lon":14.734,"date_only":"2025-09-20T00:00:00.000"},{"station":"IT2214A","station_name":"Nocera Inferiore scuola Solimene","pollutant":"PM10","date":"2025-09-20T00:00:00.000","value":11.8375,"Ore_Disponibili":24,"lat":40.7445,"lon":14.734,"date_only":"2025-09-20T00:00:00.000"},{"station":"IT2214A","station_name":"Nocera Inferiore scuola Solimene","pollutant":"PM2,5","date":"2025-09-20T00:00:00.000","value":4.8708333333,"Ore_Disponibili":24,"lat":40.7445,"lon":14.734,"date_only":"2025-09-20T00:00:00.000"},{"station":"IT2215A","station_name":"BENEVENTO ZONA INDUSTRIALE","pollutant":"NO2","date":"2025-09-20T00:00:00.000","value":5.4791666667,"Ore_Disponibili":24,"lat":41.2293368,"lon":14.4782074,"date_only":"2025-09-20T00:00:00.000"},{"station":"IT2215A","station_name":"BENEVENTO ZONA INDUSTRIALE","pollutant":"O3","date":"2025-09-20T00:00:00.000","value":47.5391304348,"Ore_Disponibili":23,"lat":41.2293368,"lon":14.4782074,"date_only":"2025-09-20T00:00:00.000"},{"station":"IT2215A","station_name":"BENEVENTO ZONA INDUSTRIALE","pollutant":"PM10","date":"2025-09-20T00:00:00.000","value":12.9625,"Ore_Disponibili":24,"lat":41.2293368,"lon":14.4782074,"date_only":"2025-09-20T00:00:00.000"},{"station":"IT2215A","station_name":"BENEVENTO ZONA INDUSTRIALE","pollutant":"PM2,5","date":"2025-09-20T00:00:00.000","value":6.5625,"Ore_Disponibili":24,"lat":41.2293368,"lon":14.4782074,"date_only":"2025-09-20T00:00:00.000"},{"station":"IT2216A","station_name":"Casoria Scuola Palizzi (CAM)","pollutant":"NO2","date":"2025-09-20T00:00:00.000","value":22.247826087,"Ore_Disponibili":23,"lat":40.904,"lon":14.289,"date_only":"2025-09-20T00:00:00.000"},{"station":"IT2216A","station_name":"Casoria Scuola Palizzi (CAM)","pollutant":"O3","date":"2025-09-20T00:00:00.000","value":42.6043478261,"Ore_Disponibili":23,"lat":40.904,"lon":14.289,"date_only":"2025-09-20T00:00:00.000"},{"station":"IT2216A","station_name":"Casoria Scuola Palizzi (CAM)","pollutant":"PM10","date":"2025-09-20T00:00:00.000","value":34.3625,"Ore_Disponibili":24,"lat":40.904,"lon":14.289,"date_only":"2025-09-20T00:00:00.000"},{"station":"IT2216A","station_name":"Casoria Scuola Palizzi (CAM)","pollutant":"PM2,5","date":"2025-09-20T00:00:00.000","value":11.275,"Ore_Disponibili":24,"lat":40.904,"lon":14.289,"date_only":"2025-09-20T00:00:00.000"},{"station":"IT2217A","station_name":"Torre Annunziata Scuola Media Pascoli","pollutant":"NO2","date":"2025-09-20T00:00:00.000","value":16.3347826087,"Ore_Disponibili":23,"lat":40.831,"lon":14.426,"date_only":"2025-09-20T00:00:00.000"},{"station":"IT2217A","station_name":"Torre Annunziata Scuola Media Pascoli","pollutant":"O3","date":"2025-09-20T00:00:00.000","value":61.0652173913,"Ore_Disponibili":23,"lat":40.831,"lon":14.426,"date_only":"2025-09-20T00:00:00.000"},{"station":"IT2221A","station_name":"Napoli via Epomeo","pollutant":"NO2","date":"2025-09-20T00:00:00.000","value":19.3347826087,"Ore_Disponibili":23,"lat":40.7205434,"lon":13.8987737,"date_only":"2025-09-20T00:00:00.000"},{"station":"IT2221A","station_name":"Napoli via Epomeo","pollutant":"O3","date":"2025-09-20T00:00:00.000","value":37.0652173913,"Ore_Disponibili":23,"lat":40.7205434,"lon":13.8987737,"date_only":"2025-09-20T00:00:00.000"},{"station":"IT2221A","station_name":"Napoli via Epomeo","pollutant":"PM10","date":"2025-09-20T00:00:00.000","value":14.0333333333,"Ore_Disponibili":24,"lat":40.7205434,"lon":13.8987737,"date_only":"2025-09-20T00:00:00.000"},{"station":"IT2221A","station_name":"Napoli via Epomeo","pollutant":"PM2,5","date":"2025-09-20T00:00:00.000","value":5.5333333333,"Ore_Disponibili":24,"lat":40.7205434,"lon":13.8987737,"date_only":"2025-09-20T00:00:00.000"},{"station":"IT2223A","station_name":"Volla via Filichito","pollutant":"NO2","date":"2025-09-20T00:00:00.000","value":28.2458333333,"Ore_Disponibili":24,"lat":40.8824226,"lon":14.3478545,"date_only":"2025-09-20T00:00:00.000"},{"station":"IT2223A","station_name":"Volla via Filichito","pollutant":"O3","date":"2025-09-20T00:00:00.000","value":26.6086956522,"Ore_Disponibili":23,"lat":40.8824226,"lon":14.3478545,"date_only":"2025-09-20T00:00:00.000"},{"station":"IT2223A","station_name":"Volla via Filichito","pollutant":"PM10","date":"2025-09-20T00:00:00.000","value":17.8416666667,"Ore_Disponibili":24,"lat":40.8824226,"lon":14.3478545,"date_only":"2025-09-20T00:00:00.000"},{"station":"IT2223A","station_name":"Volla via Filichito","pollutant":"PM2,5","date":"2025-09-20T00:00:00.000","value":8.0041666667,"Ore_Disponibili":24,"lat":40.8824226,"lon":14.3478545,"date_only":"2025-09-20T00:00:00.000"},{"station":"IT2270A","station_name":"Portici parco Reggia","pollutant":"NO2","date":"2025-09-20T00:00:00.000","value":28.4695652174,"Ore_Disponibili":23,"lat":40.813588,"lon":14.3476526,"date_only":"2025-09-20T00:00:00.000"},{"station":"IT2270A","station_name":"Portici parco Reggia","pollutant":"O3","date":"2025-09-20T00:00:00.000","value":39.4583333333,"Ore_Disponibili":24,"lat":40.813588,"lon":14.3476526,"date_only":"2025-09-20T00:00:00.000"},{"station":"IT2270A","station_name":"Portici parco Reggia","pollutant":"PM10","date":"2025-09-20T00:00:00.000","value":14.3458333333,"Ore_Disponibili":24,"lat":40.813588,"lon":14.3476526,"date_only":"2025-09-20T00:00:00.000"},{"station":"IT2270A","station_name":"Portici parco Reggia","pollutant":"PM2,5","date":"2025-09-20T00:00:00.000","value":6.0916666667,"Ore_Disponibili":24,"lat":40.813588,"lon":14.3476526,"date_only":"2025-09-20T00:00:00.000"},{"station":"IT2271A","station_name":"Aversa scuola Cirillo","pollutant":"NO2","date":"2025-09-20T00:00:00.000","value":11.9217391304,"Ore_Disponibili":23,"lat":40.9758352,"lon":14.2117669,"date_only":"2025-09-20T00:00:00.000"},{"station":"IT2271A","station_name":"Aversa scuola Cirillo","pollutant":"PM10","date":"2025-09-20T00:00:00.000","value":17.55,"Ore_Disponibili":24,"lat":40.9758352,"lon":14.2117669,"date_only":"2025-09-20T00:00:00.000"},{"station":"IT2271A","station_name":"Aversa scuola Cirillo","pollutant":"PM2,5","date":"2025-09-20T00:00:00.000","value":6.7166666667,"Ore_Disponibili":24,"lat":40.9758352,"lon":14.2117669,"date_only":"2025-09-20T00:00:00.000"},{"station":"IT2272A","station_name":"Pozzuoli ex Villa Avellino","pollutant":"NO2","date":"2025-09-20T00:00:00.000","value":24.7391304348,"Ore_Disponibili":23,"lat":40.834,"lon":14.119,"date_only":"2025-09-20T00:00:00.000"},{"station":"IT2272A","station_name":"Pozzuoli ex Villa Avellino","pollutant":"O3","date":"2025-09-20T00:00:00.000","value":35.9875,"Ore_Disponibili":24,"lat":40.834,"lon":14.119,"date_only":"2025-09-20T00:00:00.000"},{"station":"IT2272A","station_name":"Pozzuoli ex Villa Avellino","pollutant":"PM10","date":"2025-09-20T00:00:00.000","value":14.5625,"Ore_Disponibili":24,"lat":40.834,"lon":14.119,"date_only":"2025-09-20T00:00:00.000"},{"station":"IT2272A","station_name":"Pozzuoli ex Villa Avellino","pollutant":"PM2,5","date":"2025-09-20T00:00:00.000","value":6.0083333333,"Ore_Disponibili":24,"lat":40.834,"lon":14.119,"date_only":"2025-09-20T00:00:00.000"},{"station":"IT2273A","station_name":"Polla Area tritovagliatore","pollutant":"NO2","date":"2025-09-20T00:00:00.000","value":15.5782608696,"Ore_Disponibili":23,"lat":40.412,"lon":15.341,"date_only":"2025-09-20T00:00:00.000"},{"station":"IT2273A","station_name":"Polla Area tritovagliatore","pollutant":"PM10","date":"2025-09-20T00:00:00.000","value":8.5333333333,"Ore_Disponibili":24,"lat":40.412,"lon":15.341,"date_only":"2025-09-20T00:00:00.000"},{"station":"IT2273A","station_name":"Polla Area tritovagliatore","pollutant":"PM2,5","date":"2025-09-20T00:00:00.000","value":3.5666666667,"Ore_Disponibili":24,"lat":40.412,"lon":15.341,"date_only":"2025-09-20T00:00:00.000"},{"station":"IT2276A","station_name":"Ariano Irpino Villa Comunale","pollutant":"NO2","date":"2025-09-20T00:00:00.000","value":2.0125,"Ore_Disponibili":24,"lat":41.1549432,"lon":15.0951624,"date_only":"2025-09-20T00:00:00.000"},{"station":"IT2276A","station_name":"Ariano Irpino Villa Comunale","pollutant":"O3","date":"2025-09-20T00:00:00.000","value":82.752173913,"Ore_Disponibili":23,"lat":41.1549432,"lon":15.0951624,"date_only":"2025-09-20T00:00:00.000"},{"station":"IT2277A","station_name":"Napoli parco Virgiliano","pollutant":"NO2","date":"2025-09-20T00:00:00.000","value":11.5739130435,"Ore_Disponibili":23,"lat":40.7984999,"lon":14.1790765,"date_only":"2025-09-20T00:00:00.000"},{"station":"IT2277A","station_name":"Napoli parco Virgiliano","pollutant":"O3","date":"2025-09-20T00:00:00.000","value":75.65,"Ore_Disponibili":24,"lat":40.7984999,"lon":14.1790765,"date_only":"2025-09-20T00:00:00.000"},{"station":"IT2277A","station_name":"Napoli parco Virgiliano","pollutant":"PM10","date":"2025-09-20T00:00:00.000","value":9.5,"Ore_Disponibili":24,"lat":40.7984999,"lon":14.1790765,"date_only":"2025-09-20T00:00:00.000"},{"station":"IT2277A","station_name":"Napoli parco Virgiliano","pollutant":"PM2,5","date":"2025-09-20T00:00:00.000","value":9.2,"Ore_Disponibili":24,"lat":40.7984999,"lon":14.1790765,"date_only":"2025-09-20T00:00:00.000"},{"station":"IT2283A","station_name":"OTTATI - ALBURNI","pollutant":"NO2","date":"2025-09-20T00:00:00.000","value":2.6347826087,"Ore_Disponibili":23,"lat":40.560311,"lon":15.303957,"date_only":"2025-09-20T00:00:00.000"},{"station":"IT2283A","station_name":"OTTATI - ALBURNI","pollutant":"O3","date":"2025-09-20T00:00:00.000","value":69.1913043478,"Ore_Disponibili":23,"lat":40.560311,"lon":15.303957,"date_only":"2025-09-20T00:00:00.000"},{"station":"IT2283A","station_name":"OTTATI - ALBURNI","pollutant":"PM10","date":"2025-09-20T00:00:00.000","value":16.1,"Ore_Disponibili":24,"lat":40.560311,"lon":15.303957,"date_only":"2025-09-20T00:00:00.000"},{"station":"IT2283A","station_name":"OTTATI - ALBURNI","pollutant":"PM2,5","date":"2025-09-20T00:00:00.000","value":2.9,"Ore_Disponibili":24,"lat":40.560311,"lon":15.303957,"date_only":"2025-09-20T00:00:00.000"}]