[{"station":"IT0898A","station_name":"Napoli NA06 Museo Nazionale","pollutant":"CO","date":"2025-11-28T00:00:00.000","value":0.4558333333,"Ore_Disponibili":24,"lat":40.8536064,"lon":14.25115,"date_only":"2025-11-28T00:00:00.000"},{"station":"IT0898A","station_name":"Napoli NA06 Museo Nazionale","pollutant":"NO2","date":"2025-11-28T00:00:00.000","value":28.52125,"Ore_Disponibili":24,"lat":40.8536064,"lon":14.25115,"date_only":"2025-11-28T00:00:00.000"},{"station":"IT0898A","station_name":"Napoli NA06 Museo Nazionale","pollutant":"PM10","date":"2025-11-28T00:00:00.000","value":4.78,"Ore_Disponibili":10,"lat":40.8536064,"lon":14.25115,"date_only":"2025-11-28T00:00:00.000"},{"station":"IT0898A","station_name":"Napoli NA06 Museo Nazionale","pollutant":"PM2,5","date":"2025-11-28T00:00:00.000","value":3.83,"Ore_Disponibili":10,"lat":40.8536064,"lon":14.25115,"date_only":"2025-11-28T00:00:00.000"},{"station":"IT0934A","station_name":"Benevento BN32 Via Mustilli","pollutant":"NO2","date":"2025-11-28T00:00:00.000","value":19.2387916667,"Ore_Disponibili":24,"lat":41.1317868,"lon":14.7885516,"date_only":"2025-11-28T00:00:00.000"},{"station":"IT0934A","station_name":"Benevento BN32 Via Mustilli","pollutant":"PM10","date":"2025-11-28T00:00:00.000","value":10.7125,"Ore_Disponibili":8,"lat":41.1317868,"lon":14.7885516,"date_only":"2025-11-28T00:00:00.000"},{"station":"IT0934A","station_name":"Benevento BN32 Via Mustilli","pollutant":"PM2,5","date":"2025-11-28T00:00:00.000","value":15.825,"Ore_Disponibili":8,"lat":41.1317868,"lon":14.7885516,"date_only":"2025-11-28T00:00:00.000"},{"station":"IT0936A","station_name":"Avellino AV41 Sc. V Circolo \u00b0","pollutant":"NO2","date":"2025-11-28T00:00:00.000","value":8.1549583333,"Ore_Disponibili":24,"lat":40.9152,"lon":14.7955,"date_only":"2025-11-28T00:00:00.000"},{"station":"IT0936A","station_name":"Avellino AV41 Sc. V Circolo \u00b0","pollutant":"O3","date":"2025-11-28T00:00:00.000","value":38.7666666667,"Ore_Disponibili":24,"lat":40.9152,"lon":14.7955,"date_only":"2025-11-28T00:00:00.000"},{"station":"IT0936A","station_name":"Avellino AV41 Sc. V Circolo \u00b0","pollutant":"PM10","date":"2025-11-28T00:00:00.000","value":5.2929166667,"Ore_Disponibili":24,"lat":40.9152,"lon":14.7955,"date_only":"2025-11-28T00:00:00.000"},{"station":"IT0936A","station_name":"Avellino AV41 Sc. V Circolo \u00b0","pollutant":"PM2,5","date":"2025-11-28T00:00:00.000","value":4.0091666667,"Ore_Disponibili":24,"lat":40.9152,"lon":14.7955,"date_only":"2025-11-28T00:00:00.000"},{"station":"IT1041A","station_name":"Salerno SA23 Scuola Conti \u00b0","pollutant":"NO2","date":"2025-11-28T00:00:00.000","value":8.9494166667,"Ore_Disponibili":24,"lat":40.675,"lon":14.768,"date_only":"2025-11-28T00:00:00.000"},{"station":"IT1041A","station_name":"Salerno SA23 Scuola Conti \u00b0","pollutant":"O3","date":"2025-11-28T00:00:00.000","value":47.0622222222,"Ore_Disponibili":9,"lat":40.675,"lon":14.768,"date_only":"2025-11-28T00:00:00.000"},{"station":"IT1041A","station_name":"Salerno SA23 Scuola Conti \u00b0","pollutant":"PM2,5","date":"2025-11-28T00:00:00.000","value":7.9,"Ore_Disponibili":24,"lat":40.675,"lon":14.768,"date_only":"2025-11-28T00:00:00.000"},{"station":"IT1486A","station_name":"Caserta CE51 Ist. Manzoni","pollutant":"NO2","date":"2025-11-28T00:00:00.000","value":15.73515,"Ore_Disponibili":20,"lat":41.0818,"lon":14.3349,"date_only":"2025-11-28T00:00:00.000"},{"station":"IT1486A","station_name":"Caserta CE51 Ist. Manzoni","pollutant":"O3","date":"2025-11-28T00:00:00.000","value":44.63,"Ore_Disponibili":20,"lat":41.0818,"lon":14.3349,"date_only":"2025-11-28T00:00:00.000"},{"station":"IT1486A","station_name":"Caserta CE51 Ist. Manzoni","pollutant":"PM10","date":"2025-11-28T00:00:00.000","value":3.2428571429,"Ore_Disponibili":7,"lat":41.0818,"lon":14.3349,"date_only":"2025-11-28T00:00:00.000"},{"station":"IT1486A","station_name":"Caserta CE51 Ist. Manzoni","pollutant":"PM2,5","date":"2025-11-28T00:00:00.000","value":3.0375,"Ore_Disponibili":8,"lat":41.0818,"lon":14.3349,"date_only":"2025-11-28T00:00:00.000"},{"station":"IT1487A","station_name":"Caserta CE52 Sc. De Amicis","pollutant":"CO","date":"2025-11-28T00:00:00.000","value":0.3031304348,"Ore_Disponibili":23,"lat":41.0085302,"lon":14.0787912,"date_only":"2025-11-28T00:00:00.000"},{"station":"IT1487A","station_name":"Caserta CE52 Sc. De Amicis","pollutant":"NO2","date":"2025-11-28T00:00:00.000","value":11.9441304348,"Ore_Disponibili":23,"lat":41.0085302,"lon":14.0787912,"date_only":"2025-11-28T00:00:00.000"},{"station":"IT1487A","station_name":"Caserta CE52 Sc. De Amicis","pollutant":"PM10","date":"2025-11-28T00:00:00.000","value":11.1,"Ore_Disponibili":24,"lat":41.0085302,"lon":14.0787912,"date_only":"2025-11-28T00:00:00.000"},{"station":"IT1487A","station_name":"Caserta CE52 Sc. De Amicis","pollutant":"PM2,5","date":"2025-11-28T00:00:00.000","value":3.2,"Ore_Disponibili":24,"lat":41.0085302,"lon":14.0787912,"date_only":"2025-11-28T00:00:00.000"},{"station":"IT1488A","station_name":"Maddaloni CE54 Sc. Settembrini","pollutant":"NO2","date":"2025-11-28T00:00:00.000","value":20.3686086957,"Ore_Disponibili":23,"lat":41.094,"lon":14.402,"date_only":"2025-11-28T00:00:00.000"},{"station":"IT1488A","station_name":"Maddaloni CE54 Sc. Settembrini","pollutant":"O3","date":"2025-11-28T00:00:00.000","value":33.9713043478,"Ore_Disponibili":23,"lat":41.094,"lon":14.402,"date_only":"2025-11-28T00:00:00.000"},{"station":"IT1488A","station_name":"Maddaloni CE54 Sc. Settembrini","pollutant":"PM10","date":"2025-11-28T00:00:00.000","value":16.44875,"Ore_Disponibili":24,"lat":41.094,"lon":14.402,"date_only":"2025-11-28T00:00:00.000"},{"station":"IT1488A","station_name":"Maddaloni CE54 Sc. Settembrini","pollutant":"PM2,5","date":"2025-11-28T00:00:00.000","value":8.8495833333,"Ore_Disponibili":24,"lat":41.094,"lon":14.402,"date_only":"2025-11-28T00:00:00.000"},{"station":"IT1493A","station_name":"Napoli NA09 Via Argine","pollutant":"CO","date":"2025-11-28T00:00:00.000","value":0.686125,"Ore_Disponibili":24,"lat":40.8560636,"lon":14.3234622,"date_only":"2025-11-28T00:00:00.000"},{"station":"IT1493A","station_name":"Napoli NA09 Via Argine","pollutant":"NO2","date":"2025-11-28T00:00:00.000","value":39.81425,"Ore_Disponibili":24,"lat":40.8560636,"lon":14.3234622,"date_only":"2025-11-28T00:00:00.000"},{"station":"IT1493A","station_name":"Napoli NA09 Via Argine","pollutant":"PM10","date":"2025-11-28T00:00:00.000","value":9.7444444444,"Ore_Disponibili":9,"lat":40.8560636,"lon":14.3234622,"date_only":"2025-11-28T00:00:00.000"},{"station":"IT1493A","station_name":"Napoli NA09 Via Argine","pollutant":"PM2,5","date":"2025-11-28T00:00:00.000","value":5.7666666667,"Ore_Disponibili":9,"lat":40.8560636,"lon":14.3234622,"date_only":"2025-11-28T00:00:00.000"},{"station":"IT1495A","station_name":"Napoli NA08 Osp. N. Pellegrini","pollutant":"NO2","date":"2025-11-28T00:00:00.000","value":29.8094583333,"Ore_Disponibili":24,"lat":40.8535,"lon":14.235,"date_only":"2025-11-28T00:00:00.000"},{"station":"IT1495A","station_name":"Napoli NA08 Osp. N. Pellegrini","pollutant":"PM10","date":"2025-11-28T00:00:00.000","value":23.7,"Ore_Disponibili":24,"lat":40.8535,"lon":14.235,"date_only":"2025-11-28T00:00:00.000"},{"station":"IT1496A","station_name":"Napoli NA02 Osp. Santobono \u00b0","pollutant":"NO2","date":"2025-11-28T00:00:00.000","value":35.8639166667,"Ore_Disponibili":24,"lat":40.8554,"lon":14.2231,"date_only":"2025-11-28T00:00:00.000"},{"station":"IT1496A","station_name":"Napoli NA02 Osp. Santobono \u00b0","pollutant":"PM10","date":"2025-11-28T00:00:00.000","value":9.9091666667,"Ore_Disponibili":24,"lat":40.8554,"lon":14.2231,"date_only":"2025-11-28T00:00:00.000"},{"station":"IT1496A","station_name":"Napoli NA02 Osp. Santobono \u00b0","pollutant":"PM2,5","date":"2025-11-28T00:00:00.000","value":5.1145833333,"Ore_Disponibili":24,"lat":40.8554,"lon":14.2231,"date_only":"2025-11-28T00:00:00.000"},{"station":"IT1497A","station_name":"Napoli NA01 Oss. Astronomico","pollutant":"CO","date":"2025-11-28T00:00:00.000","value":0.1691666667,"Ore_Disponibili":24,"lat":40.853,"lon":14.305,"date_only":"2025-11-28T00:00:00.000"},{"station":"IT1497A","station_name":"Napoli NA01 Oss. Astronomico","pollutant":"NO2","date":"2025-11-28T00:00:00.000","value":24.942875,"Ore_Disponibili":24,"lat":40.853,"lon":14.305,"date_only":"2025-11-28T00:00:00.000"},{"station":"IT1497A","station_name":"Napoli NA01 Oss. Astronomico","pollutant":"O3","date":"2025-11-28T00:00:00.000","value":33.727826087,"Ore_Disponibili":23,"lat":40.853,"lon":14.305,"date_only":"2025-11-28T00:00:00.000"},{"station":"IT1497A","station_name":"Napoli NA01 Oss. Astronomico","pollutant":"PM10","date":"2025-11-28T00:00:00.000","value":7.6666666667,"Ore_Disponibili":24,"lat":40.853,"lon":14.305,"date_only":"2025-11-28T00:00:00.000"},{"station":"IT1497A","station_name":"Napoli NA01 Oss. Astronomico","pollutant":"PM2,5","date":"2025-11-28T00:00:00.000","value":4.0866666667,"Ore_Disponibili":24,"lat":40.853,"lon":14.305,"date_only":"2025-11-28T00:00:00.000"},{"station":"IT1504A","station_name":"Salerno SA22 Osp. Via Vernieri","pollutant":"CO","date":"2025-11-28T00:00:00.000","value":0.5405833333,"Ore_Disponibili":24,"lat":40.682,"lon":14.766,"date_only":"2025-11-28T00:00:00.000"},{"station":"IT1504A","station_name":"Salerno SA22 Osp. Via Vernieri","pollutant":"NO2","date":"2025-11-28T00:00:00.000","value":9.5879166667,"Ore_Disponibili":24,"lat":40.682,"lon":14.766,"date_only":"2025-11-28T00:00:00.000"},{"station":"IT1504A","station_name":"Salerno SA22 Osp. Via Vernieri","pollutant":"PM10","date":"2025-11-28T00:00:00.000","value":4.3666666667,"Ore_Disponibili":6,"lat":40.682,"lon":14.766,"date_only":"2025-11-28T00:00:00.000"},{"station":"IT1504A","station_name":"Salerno SA22 Osp. Via Vernieri","pollutant":"PM2,5","date":"2025-11-28T00:00:00.000","value":4.4285714286,"Ore_Disponibili":7,"lat":40.682,"lon":14.766,"date_only":"2025-11-28T00:00:00.000"},{"station":"IT2210A","station_name":"Solofra Zona Industriale","pollutant":"CO","date":"2025-11-28T00:00:00.000","value":0.6299130435,"Ore_Disponibili":23,"lat":41.058,"lon":14.808,"date_only":"2025-11-28T00:00:00.000"},{"station":"IT2210A","station_name":"Solofra Zona Industriale","pollutant":"NO2","date":"2025-11-28T00:00:00.000","value":3.4195217391,"Ore_Disponibili":23,"lat":41.058,"lon":14.808,"date_only":"2025-11-28T00:00:00.000"},{"station":"IT2210A","station_name":"Solofra Zona Industriale","pollutant":"PM10","date":"2025-11-28T00:00:00.000","value":5.4333333333,"Ore_Disponibili":24,"lat":41.058,"lon":14.808,"date_only":"2025-11-28T00:00:00.000"},{"station":"IT2210A","station_name":"Solofra Zona Industriale","pollutant":"PM2,5","date":"2025-11-28T00:00:00.000","value":3.9620833333,"Ore_Disponibili":24,"lat":41.058,"lon":14.808,"date_only":"2025-11-28T00:00:00.000"},{"station":"IT2211A","station_name":"Acerra Zona Industriale","pollutant":"CO","date":"2025-11-28T00:00:00.000","value":0.3521304348,"Ore_Disponibili":23,"lat":40.9847962,"lon":14.3679606,"date_only":"2025-11-28T00:00:00.000"},{"station":"IT2211A","station_name":"Acerra Zona Industriale","pollutant":"NO2","date":"2025-11-28T00:00:00.000","value":24.6669,"Ore_Disponibili":20,"lat":40.9847962,"lon":14.3679606,"date_only":"2025-11-28T00:00:00.000"},{"station":"IT2211A","station_name":"Acerra Zona Industriale","pollutant":"PM10","date":"2025-11-28T00:00:00.000","value":10.7,"Ore_Disponibili":24,"lat":40.9847962,"lon":14.3679606,"date_only":"2025-11-28T00:00:00.000"},{"station":"IT2211A","station_name":"Acerra Zona Industriale","pollutant":"PM2,5","date":"2025-11-28T00:00:00.000","value":4.2,"Ore_Disponibili":24,"lat":40.9847962,"lon":14.3679606,"date_only":"2025-11-28T00:00:00.000"},{"station":"IT2212A","station_name":"S. Vitaliano Scuola Marconi","pollutant":"NO2","date":"2025-11-28T00:00:00.000","value":24.0103478261,"Ore_Disponibili":23,"lat":40.896,"lon":14.46,"date_only":"2025-11-28T00:00:00.000"},{"station":"IT2212A","station_name":"S. Vitaliano Scuola Marconi","pollutant":"O3","date":"2025-11-28T00:00:00.000","value":42.5982608696,"Ore_Disponibili":23,"lat":40.896,"lon":14.46,"date_only":"2025-11-28T00:00:00.000"},{"station":"IT2212A","station_name":"S. Vitaliano Scuola Marconi","pollutant":"PM10","date":"2025-11-28T00:00:00.000","value":12.9658333333,"Ore_Disponibili":24,"lat":40.896,"lon":14.46,"date_only":"2025-11-28T00:00:00.000"},{"station":"IT2212A","station_name":"S. Vitaliano Scuola Marconi","pollutant":"PM2,5","date":"2025-11-28T00:00:00.000","value":9.33,"Ore_Disponibili":24,"lat":40.896,"lon":14.46,"date_only":"2025-11-28T00:00:00.000"},{"station":"IT2213A","station_name":"Cava dei Tirreni Stadio","pollutant":"CO","date":"2025-11-28T00:00:00.000","value":0.5213478261,"Ore_Disponibili":23,"lat":40.7125,"lon":14.638,"date_only":"2025-11-28T00:00:00.000"},{"station":"IT2213A","station_name":"Cava dei Tirreni Stadio","pollutant":"NO2","date":"2025-11-28T00:00:00.000","value":10.0999130435,"Ore_Disponibili":23,"lat":40.7125,"lon":14.638,"date_only":"2025-11-28T00:00:00.000"},{"station":"IT2213A","station_name":"Cava dei Tirreni Stadio","pollutant":"O3","date":"2025-11-28T00:00:00.000","value":46.6191304348,"Ore_Disponibili":23,"lat":40.7125,"lon":14.638,"date_only":"2025-11-28T00:00:00.000"},{"station":"IT2213A","station_name":"Cava dei Tirreni Stadio","pollutant":"PM10","date":"2025-11-28T00:00:00.000","value":7.6029166667,"Ore_Disponibili":24,"lat":40.7125,"lon":14.638,"date_only":"2025-11-28T00:00:00.000"},{"station":"IT2213A","station_name":"Cava dei Tirreni Stadio","pollutant":"PM2,5","date":"2025-11-28T00:00:00.000","value":5.2404166667,"Ore_Disponibili":24,"lat":40.7125,"lon":14.638,"date_only":"2025-11-28T00:00:00.000"},{"station":"IT2214A","station_name":"Nocera Inferiore Sc. Solimena","pollutant":"CO","date":"2025-11-28T00:00:00.000","value":0.3343478261,"Ore_Disponibili":23,"lat":40.7473393,"lon":14.6410145,"date_only":"2025-11-28T00:00:00.000"},{"station":"IT2214A","station_name":"Nocera Inferiore Sc. Solimena","pollutant":"NO2","date":"2025-11-28T00:00:00.000","value":14.1962608696,"Ore_Disponibili":23,"lat":40.7473393,"lon":14.6410145,"date_only":"2025-11-28T00:00:00.000"},{"station":"IT2214A","station_name":"Nocera Inferiore Sc. Solimena","pollutant":"PM10","date":"2025-11-28T00:00:00.000","value":6.9754166667,"Ore_Disponibili":24,"lat":40.7473393,"lon":14.6410145,"date_only":"2025-11-28T00:00:00.000"},{"station":"IT2214A","station_name":"Nocera Inferiore Sc. Solimena","pollutant":"PM2,5","date":"2025-11-28T00:00:00.000","value":4.3541666667,"Ore_Disponibili":24,"lat":40.7473393,"lon":14.6410145,"date_only":"2025-11-28T00:00:00.000"},{"station":"IT2215A","station_name":"Benevento Zona Industriale \u00b0","pollutant":"NO2","date":"2025-11-28T00:00:00.000","value":10.4754,"Ore_Disponibili":15,"lat":41.2293368,"lon":14.4782074,"date_only":"2025-11-28T00:00:00.000"},{"station":"IT2215A","station_name":"Benevento Zona Industriale \u00b0","pollutant":"O3","date":"2025-11-28T00:00:00.000","value":39.0695652174,"Ore_Disponibili":23,"lat":41.2293368,"lon":14.4782074,"date_only":"2025-11-28T00:00:00.000"},{"station":"IT2215A","station_name":"Benevento Zona Industriale \u00b0","pollutant":"PM10","date":"2025-11-28T00:00:00.000","value":6.0016666667,"Ore_Disponibili":24,"lat":41.2293368,"lon":14.4782074,"date_only":"2025-11-28T00:00:00.000"},{"station":"IT2215A","station_name":"Benevento Zona Industriale \u00b0","pollutant":"PM2,5","date":"2025-11-28T00:00:00.000","value":4.195,"Ore_Disponibili":24,"lat":41.2293368,"lon":14.4782074,"date_only":"2025-11-28T00:00:00.000"},{"station":"IT2216A","station_name":"Casoria Scuola Palizzi","pollutant":"NO2","date":"2025-11-28T00:00:00.000","value":23.1884782609,"Ore_Disponibili":23,"lat":40.904,"lon":14.289,"date_only":"2025-11-28T00:00:00.000"},{"station":"IT2216A","station_name":"Casoria Scuola Palizzi","pollutant":"O3","date":"2025-11-28T00:00:00.000","value":25.6591304348,"Ore_Disponibili":23,"lat":40.904,"lon":14.289,"date_only":"2025-11-28T00:00:00.000"},{"station":"IT2216A","station_name":"Casoria Scuola Palizzi","pollutant":"PM10","date":"2025-11-28T00:00:00.000","value":20.34,"Ore_Disponibili":24,"lat":40.904,"lon":14.289,"date_only":"2025-11-28T00:00:00.000"},{"station":"IT2216A","station_name":"Casoria Scuola Palizzi","pollutant":"PM2,5","date":"2025-11-28T00:00:00.000","value":10.7116666667,"Ore_Disponibili":24,"lat":40.904,"lon":14.289,"date_only":"2025-11-28T00:00:00.000"},{"station":"IT2217A","station_name":"Torre Annunziata Sc. Pascoli","pollutant":"NO2","date":"2025-11-28T00:00:00.000","value":19.2482173913,"Ore_Disponibili":23,"lat":40.7469754,"lon":14.4608234,"date_only":"2025-11-28T00:00:00.000"},{"station":"IT2217A","station_name":"Torre Annunziata Sc. Pascoli","pollutant":"O3","date":"2025-11-28T00:00:00.000","value":32.6434782609,"Ore_Disponibili":23,"lat":40.7469754,"lon":14.4608234,"date_only":"2025-11-28T00:00:00.000"},{"station":"IT2218A","station_name":"San Felice a Cancello C. Scolast.","pollutant":"CO","date":"2025-11-28T00:00:00.000","value":0.2176666667,"Ore_Disponibili":15,"lat":41.015,"lon":14.287,"date_only":"2025-11-28T00:00:00.000"},{"station":"IT2218A","station_name":"San Felice a Cancello C. Scolast.","pollutant":"NO2","date":"2025-11-28T00:00:00.000","value":3.9887647059,"Ore_Disponibili":17,"lat":41.015,"lon":14.287,"date_only":"2025-11-28T00:00:00.000"},{"station":"IT2218A","station_name":"San Felice a Cancello C. Scolast.","pollutant":"O3","date":"2025-11-28T00:00:00.000","value":53.1536363636,"Ore_Disponibili":22,"lat":41.015,"lon":14.287,"date_only":"2025-11-28T00:00:00.000"},{"station":"IT2218A","station_name":"San Felice a Cancello C. Scolast.","pollutant":"PM10","date":"2025-11-28T00:00:00.000","value":6.63625,"Ore_Disponibili":24,"lat":41.015,"lon":14.287,"date_only":"2025-11-28T00:00:00.000"},{"station":"IT2218A","station_name":"San Felice a Cancello C. Scolast.","pollutant":"PM2,5","date":"2025-11-28T00:00:00.000","value":4.4045833333,"Ore_Disponibili":24,"lat":41.015,"lon":14.287,"date_only":"2025-11-28T00:00:00.000"},{"station":"IT2219A","station_name":"Acerra Scuola Caporale","pollutant":"CO","date":"2025-11-28T00:00:00.000","value":0.5046086957,"Ore_Disponibili":23,"lat":40.9071,"lon":14.3429,"date_only":"2025-11-28T00:00:00.000"},{"station":"IT2219A","station_name":"Acerra Scuola Caporale","pollutant":"NO2","date":"2025-11-28T00:00:00.000","value":24.3121428571,"Ore_Disponibili":21,"lat":40.9071,"lon":14.3429,"date_only":"2025-11-28T00:00:00.000"},{"station":"IT2219A","station_name":"Acerra Scuola Caporale","pollutant":"PM10","date":"2025-11-28T00:00:00.000","value":15.1995833333,"Ore_Disponibili":24,"lat":40.9071,"lon":14.3429,"date_only":"2025-11-28T00:00:00.000"},{"station":"IT2219A","station_name":"Acerra Scuola Caporale","pollutant":"PM2,5","date":"2025-11-28T00:00:00.000","value":8.8041666667,"Ore_Disponibili":24,"lat":40.9071,"lon":14.3429,"date_only":"2025-11-28T00:00:00.000"},{"station":"IT2221A","station_name":"Napoli via Epomeo *\u00b0","pollutant":"CO","date":"2025-11-28T00:00:00.000","value":0.442,"Ore_Disponibili":24,"lat":40.7205434,"lon":13.8987737,"date_only":"2025-11-28T00:00:00.000"},{"station":"IT2221A","station_name":"Napoli via Epomeo *\u00b0","pollutant":"NO2","date":"2025-11-28T00:00:00.000","value":25.4775833333,"Ore_Disponibili":24,"lat":40.7205434,"lon":13.8987737,"date_only":"2025-11-28T00:00:00.000"},{"station":"IT2221A","station_name":"Napoli via Epomeo *\u00b0","pollutant":"O3","date":"2025-11-28T00:00:00.000","value":27.9191666667,"Ore_Disponibili":24,"lat":40.7205434,"lon":13.8987737,"date_only":"2025-11-28T00:00:00.000"},{"station":"IT2221A","station_name":"Napoli via Epomeo *\u00b0","pollutant":"PM10","date":"2025-11-28T00:00:00.000","value":11.7666666667,"Ore_Disponibili":24,"lat":40.7205434,"lon":13.8987737,"date_only":"2025-11-28T00:00:00.000"},{"station":"IT2221A","station_name":"Napoli via Epomeo *\u00b0","pollutant":"PM2,5","date":"2025-11-28T00:00:00.000","value":7.7658333333,"Ore_Disponibili":24,"lat":40.7205434,"lon":13.8987737,"date_only":"2025-11-28T00:00:00.000"},{"station":"IT2223A","station_name":"Volla Via Filichito *\u00b0","pollutant":"CO","date":"2025-11-28T00:00:00.000","value":0.2540833333,"Ore_Disponibili":24,"lat":40.8824226,"lon":14.3478545,"date_only":"2025-11-28T00:00:00.000"},{"station":"IT2223A","station_name":"Volla Via Filichito *\u00b0","pollutant":"NO2","date":"2025-11-28T00:00:00.000","value":31.8963478261,"Ore_Disponibili":23,"lat":40.8824226,"lon":14.3478545,"date_only":"2025-11-28T00:00:00.000"},{"station":"IT2223A","station_name":"Volla Via Filichito *\u00b0","pollutant":"O3","date":"2025-11-28T00:00:00.000","value":24.2666666667,"Ore_Disponibili":24,"lat":40.8824226,"lon":14.3478545,"date_only":"2025-11-28T00:00:00.000"},{"station":"IT2223A","station_name":"Volla Via Filichito *\u00b0","pollutant":"PM10","date":"2025-11-28T00:00:00.000","value":8.9470833333,"Ore_Disponibili":24,"lat":40.8824226,"lon":14.3478545,"date_only":"2025-11-28T00:00:00.000"},{"station":"IT2223A","station_name":"Volla Via Filichito *\u00b0","pollutant":"PM2,5","date":"2025-11-28T00:00:00.000","value":6.5908333333,"Ore_Disponibili":24,"lat":40.8824226,"lon":14.3478545,"date_only":"2025-11-28T00:00:00.000"},{"station":"IT2226A","station_name":"Pomigliano d'Arco Area Asi","pollutant":"CO","date":"2025-11-28T00:00:00.000","value":0.368,"Ore_Disponibili":23,"lat":40.412,"lon":15.341,"date_only":"2025-11-28T00:00:00.000"},{"station":"IT2226A","station_name":"Pomigliano d'Arco Area Asi","pollutant":"NO2","date":"2025-11-28T00:00:00.000","value":29.2383478261,"Ore_Disponibili":23,"lat":40.412,"lon":15.341,"date_only":"2025-11-28T00:00:00.000"},{"station":"IT2226A","station_name":"Pomigliano d'Arco Area Asi","pollutant":"PM10","date":"2025-11-28T00:00:00.000","value":7.73,"Ore_Disponibili":10,"lat":40.412,"lon":15.341,"date_only":"2025-11-28T00:00:00.000"},{"station":"IT2226A","station_name":"Pomigliano d'Arco Area Asi","pollutant":"PM2,5","date":"2025-11-28T00:00:00.000","value":5.975,"Ore_Disponibili":8,"lat":40.412,"lon":15.341,"date_only":"2025-11-28T00:00:00.000"},{"station":"IT2227A","station_name":"Avellino Scuola Alighieri","pollutant":"CO","date":"2025-11-28T00:00:00.000","value":0.577625,"Ore_Disponibili":24,"lat":40.9190395,"lon":14.784947,"date_only":"2025-11-28T00:00:00.000"},{"station":"IT2227A","station_name":"Avellino Scuola Alighieri","pollutant":"NO2","date":"2025-11-28T00:00:00.000","value":20.6058333333,"Ore_Disponibili":24,"lat":40.9190395,"lon":14.784947,"date_only":"2025-11-28T00:00:00.000"},{"station":"IT2227A","station_name":"Avellino Scuola Alighieri","pollutant":"PM10","date":"2025-11-28T00:00:00.000","value":3.2395833333,"Ore_Disponibili":24,"lat":40.9190395,"lon":14.784947,"date_only":"2025-11-28T00:00:00.000"},{"station":"IT2227A","station_name":"Avellino Scuola Alighieri","pollutant":"PM2,5","date":"2025-11-28T00:00:00.000","value":2.2120833333,"Ore_Disponibili":24,"lat":40.9190395,"lon":14.784947,"date_only":"2025-11-28T00:00:00.000"},{"station":"IT2228A","station_name":"Benevento Campo Sportivo","pollutant":"NO2","date":"2025-11-28T00:00:00.000","value":13.1405416667,"Ore_Disponibili":24,"lat":41.2315276,"lon":14.5332703,"date_only":"2025-11-28T00:00:00.000"},{"station":"IT2228A","station_name":"Benevento Campo Sportivo","pollutant":"O3","date":"2025-11-28T00:00:00.000","value":40.5125,"Ore_Disponibili":24,"lat":41.2315276,"lon":14.5332703,"date_only":"2025-11-28T00:00:00.000"},{"station":"IT2228A","station_name":"Benevento Campo Sportivo","pollutant":"PM10","date":"2025-11-28T00:00:00.000","value":8.1629166667,"Ore_Disponibili":24,"lat":41.2315276,"lon":14.5332703,"date_only":"2025-11-28T00:00:00.000"},{"station":"IT2228A","station_name":"Benevento Campo Sportivo","pollutant":"PM2,5","date":"2025-11-28T00:00:00.000","value":6.0033333333,"Ore_Disponibili":24,"lat":41.2315276,"lon":14.5332703,"date_only":"2025-11-28T00:00:00.000"},{"station":"IT2268A","station_name":"Battipaglia Parco Fiume","pollutant":"NO2","date":"2025-11-28T00:00:00.000","value":19.8547826087,"Ore_Disponibili":23,"lat":40.6167,"lon":14.9833,"date_only":"2025-11-28T00:00:00.000"},{"station":"IT2268A","station_name":"Battipaglia Parco Fiume","pollutant":"O3","date":"2025-11-28T00:00:00.000","value":30.3643478261,"Ore_Disponibili":23,"lat":40.6167,"lon":14.9833,"date_only":"2025-11-28T00:00:00.000"},{"station":"IT2268A","station_name":"Battipaglia Parco Fiume","pollutant":"PM10","date":"2025-11-28T00:00:00.000","value":5.0,"Ore_Disponibili":24,"lat":40.6167,"lon":14.9833,"date_only":"2025-11-28T00:00:00.000"},{"station":"IT2268A","station_name":"Battipaglia Parco Fiume","pollutant":"PM2,5","date":"2025-11-28T00:00:00.000","value":7.0,"Ore_Disponibili":24,"lat":40.6167,"lon":14.9833,"date_only":"2025-11-28T00:00:00.000"},{"station":"IT2270A","station_name":"Portici Parco Reggia","pollutant":"NO2","date":"2025-11-28T00:00:00.000","value":21.841173913,"Ore_Disponibili":23,"lat":40.813588,"lon":14.3476526,"date_only":"2025-11-28T00:00:00.000"},{"station":"IT2270A","station_name":"Portici Parco Reggia","pollutant":"PM10","date":"2025-11-28T00:00:00.000","value":10.3904166667,"Ore_Disponibili":24,"lat":40.813588,"lon":14.3476526,"date_only":"2025-11-28T00:00:00.000"},{"station":"IT2270A","station_name":"Portici Parco Reggia","pollutant":"PM2,5","date":"2025-11-28T00:00:00.000","value":7.7545833333,"Ore_Disponibili":24,"lat":40.813588,"lon":14.3476526,"date_only":"2025-11-28T00:00:00.000"},{"station":"IT2271A","station_name":"Aversa Scuola Cirillo \u00b0","pollutant":"CO","date":"2025-11-28T00:00:00.000","value":0.5726666667,"Ore_Disponibili":21,"lat":40.9758352,"lon":14.2117669,"date_only":"2025-11-28T00:00:00.000"},{"station":"IT2271A","station_name":"Aversa Scuola Cirillo \u00b0","pollutant":"NO2","date":"2025-11-28T00:00:00.000","value":80.2657,"Ore_Disponibili":10,"lat":40.9758352,"lon":14.2117669,"date_only":"2025-11-28T00:00:00.000"},{"station":"IT2271A","station_name":"Aversa Scuola Cirillo \u00b0","pollutant":"PM10","date":"2025-11-28T00:00:00.000","value":18.5775,"Ore_Disponibili":24,"lat":40.9758352,"lon":14.2117669,"date_only":"2025-11-28T00:00:00.000"},{"station":"IT2271A","station_name":"Aversa Scuola Cirillo \u00b0","pollutant":"PM2,5","date":"2025-11-28T00:00:00.000","value":12.80375,"Ore_Disponibili":24,"lat":40.9758352,"lon":14.2117669,"date_only":"2025-11-28T00:00:00.000"},{"station":"IT2272A","station_name":"Pozzuoli Zona Villa Avellino","pollutant":"NO2","date":"2025-11-28T00:00:00.000","value":18.4653913043,"Ore_Disponibili":23,"lat":40.834,"lon":14.119,"date_only":"2025-11-28T00:00:00.000"},{"station":"IT2272A","station_name":"Pozzuoli Zona Villa Avellino","pollutant":"O3","date":"2025-11-28T00:00:00.000","value":31.2052173913,"Ore_Disponibili":23,"lat":40.834,"lon":14.119,"date_only":"2025-11-28T00:00:00.000"},{"station":"IT2272A","station_name":"Pozzuoli Zona Villa Avellino","pollutant":"PM10","date":"2025-11-28T00:00:00.000","value":8.9560869565,"Ore_Disponibili":23,"lat":40.834,"lon":14.119,"date_only":"2025-11-28T00:00:00.000"},{"station":"IT2272A","station_name":"Pozzuoli Zona Villa Avellino","pollutant":"PM2,5","date":"2025-11-28T00:00:00.000","value":5.1591304348,"Ore_Disponibili":23,"lat":40.834,"lon":14.119,"date_only":"2025-11-28T00:00:00.000"},{"station":"IT2273A","station_name":"Polla Area Tritovagliatore","pollutant":"CO","date":"2025-11-28T00:00:00.000","value":0.4022173913,"Ore_Disponibili":23,"lat":40.412,"lon":15.341,"date_only":"2025-11-28T00:00:00.000"},{"station":"IT2273A","station_name":"Polla Area Tritovagliatore","pollutant":"NO2","date":"2025-11-28T00:00:00.000","value":19.1122173913,"Ore_Disponibili":23,"lat":40.412,"lon":15.341,"date_only":"2025-11-28T00:00:00.000"},{"station":"IT2273A","station_name":"Polla Area Tritovagliatore","pollutant":"PM10","date":"2025-11-28T00:00:00.000","value":6.1370833333,"Ore_Disponibili":24,"lat":40.412,"lon":15.341,"date_only":"2025-11-28T00:00:00.000"},{"station":"IT2273A","station_name":"Polla Area Tritovagliatore","pollutant":"PM2,5","date":"2025-11-28T00:00:00.000","value":4.9479166667,"Ore_Disponibili":24,"lat":40.412,"lon":15.341,"date_only":"2025-11-28T00:00:00.000"},{"station":"IT2276A","station_name":"Ariano Irpino Stadio","pollutant":"CO","date":"2025-11-28T00:00:00.000","value":0.2613125,"Ore_Disponibili":16,"lat":41.1555975,"lon":15.0967062,"date_only":"2025-11-28T00:00:00.000"},{"station":"IT2276A","station_name":"Ariano Irpino Stadio","pollutant":"NO2","date":"2025-11-28T00:00:00.000","value":4.6474545455,"Ore_Disponibili":22,"lat":41.1555975,"lon":15.0967062,"date_only":"2025-11-28T00:00:00.000"},{"station":"IT2276A","station_name":"Ariano Irpino Stadio","pollutant":"O3","date":"2025-11-28T00:00:00.000","value":57.0269565217,"Ore_Disponibili":23,"lat":41.1555975,"lon":15.0967062,"date_only":"2025-11-28T00:00:00.000"},{"station":"IT2277A","station_name":"Napoli Parco Virgiliano","pollutant":"CO","date":"2025-11-28T00:00:00.000","value":0.3092916667,"Ore_Disponibili":24,"lat":40.7984999,"lon":14.1790765,"date_only":"2025-11-28T00:00:00.000"},{"station":"IT2277A","station_name":"Napoli Parco Virgiliano","pollutant":"NO2","date":"2025-11-28T00:00:00.000","value":13.7540869565,"Ore_Disponibili":23,"lat":40.7984999,"lon":14.1790765,"date_only":"2025-11-28T00:00:00.000"},{"station":"IT2277A","station_name":"Napoli Parco Virgiliano","pollutant":"O3","date":"2025-11-28T00:00:00.000","value":42.0116666667,"Ore_Disponibili":24,"lat":40.7984999,"lon":14.1790765,"date_only":"2025-11-28T00:00:00.000"},{"station":"IT2277A","station_name":"Napoli Parco Virgiliano","pollutant":"PM10","date":"2025-11-28T00:00:00.000","value":4.6,"Ore_Disponibili":24,"lat":40.7984999,"lon":14.1790765,"date_only":"2025-11-28T00:00:00.000"},{"station":"IT2277A","station_name":"Napoli Parco Virgiliano","pollutant":"PM2,5","date":"2025-11-28T00:00:00.000","value":3.0,"Ore_Disponibili":24,"lat":40.7984999,"lon":14.1790765,"date_only":"2025-11-28T00:00:00.000"},{"station":"IT2283A","station_name":"Ottati Alburni","pollutant":"NO2","date":"2025-11-28T00:00:00.000","value":1.5318695652,"Ore_Disponibili":23,"lat":40.306,"lon":15.277,"date_only":"2025-11-28T00:00:00.000"},{"station":"IT2283A","station_name":"Ottati Alburni","pollutant":"O3","date":"2025-11-28T00:00:00.000","value":54.87,"Ore_Disponibili":24,"lat":40.306,"lon":15.277,"date_only":"2025-11-28T00:00:00.000"},{"station":"IT2283A","station_name":"Ottati Alburni","pollutant":"PM10","date":"2025-11-28T00:00:00.000","value":3.7,"Ore_Disponibili":24,"lat":40.306,"lon":15.277,"date_only":"2025-11-28T00:00:00.000"}]