[{"station":"IT0898A","station_name":"NA06 MUSEO NAZIONALE","pollutant":"NO2","date":"2025-05-25","value":20.1695652174,"Ore_Disponibili":23,"lat":40.8536064,"lon":14.25115,"date_only":"2025-05-25T00:00:00.000"},{"station":"IT0898A","station_name":"NA06 MUSEO NAZIONALE","pollutant":"PM10","date":"2025-05-25","value":17.85,"Ore_Disponibili":24,"lat":40.8536064,"lon":14.25115,"date_only":"2025-05-25T00:00:00.000"},{"station":"IT0934A","station_name":"BN32 Via Mustilli","pollutant":"NO2","date":"2025-05-25","value":12.1652173913,"Ore_Disponibili":23,"lat":41.7572524,"lon":12.3201661,"date_only":"2025-05-25T00:00:00.000"},{"station":"IT0934A","station_name":"BN32 Via Mustilli","pollutant":"PM10","date":"2025-05-25","value":14.375,"Ore_Disponibili":24,"lat":41.7572524,"lon":12.3201661,"date_only":"2025-05-25T00:00:00.000"},{"station":"IT0936A","station_name":"AV41 SCUOLA V CIRCOLO","pollutant":"NO2","date":"2025-05-25","value":7.2565217391,"Ore_Disponibili":23,"lat":43.8951992,"lon":11.3222381,"date_only":"2025-05-25T00:00:00.000"},{"station":"IT0936A","station_name":"AV41 SCUOLA V CIRCOLO","pollutant":"O3","date":"2025-05-25","value":83.5565217391,"Ore_Disponibili":23,"lat":43.8951992,"lon":11.3222381,"date_only":"2025-05-25T00:00:00.000"},{"station":"IT0936A","station_name":"AV41 SCUOLA V CIRCOLO","pollutant":"PM10","date":"2025-05-25","value":9.8541666667,"Ore_Disponibili":24,"lat":43.8951992,"lon":11.3222381,"date_only":"2025-05-25T00:00:00.000"},{"station":"IT1041A","station_name":"SA23 SCUOLA OSVALDO CONTI","pollutant":"NO2","date":"2025-05-25","value":12.2541666667,"Ore_Disponibili":24,"lat":41.058,"lon":14.808,"date_only":"2025-05-25T00:00:00.000"},{"station":"IT1041A","station_name":"SA23 SCUOLA OSVALDO CONTI","pollutant":"O3","date":"2025-05-25","value":77.5086956522,"Ore_Disponibili":23,"lat":41.058,"lon":14.808,"date_only":"2025-05-25T00:00:00.000"},{"station":"IT1486A","station_name":"CE51 ISTITUTO MANZONI","pollutant":"NO2","date":"2025-05-25","value":5.8260869565,"Ore_Disponibili":23,"lat":41.0818,"lon":14.3349,"date_only":"2025-05-25T00:00:00.000"},{"station":"IT1486A","station_name":"CE51 ISTITUTO MANZONI","pollutant":"O3","date":"2025-05-25","value":85.9130434783,"Ore_Disponibili":23,"lat":41.0818,"lon":14.3349,"date_only":"2025-05-25T00:00:00.000"},{"station":"IT1486A","station_name":"CE51 ISTITUTO MANZONI","pollutant":"PM10","date":"2025-05-25","value":12.3291666667,"Ore_Disponibili":24,"lat":41.0818,"lon":14.3349,"date_only":"2025-05-25T00:00:00.000"},{"station":"IT1487A","station_name":"CE52 SCUOLA DE AMICIS","pollutant":"NO2","date":"2025-05-25","value":3.9043478261,"Ore_Disponibili":23,"lat":45.4166851,"lon":11.8748262,"date_only":"2025-05-25T00:00:00.000"},{"station":"IT1487A","station_name":"CE52 SCUOLA DE AMICIS","pollutant":"PM10","date":"2025-05-25","value":16.9,"Ore_Disponibili":24,"lat":45.4166851,"lon":11.8748262,"date_only":"2025-05-25T00:00:00.000"},{"station":"IT1488A","station_name":"CE54 SCUOLA SETTEMBRINI","pollutant":"NO2","date":"2025-05-25","value":8.0217391304,"Ore_Disponibili":23,"lat":40.7402509,"lon":14.6724943,"date_only":"2025-05-25T00:00:00.000"},{"station":"IT1488A","station_name":"CE54 SCUOLA SETTEMBRINI","pollutant":"O3","date":"2025-05-25","value":88.6652173913,"Ore_Disponibili":23,"lat":40.7402509,"lon":14.6724943,"date_only":"2025-05-25T00:00:00.000"},{"station":"IT1488A","station_name":"CE54 SCUOLA SETTEMBRINI","pollutant":"PM10","date":"2025-05-25","value":12.0583333333,"Ore_Disponibili":24,"lat":40.7402509,"lon":14.6724943,"date_only":"2025-05-25T00:00:00.000"},{"station":"IT1491A","station_name":"NA07 ENTE FERROVIE","pollutant":"NO2","date":"2025-05-25","value":19.9260869565,"Ore_Disponibili":23,"lat":45.6541955,"lon":13.7741392,"date_only":"2025-05-25T00:00:00.000"},{"station":"IT1491A","station_name":"NA07 ENTE FERROVIE","pollutant":"PM10","date":"2025-05-25","value":11.1125,"Ore_Disponibili":16,"lat":45.6541955,"lon":13.7741392,"date_only":"2025-05-25T00:00:00.000"},{"station":"IT1493A","station_name":"NA09 I.T.I.S. ARGINE","pollutant":"NO2","date":"2025-05-25","value":24.5608695652,"Ore_Disponibili":23,"lat":44.7377462,"lon":11.6477031,"date_only":"2025-05-25T00:00:00.000"},{"station":"IT1493A","station_name":"NA09 I.T.I.S. ARGINE","pollutant":"PM10","date":"2025-05-25","value":15.9142857143,"Ore_Disponibili":14,"lat":44.7377462,"lon":11.6477031,"date_only":"2025-05-25T00:00:00.000"},{"station":"IT1495A","station_name":"NA08 OSPEDALE NUOVO PELLEGRINI","pollutant":"NO2","date":"2025-05-25","value":19.5347826087,"Ore_Disponibili":23,"lat":40.8535,"lon":14.235,"date_only":"2025-05-25T00:00:00.000"},{"station":"IT1495A","station_name":"NA08 OSPEDALE NUOVO PELLEGRINI","pollutant":"PM10","date":"2025-05-25","value":27.6,"Ore_Disponibili":24,"lat":40.8535,"lon":14.235,"date_only":"2025-05-25T00:00:00.000"},{"station":"IT1496A","station_name":"NA02 OSPEDALE SANTOBONO","pollutant":"NO2","date":"2025-05-25","value":23.4565217391,"Ore_Disponibili":23,"lat":40.8615516,"lon":14.2278503,"date_only":"2025-05-25T00:00:00.000"},{"station":"IT1496A","station_name":"NA02 OSPEDALE SANTOBONO","pollutant":"PM10","date":"2025-05-25","value":14.025,"Ore_Disponibili":24,"lat":40.8615516,"lon":14.2278503,"date_only":"2025-05-25T00:00:00.000"},{"station":"IT1497A","station_name":"NA01 OSSERVATORIO ASTRONOMICO","pollutant":"NO2","date":"2025-05-25","value":11.9916666667,"Ore_Disponibili":24,"lat":46.0863714,"lon":13.3165669,"date_only":"2025-05-25T00:00:00.000"},{"station":"IT1497A","station_name":"NA01 OSSERVATORIO ASTRONOMICO","pollutant":"O3","date":"2025-05-25","value":92.5,"Ore_Disponibili":23,"lat":46.0863714,"lon":13.3165669,"date_only":"2025-05-25T00:00:00.000"},{"station":"IT1497A","station_name":"NA01 OSSERVATORIO ASTRONOMICO","pollutant":"PM10","date":"2025-05-25","value":11.2416666667,"Ore_Disponibili":24,"lat":46.0863714,"lon":13.3165669,"date_only":"2025-05-25T00:00:00.000"},{"station":"IT1504A","station_name":"SA22 Ospedale via Vernieri","pollutant":"NO2","date":"2025-05-25","value":5.5652173913,"Ore_Disponibili":23,"lat":40.682,"lon":14.766,"date_only":"2025-05-25T00:00:00.000"},{"station":"IT1504A","station_name":"SA22 Ospedale via Vernieri","pollutant":"PM10","date":"2025-05-25","value":11.1125,"Ore_Disponibili":24,"lat":40.682,"lon":14.766,"date_only":"2025-05-25T00:00:00.000"},{"station":"IT2210A","station_name":"SOLOFRA ZONA INDUSTRIALE","pollutant":"NO2","date":"2025-05-25","value":1.3434782609,"Ore_Disponibili":23,"lat":41.058,"lon":14.808,"date_only":"2025-05-25T00:00:00.000"},{"station":"IT2210A","station_name":"SOLOFRA ZONA INDUSTRIALE","pollutant":"PM10","date":"2025-05-25","value":10.0,"Ore_Disponibili":24,"lat":41.058,"lon":14.808,"date_only":"2025-05-25T00:00:00.000"},{"station":"IT2211A","station_name":"ACERRA ZONA INDUSTRIALE","pollutant":"NO2","date":"2025-05-25","value":22.7652173913,"Ore_Disponibili":23,"lat":40.9847962,"lon":14.3679606,"date_only":"2025-05-25T00:00:00.000"},{"station":"IT2211A","station_name":"ACERRA ZONA INDUSTRIALE","pollutant":"PM10","date":"2025-05-25","value":9.4,"Ore_Disponibili":24,"lat":40.9847962,"lon":14.3679606,"date_only":"2025-05-25T00:00:00.000"},{"station":"IT2212A","station_name":"San Vitaliano Scuola Elementare Marconi","pollutant":"NO2","date":"2025-05-25","value":15.1217391304,"Ore_Disponibili":23,"lat":40.896,"lon":14.46,"date_only":"2025-05-25T00:00:00.000"},{"station":"IT2212A","station_name":"San Vitaliano Scuola Elementare Marconi","pollutant":"O3","date":"2025-05-25","value":83.2,"Ore_Disponibili":23,"lat":40.896,"lon":14.46,"date_only":"2025-05-25T00:00:00.000"},{"station":"IT2212A","station_name":"San Vitaliano Scuola Elementare Marconi","pollutant":"PM10","date":"2025-05-25","value":14.3708333333,"Ore_Disponibili":24,"lat":40.896,"lon":14.46,"date_only":"2025-05-25T00:00:00.000"},{"station":"IT2213A","station_name":"CAVA DEI TIRRENI - STADIO","pollutant":"NO2","date":"2025-05-25","value":5.9565217391,"Ore_Disponibili":23,"lat":44.4937761,"lon":11.3101851,"date_only":"2025-05-25T00:00:00.000"},{"station":"IT2213A","station_name":"CAVA DEI TIRRENI - STADIO","pollutant":"O3","date":"2025-05-25","value":84.3,"Ore_Disponibili":23,"lat":44.4937761,"lon":11.3101851,"date_only":"2025-05-25T00:00:00.000"},{"station":"IT2213A","station_name":"CAVA DEI TIRRENI - STADIO","pollutant":"PM10","date":"2025-05-25","value":11.3083333333,"Ore_Disponibili":24,"lat":44.4937761,"lon":11.3101851,"date_only":"2025-05-25T00:00:00.000"},{"station":"IT2214A","station_name":"Nocera Inferiore scuola Solimene","pollutant":"NO2","date":"2025-05-25","value":7.7565217391,"Ore_Disponibili":23,"lat":40.7445,"lon":14.734,"date_only":"2025-05-25T00:00:00.000"},{"station":"IT2214A","station_name":"Nocera Inferiore scuola Solimene","pollutant":"PM10","date":"2025-05-25","value":11.3208333333,"Ore_Disponibili":24,"lat":40.7445,"lon":14.734,"date_only":"2025-05-25T00:00:00.000"},{"station":"IT2215A","station_name":"BENEVENTO ZONA INDUSTRIALE","pollutant":"NO2","date":"2025-05-25","value":3.1833333333,"Ore_Disponibili":24,"lat":41.2293368,"lon":14.4782074,"date_only":"2025-05-25T00:00:00.000"},{"station":"IT2215A","station_name":"BENEVENTO ZONA INDUSTRIALE","pollutant":"O3","date":"2025-05-25","value":76.8086956522,"Ore_Disponibili":23,"lat":41.2293368,"lon":14.4782074,"date_only":"2025-05-25T00:00:00.000"},{"station":"IT2215A","station_name":"BENEVENTO ZONA INDUSTRIALE","pollutant":"PM10","date":"2025-05-25","value":12.1875,"Ore_Disponibili":24,"lat":41.2293368,"lon":14.4782074,"date_only":"2025-05-25T00:00:00.000"},{"station":"IT2216A","station_name":"Casoria Scuola Palizzi (CAM)","pollutant":"NO2","date":"2025-05-25","value":8.452173913,"Ore_Disponibili":23,"lat":40.904,"lon":14.289,"date_only":"2025-05-25T00:00:00.000"},{"station":"IT2216A","station_name":"Casoria Scuola Palizzi (CAM)","pollutant":"O3","date":"2025-05-25","value":80.2565217391,"Ore_Disponibili":23,"lat":40.904,"lon":14.289,"date_only":"2025-05-25T00:00:00.000"},{"station":"IT2216A","station_name":"Casoria Scuola Palizzi (CAM)","pollutant":"PM10","date":"2025-05-25","value":17.7958333333,"Ore_Disponibili":24,"lat":40.904,"lon":14.289,"date_only":"2025-05-25T00:00:00.000"},{"station":"IT2217A","station_name":"Torre Annunziata Scuola Media Pascoli","pollutant":"NO2","date":"2025-05-25","value":15.3083333333,"Ore_Disponibili":24,"lat":40.831,"lon":14.426,"date_only":"2025-05-25T00:00:00.000"},{"station":"IT2217A","station_name":"Torre Annunziata Scuola Media Pascoli","pollutant":"O3","date":"2025-05-25","value":89.0956521739,"Ore_Disponibili":23,"lat":40.831,"lon":14.426,"date_only":"2025-05-25T00:00:00.000"},{"station":"IT2218A","station_name":"San Felice a Cancello Complesso scolastico","pollutant":"NO2","date":"2025-05-25","value":5.8909090909,"Ore_Disponibili":22,"lat":41.015,"lon":14.287,"date_only":"2025-05-25T00:00:00.000"},{"station":"IT2218A","station_name":"San Felice a Cancello Complesso scolastico","pollutant":"O3","date":"2025-05-25","value":84.6652173913,"Ore_Disponibili":23,"lat":41.015,"lon":14.287,"date_only":"2025-05-25T00:00:00.000"},{"station":"IT2218A","station_name":"San Felice a Cancello Complesso scolastico","pollutant":"PM10","date":"2025-05-25","value":11.8166666667,"Ore_Disponibili":24,"lat":41.015,"lon":14.287,"date_only":"2025-05-25T00:00:00.000"},{"station":"IT2219A","station_name":"Acerra scuola Caporale","pollutant":"NO2","date":"2025-05-25","value":5.8173913043,"Ore_Disponibili":23,"lat":40.9169,"lon":14.3425,"date_only":"2025-05-25T00:00:00.000"},{"station":"IT2219A","station_name":"Acerra scuola Caporale","pollutant":"PM10","date":"2025-05-25","value":15.3958333333,"Ore_Disponibili":24,"lat":40.9169,"lon":14.3425,"date_only":"2025-05-25T00:00:00.000"},{"station":"IT2221A","station_name":"Napoli via Epomeo","pollutant":"NO2","date":"2025-05-25","value":7.8304347826,"Ore_Disponibili":23,"lat":40.7205434,"lon":13.8987737,"date_only":"2025-05-25T00:00:00.000"},{"station":"IT2221A","station_name":"Napoli via Epomeo","pollutant":"O3","date":"2025-05-25","value":71.3173913043,"Ore_Disponibili":23,"lat":40.7205434,"lon":13.8987737,"date_only":"2025-05-25T00:00:00.000"},{"station":"IT2221A","station_name":"Napoli via Epomeo","pollutant":"PM10","date":"2025-05-25","value":14.7375,"Ore_Disponibili":24,"lat":40.7205434,"lon":13.8987737,"date_only":"2025-05-25T00:00:00.000"},{"station":"IT2226A","station_name":"Pomigliano d'Arco Area ASI","pollutant":"NO2","date":"2025-05-25","value":13.2956521739,"Ore_Disponibili":23,"lat":40.9075,"lon":14.393,"date_only":"2025-05-25T00:00:00.000"},{"station":"IT2226A","station_name":"Pomigliano d'Arco Area ASI","pollutant":"PM10","date":"2025-05-25","value":13.4916666667,"Ore_Disponibili":24,"lat":40.9075,"lon":14.393,"date_only":"2025-05-25T00:00:00.000"},{"station":"IT2227A","station_name":"AVELLINO - SCUOLA ALIGHIERI","pollutant":"NO2","date":"2025-05-25","value":13.1333333333,"Ore_Disponibili":24,"lat":40.9190395,"lon":14.784947,"date_only":"2025-05-25T00:00:00.000"},{"station":"IT2227A","station_name":"AVELLINO - SCUOLA ALIGHIERI","pollutant":"PM10","date":"2025-05-25","value":6.8625,"Ore_Disponibili":24,"lat":40.9190395,"lon":14.784947,"date_only":"2025-05-25T00:00:00.000"},{"station":"IT2228A","station_name":"BENEVENTO CAMPO SPORTIVO","pollutant":"NO2","date":"2025-05-25","value":6.8916666667,"Ore_Disponibili":24,"lat":41.2315276,"lon":14.5332703,"date_only":"2025-05-25T00:00:00.000"},{"station":"IT2228A","station_name":"BENEVENTO CAMPO SPORTIVO","pollutant":"O3","date":"2025-05-25","value":68.7913043478,"Ore_Disponibili":23,"lat":41.2315276,"lon":14.5332703,"date_only":"2025-05-25T00:00:00.000"},{"station":"IT2228A","station_name":"BENEVENTO CAMPO SPORTIVO","pollutant":"PM10","date":"2025-05-25","value":10.0625,"Ore_Disponibili":24,"lat":41.2315276,"lon":14.5332703,"date_only":"2025-05-25T00:00:00.000"},{"station":"IT2268A","station_name":"BATTIPAGLIA - PARCO FIUME","pollutant":"NO2","date":"2025-05-25","value":6.2869565217,"Ore_Disponibili":23,"lat":44.3859682,"lon":7.5509829,"date_only":"2025-05-25T00:00:00.000"},{"station":"IT2268A","station_name":"BATTIPAGLIA - PARCO FIUME","pollutant":"O3","date":"2025-05-25","value":84.4043478261,"Ore_Disponibili":23,"lat":44.3859682,"lon":7.5509829,"date_only":"2025-05-25T00:00:00.000"},{"station":"IT2268A","station_name":"BATTIPAGLIA - PARCO FIUME","pollutant":"PM10","date":"2025-05-25","value":8.7,"Ore_Disponibili":24,"lat":44.3859682,"lon":7.5509829,"date_only":"2025-05-25T00:00:00.000"},{"station":"IT2270A","station_name":"Portici parco Reggia","pollutant":"NO2","date":"2025-05-25","value":7.7136363636,"Ore_Disponibili":22,"lat":40.813588,"lon":14.3476526,"date_only":"2025-05-25T00:00:00.000"},{"station":"IT2270A","station_name":"Portici parco Reggia","pollutant":"O3","date":"2025-05-25","value":88.2454545455,"Ore_Disponibili":22,"lat":40.813588,"lon":14.3476526,"date_only":"2025-05-25T00:00:00.000"},{"station":"IT2270A","station_name":"Portici parco Reggia","pollutant":"PM10","date":"2025-05-25","value":11.9541666667,"Ore_Disponibili":24,"lat":40.813588,"lon":14.3476526,"date_only":"2025-05-25T00:00:00.000"},{"station":"IT2271A","station_name":"Aversa scuola Cirillo","pollutant":"NO2","date":"2025-05-25","value":14.3826086957,"Ore_Disponibili":23,"lat":40.9758352,"lon":14.2117669,"date_only":"2025-05-25T00:00:00.000"},{"station":"IT2271A","station_name":"Aversa scuola Cirillo","pollutant":"PM10","date":"2025-05-25","value":14.8666666667,"Ore_Disponibili":24,"lat":40.9758352,"lon":14.2117669,"date_only":"2025-05-25T00:00:00.000"},{"station":"IT2272A","station_name":"Pozzuoli ex Villa Avellino","pollutant":"NO2","date":"2025-05-25","value":11.8458333333,"Ore_Disponibili":24,"lat":40.834,"lon":14.119,"date_only":"2025-05-25T00:00:00.000"},{"station":"IT2272A","station_name":"Pozzuoli ex Villa Avellino","pollutant":"O3","date":"2025-05-25","value":75.3,"Ore_Disponibili":24,"lat":40.834,"lon":14.119,"date_only":"2025-05-25T00:00:00.000"},{"station":"IT2272A","station_name":"Pozzuoli ex Villa Avellino","pollutant":"PM10","date":"2025-05-25","value":13.7875,"Ore_Disponibili":24,"lat":40.834,"lon":14.119,"date_only":"2025-05-25T00:00:00.000"},{"station":"IT2273A","station_name":"Polla Area tritovagliatore","pollutant":"NO2","date":"2025-05-25","value":9.3739130435,"Ore_Disponibili":23,"lat":40.412,"lon":15.341,"date_only":"2025-05-25T00:00:00.000"},{"station":"IT2273A","station_name":"Polla Area tritovagliatore","pollutant":"PM10","date":"2025-05-25","value":8.6791666667,"Ore_Disponibili":24,"lat":40.412,"lon":15.341,"date_only":"2025-05-25T00:00:00.000"},{"station":"IT2276A","station_name":"Ariano Irpino Villa Comunale","pollutant":"NO2","date":"2025-05-25","value":1.5583333333,"Ore_Disponibili":24,"lat":41.1549432,"lon":15.0951624,"date_only":"2025-05-25T00:00:00.000"},{"station":"IT2276A","station_name":"Ariano Irpino Villa Comunale","pollutant":"O3","date":"2025-05-25","value":117.6913043478,"Ore_Disponibili":23,"lat":41.1549432,"lon":15.0951624,"date_only":"2025-05-25T00:00:00.000"},{"station":"IT2277A","station_name":"Napoli parco Virgiliano","pollutant":"NO2","date":"2025-05-25","value":5.7434782609,"Ore_Disponibili":23,"lat":40.7984999,"lon":14.1790765,"date_only":"2025-05-25T00:00:00.000"},{"station":"IT2277A","station_name":"Napoli parco Virgiliano","pollutant":"O3","date":"2025-05-25","value":100.3458333333,"Ore_Disponibili":24,"lat":40.7984999,"lon":14.1790765,"date_only":"2025-05-25T00:00:00.000"},{"station":"IT2277A","station_name":"Napoli parco Virgiliano","pollutant":"PM10","date":"2025-05-25","value":9.2,"Ore_Disponibili":24,"lat":40.7984999,"lon":14.1790765,"date_only":"2025-05-25T00:00:00.000"},{"station":"IT2283A","station_name":"OTTATI - ALBURNI","pollutant":"NO2","date":"2025-05-25","value":2.4130434783,"Ore_Disponibili":23,"lat":40.560311,"lon":15.303957,"date_only":"2025-05-25T00:00:00.000"},{"station":"IT2283A","station_name":"OTTATI - ALBURNI","pollutant":"O3","date":"2025-05-25","value":89.7956521739,"Ore_Disponibili":23,"lat":40.560311,"lon":15.303957,"date_only":"2025-05-25T00:00:00.000"},{"station":"IT2283A","station_name":"OTTATI - ALBURNI","pollutant":"PM10","date":"2025-05-25","value":10.6,"Ore_Disponibili":24,"lat":40.560311,"lon":15.303957,"date_only":"2025-05-25T00:00:00.000"}]