[{"station":"IT0898A","station_name":"Napoli NA06 Museo Nazionale","pollutant":"CO","date":"2025-11-22T00:00:00.000","value":0.3975,"Ore_Disponibili":24,"lat":40.8536064,"lon":14.25115,"date_only":"2025-11-22T00:00:00.000"},{"station":"IT0898A","station_name":"Napoli NA06 Museo Nazionale","pollutant":"NO2","date":"2025-11-22T00:00:00.000","value":36.03375,"Ore_Disponibili":24,"lat":40.8536064,"lon":14.25115,"date_only":"2025-11-22T00:00:00.000"},{"station":"IT0898A","station_name":"Napoli NA06 Museo Nazionale","pollutant":"PM10","date":"2025-11-22T00:00:00.000","value":11.35,"Ore_Disponibili":24,"lat":40.8536064,"lon":14.25115,"date_only":"2025-11-22T00:00:00.000"},{"station":"IT0898A","station_name":"Napoli NA06 Museo Nazionale","pollutant":"PM2,5","date":"2025-11-22T00:00:00.000","value":10.8791666667,"Ore_Disponibili":24,"lat":40.8536064,"lon":14.25115,"date_only":"2025-11-22T00:00:00.000"},{"station":"IT0934A","station_name":"Benevento BN32 Via Mustilli","pollutant":"NO2","date":"2025-11-22T00:00:00.000","value":19.5729166667,"Ore_Disponibili":24,"lat":41.1317868,"lon":14.7885516,"date_only":"2025-11-22T00:00:00.000"},{"station":"IT0934A","station_name":"Benevento BN32 Via Mustilli","pollutant":"PM10","date":"2025-11-22T00:00:00.000","value":15.8045454545,"Ore_Disponibili":22,"lat":41.1317868,"lon":14.7885516,"date_only":"2025-11-22T00:00:00.000"},{"station":"IT0934A","station_name":"Benevento BN32 Via Mustilli","pollutant":"PM2,5","date":"2025-11-22T00:00:00.000","value":18.05,"Ore_Disponibili":18,"lat":41.1317868,"lon":14.7885516,"date_only":"2025-11-22T00:00:00.000"},{"station":"IT0936A","station_name":"Avellino AV41 Sc. V Circolo \u00b0","pollutant":"NO2","date":"2025-11-22T00:00:00.000","value":20.3241666667,"Ore_Disponibili":24,"lat":40.9152,"lon":14.7955,"date_only":"2025-11-22T00:00:00.000"},{"station":"IT0936A","station_name":"Avellino AV41 Sc. V Circolo \u00b0","pollutant":"O3","date":"2025-11-22T00:00:00.000","value":25.475,"Ore_Disponibili":24,"lat":40.9152,"lon":14.7955,"date_only":"2025-11-22T00:00:00.000"},{"station":"IT0936A","station_name":"Avellino AV41 Sc. V Circolo \u00b0","pollutant":"PM10","date":"2025-11-22T00:00:00.000","value":18.5454166667,"Ore_Disponibili":24,"lat":40.9152,"lon":14.7955,"date_only":"2025-11-22T00:00:00.000"},{"station":"IT0936A","station_name":"Avellino AV41 Sc. V Circolo \u00b0","pollutant":"PM2,5","date":"2025-11-22T00:00:00.000","value":17.6791666667,"Ore_Disponibili":24,"lat":40.9152,"lon":14.7955,"date_only":"2025-11-22T00:00:00.000"},{"station":"IT1041A","station_name":"Salerno SA23 Scuola Conti \u00b0","pollutant":"NO2","date":"2025-11-22T00:00:00.000","value":25.20375,"Ore_Disponibili":24,"lat":40.675,"lon":14.768,"date_only":"2025-11-22T00:00:00.000"},{"station":"IT1041A","station_name":"Salerno SA23 Scuola Conti \u00b0","pollutant":"O3","date":"2025-11-22T00:00:00.000","value":20.5491666667,"Ore_Disponibili":24,"lat":40.675,"lon":14.768,"date_only":"2025-11-22T00:00:00.000"},{"station":"IT1041A","station_name":"Salerno SA23 Scuola Conti \u00b0","pollutant":"PM2,5","date":"2025-11-22T00:00:00.000","value":18.2,"Ore_Disponibili":24,"lat":40.675,"lon":14.768,"date_only":"2025-11-22T00:00:00.000"},{"station":"IT1486A","station_name":"Caserta CE51 Ist. Manzoni","pollutant":"NO2","date":"2025-11-22T00:00:00.000","value":22.2983333333,"Ore_Disponibili":24,"lat":41.0818,"lon":14.3349,"date_only":"2025-11-22T00:00:00.000"},{"station":"IT1486A","station_name":"Caserta CE51 Ist. Manzoni","pollutant":"O3","date":"2025-11-22T00:00:00.000","value":45.6183333333,"Ore_Disponibili":24,"lat":41.0818,"lon":14.3349,"date_only":"2025-11-22T00:00:00.000"},{"station":"IT1486A","station_name":"Caserta CE51 Ist. Manzoni","pollutant":"PM10","date":"2025-11-22T00:00:00.000","value":9.252173913,"Ore_Disponibili":23,"lat":41.0818,"lon":14.3349,"date_only":"2025-11-22T00:00:00.000"},{"station":"IT1486A","station_name":"Caserta CE51 Ist. Manzoni","pollutant":"PM2,5","date":"2025-11-22T00:00:00.000","value":7.6772727273,"Ore_Disponibili":22,"lat":41.0818,"lon":14.3349,"date_only":"2025-11-22T00:00:00.000"},{"station":"IT1487A","station_name":"Caserta CE52 Sc. De Amicis","pollutant":"CO","date":"2025-11-22T00:00:00.000","value":0.3486956522,"Ore_Disponibili":23,"lat":41.0085302,"lon":14.0787912,"date_only":"2025-11-22T00:00:00.000"},{"station":"IT1487A","station_name":"Caserta CE52 Sc. De Amicis","pollutant":"NO2","date":"2025-11-22T00:00:00.000","value":15.2265217391,"Ore_Disponibili":23,"lat":41.0085302,"lon":14.0787912,"date_only":"2025-11-22T00:00:00.000"},{"station":"IT1487A","station_name":"Caserta CE52 Sc. De Amicis","pollutant":"PM10","date":"2025-11-22T00:00:00.000","value":15.4,"Ore_Disponibili":24,"lat":41.0085302,"lon":14.0787912,"date_only":"2025-11-22T00:00:00.000"},{"station":"IT1487A","station_name":"Caserta CE52 Sc. De Amicis","pollutant":"PM2,5","date":"2025-11-22T00:00:00.000","value":5.5,"Ore_Disponibili":24,"lat":41.0085302,"lon":14.0787912,"date_only":"2025-11-22T00:00:00.000"},{"station":"IT1488A","station_name":"Maddaloni CE54 Sc. Settembrini","pollutant":"NO2","date":"2025-11-22T00:00:00.000","value":24.6256521739,"Ore_Disponibili":23,"lat":41.094,"lon":14.402,"date_only":"2025-11-22T00:00:00.000"},{"station":"IT1488A","station_name":"Maddaloni CE54 Sc. Settembrini","pollutant":"O3","date":"2025-11-22T00:00:00.000","value":34.5104347826,"Ore_Disponibili":23,"lat":41.094,"lon":14.402,"date_only":"2025-11-22T00:00:00.000"},{"station":"IT1488A","station_name":"Maddaloni CE54 Sc. Settembrini","pollutant":"PM10","date":"2025-11-22T00:00:00.000","value":17.1525,"Ore_Disponibili":24,"lat":41.094,"lon":14.402,"date_only":"2025-11-22T00:00:00.000"},{"station":"IT1488A","station_name":"Maddaloni CE54 Sc. Settembrini","pollutant":"PM2,5","date":"2025-11-22T00:00:00.000","value":12.1116666667,"Ore_Disponibili":24,"lat":41.094,"lon":14.402,"date_only":"2025-11-22T00:00:00.000"},{"station":"IT1493A","station_name":"Napoli NA09 Via Argine","pollutant":"CO","date":"2025-11-22T00:00:00.000","value":0.8558333333,"Ore_Disponibili":24,"lat":40.8560636,"lon":14.3234622,"date_only":"2025-11-22T00:00:00.000"},{"station":"IT1493A","station_name":"Napoli NA09 Via Argine","pollutant":"NO2","date":"2025-11-22T00:00:00.000","value":45.2566666667,"Ore_Disponibili":24,"lat":40.8560636,"lon":14.3234622,"date_only":"2025-11-22T00:00:00.000"},{"station":"IT1493A","station_name":"Napoli NA09 Via Argine","pollutant":"PM10","date":"2025-11-22T00:00:00.000","value":24.0041666667,"Ore_Disponibili":24,"lat":40.8560636,"lon":14.3234622,"date_only":"2025-11-22T00:00:00.000"},{"station":"IT1493A","station_name":"Napoli NA09 Via Argine","pollutant":"PM2,5","date":"2025-11-22T00:00:00.000","value":18.0291666667,"Ore_Disponibili":24,"lat":40.8560636,"lon":14.3234622,"date_only":"2025-11-22T00:00:00.000"},{"station":"IT1495A","station_name":"Napoli NA08 Osp. N. Pellegrini","pollutant":"NO2","date":"2025-11-22T00:00:00.000","value":33.7516666667,"Ore_Disponibili":24,"lat":40.8535,"lon":14.235,"date_only":"2025-11-22T00:00:00.000"},{"station":"IT1495A","station_name":"Napoli NA08 Osp. N. Pellegrini","pollutant":"PM10","date":"2025-11-22T00:00:00.000","value":35.2,"Ore_Disponibili":24,"lat":40.8535,"lon":14.235,"date_only":"2025-11-22T00:00:00.000"},{"station":"IT1496A","station_name":"Napoli NA02 Osp. Santobono \u00b0","pollutant":"NO2","date":"2025-11-22T00:00:00.000","value":53.9966666667,"Ore_Disponibili":24,"lat":40.8554,"lon":14.2231,"date_only":"2025-11-22T00:00:00.000"},{"station":"IT1496A","station_name":"Napoli NA02 Osp. Santobono \u00b0","pollutant":"PM10","date":"2025-11-22T00:00:00.000","value":6.8783333333,"Ore_Disponibili":24,"lat":40.8554,"lon":14.2231,"date_only":"2025-11-22T00:00:00.000"},{"station":"IT1496A","station_name":"Napoli NA02 Osp. Santobono \u00b0","pollutant":"PM2,5","date":"2025-11-22T00:00:00.000","value":4.9883333333,"Ore_Disponibili":24,"lat":40.8554,"lon":14.2231,"date_only":"2025-11-22T00:00:00.000"},{"station":"IT1497A","station_name":"Napoli NA01 Oss. Astronomico","pollutant":"CO","date":"2025-11-22T00:00:00.000","value":0.2020833333,"Ore_Disponibili":24,"lat":40.853,"lon":14.305,"date_only":"2025-11-22T00:00:00.000"},{"station":"IT1497A","station_name":"Napoli NA01 Oss. Astronomico","pollutant":"NO2","date":"2025-11-22T00:00:00.000","value":22.1120833333,"Ore_Disponibili":24,"lat":40.853,"lon":14.305,"date_only":"2025-11-22T00:00:00.000"},{"station":"IT1497A","station_name":"Napoli NA01 Oss. Astronomico","pollutant":"O3","date":"2025-11-22T00:00:00.000","value":39.6695652174,"Ore_Disponibili":23,"lat":40.853,"lon":14.305,"date_only":"2025-11-22T00:00:00.000"},{"station":"IT1497A","station_name":"Napoli NA01 Oss. Astronomico","pollutant":"PM10","date":"2025-11-22T00:00:00.000","value":7.30375,"Ore_Disponibili":24,"lat":40.853,"lon":14.305,"date_only":"2025-11-22T00:00:00.000"},{"station":"IT1497A","station_name":"Napoli NA01 Oss. Astronomico","pollutant":"PM2,5","date":"2025-11-22T00:00:00.000","value":6.2383333333,"Ore_Disponibili":24,"lat":40.853,"lon":14.305,"date_only":"2025-11-22T00:00:00.000"},{"station":"IT1504A","station_name":"Salerno SA22 Osp. Via Vernieri","pollutant":"CO","date":"2025-11-22T00:00:00.000","value":0.6266666667,"Ore_Disponibili":24,"lat":40.682,"lon":14.766,"date_only":"2025-11-22T00:00:00.000"},{"station":"IT1504A","station_name":"Salerno SA22 Osp. Via Vernieri","pollutant":"NO2","date":"2025-11-22T00:00:00.000","value":22.5820833333,"Ore_Disponibili":24,"lat":40.682,"lon":14.766,"date_only":"2025-11-22T00:00:00.000"},{"station":"IT1504A","station_name":"Salerno SA22 Osp. Via Vernieri","pollutant":"PM10","date":"2025-11-22T00:00:00.000","value":11.79,"Ore_Disponibili":20,"lat":40.682,"lon":14.766,"date_only":"2025-11-22T00:00:00.000"},{"station":"IT1504A","station_name":"Salerno SA22 Osp. Via Vernieri","pollutant":"PM2,5","date":"2025-11-22T00:00:00.000","value":10.5142857143,"Ore_Disponibili":21,"lat":40.682,"lon":14.766,"date_only":"2025-11-22T00:00:00.000"},{"station":"IT2210A","station_name":"Solofra Zona Industriale","pollutant":"CO","date":"2025-11-22T00:00:00.000","value":0.7873913043,"Ore_Disponibili":23,"lat":41.058,"lon":14.808,"date_only":"2025-11-22T00:00:00.000"},{"station":"IT2210A","station_name":"Solofra Zona Industriale","pollutant":"NO2","date":"2025-11-22T00:00:00.000","value":11.52,"Ore_Disponibili":23,"lat":41.058,"lon":14.808,"date_only":"2025-11-22T00:00:00.000"},{"station":"IT2210A","station_name":"Solofra Zona Industriale","pollutant":"PM10","date":"2025-11-22T00:00:00.000","value":19.3525,"Ore_Disponibili":24,"lat":41.058,"lon":14.808,"date_only":"2025-11-22T00:00:00.000"},{"station":"IT2210A","station_name":"Solofra Zona Industriale","pollutant":"PM2,5","date":"2025-11-22T00:00:00.000","value":17.2233333333,"Ore_Disponibili":24,"lat":41.058,"lon":14.808,"date_only":"2025-11-22T00:00:00.000"},{"station":"IT2211A","station_name":"Acerra Zona Industriale","pollutant":"CO","date":"2025-11-22T00:00:00.000","value":0.47,"Ore_Disponibili":21,"lat":40.9847962,"lon":14.3679606,"date_only":"2025-11-22T00:00:00.000"},{"station":"IT2211A","station_name":"Acerra Zona Industriale","pollutant":"NO2","date":"2025-11-22T00:00:00.000","value":29.3669565217,"Ore_Disponibili":23,"lat":40.9847962,"lon":14.3679606,"date_only":"2025-11-22T00:00:00.000"},{"station":"IT2211A","station_name":"Acerra Zona Industriale","pollutant":"PM10","date":"2025-11-22T00:00:00.000","value":22.8,"Ore_Disponibili":24,"lat":40.9847962,"lon":14.3679606,"date_only":"2025-11-22T00:00:00.000"},{"station":"IT2211A","station_name":"Acerra Zona Industriale","pollutant":"PM2,5","date":"2025-11-22T00:00:00.000","value":15.4,"Ore_Disponibili":24,"lat":40.9847962,"lon":14.3679606,"date_only":"2025-11-22T00:00:00.000"},{"station":"IT2212A","station_name":"S. Vitaliano Scuola Marconi","pollutant":"NO2","date":"2025-11-22T00:00:00.000","value":46.2595652174,"Ore_Disponibili":23,"lat":40.896,"lon":14.46,"date_only":"2025-11-22T00:00:00.000"},{"station":"IT2212A","station_name":"S. Vitaliano Scuola Marconi","pollutant":"O3","date":"2025-11-22T00:00:00.000","value":29.7365217391,"Ore_Disponibili":23,"lat":40.896,"lon":14.46,"date_only":"2025-11-22T00:00:00.000"},{"station":"IT2212A","station_name":"S. Vitaliano Scuola Marconi","pollutant":"PM10","date":"2025-11-22T00:00:00.000","value":27.4845833333,"Ore_Disponibili":24,"lat":40.896,"lon":14.46,"date_only":"2025-11-22T00:00:00.000"},{"station":"IT2212A","station_name":"S. Vitaliano Scuola Marconi","pollutant":"PM2,5","date":"2025-11-22T00:00:00.000","value":25.7758333333,"Ore_Disponibili":24,"lat":40.896,"lon":14.46,"date_only":"2025-11-22T00:00:00.000"},{"station":"IT2213A","station_name":"Cava dei Tirreni Stadio","pollutant":"CO","date":"2025-11-22T00:00:00.000","value":0.6352173913,"Ore_Disponibili":23,"lat":40.7125,"lon":14.638,"date_only":"2025-11-22T00:00:00.000"},{"station":"IT2213A","station_name":"Cava dei Tirreni Stadio","pollutant":"NO2","date":"2025-11-22T00:00:00.000","value":27.2943478261,"Ore_Disponibili":23,"lat":40.7125,"lon":14.638,"date_only":"2025-11-22T00:00:00.000"},{"station":"IT2213A","station_name":"Cava dei Tirreni Stadio","pollutant":"O3","date":"2025-11-22T00:00:00.000","value":41.2147826087,"Ore_Disponibili":23,"lat":40.7125,"lon":14.638,"date_only":"2025-11-22T00:00:00.000"},{"station":"IT2213A","station_name":"Cava dei Tirreni Stadio","pollutant":"PM10","date":"2025-11-22T00:00:00.000","value":13.7304166667,"Ore_Disponibili":24,"lat":40.7125,"lon":14.638,"date_only":"2025-11-22T00:00:00.000"},{"station":"IT2213A","station_name":"Cava dei Tirreni Stadio","pollutant":"PM2,5","date":"2025-11-22T00:00:00.000","value":12.1429166667,"Ore_Disponibili":24,"lat":40.7125,"lon":14.638,"date_only":"2025-11-22T00:00:00.000"},{"station":"IT2214A","station_name":"Nocera Inferiore Sc. Solimena","pollutant":"CO","date":"2025-11-22T00:00:00.000","value":0.4608695652,"Ore_Disponibili":23,"lat":40.7473393,"lon":14.6410145,"date_only":"2025-11-22T00:00:00.000"},{"station":"IT2214A","station_name":"Nocera Inferiore Sc. Solimena","pollutant":"NO2","date":"2025-11-22T00:00:00.000","value":32.427826087,"Ore_Disponibili":23,"lat":40.7473393,"lon":14.6410145,"date_only":"2025-11-22T00:00:00.000"},{"station":"IT2214A","station_name":"Nocera Inferiore Sc. Solimena","pollutant":"PM10","date":"2025-11-22T00:00:00.000","value":15.8383333333,"Ore_Disponibili":24,"lat":40.7473393,"lon":14.6410145,"date_only":"2025-11-22T00:00:00.000"},{"station":"IT2214A","station_name":"Nocera Inferiore Sc. Solimena","pollutant":"PM2,5","date":"2025-11-22T00:00:00.000","value":14.0225,"Ore_Disponibili":24,"lat":40.7473393,"lon":14.6410145,"date_only":"2025-11-22T00:00:00.000"},{"station":"IT2215A","station_name":"Benevento Zona Industriale \u00b0","pollutant":"NO2","date":"2025-11-22T00:00:00.000","value":4.77,"Ore_Disponibili":14,"lat":41.2293368,"lon":14.4782074,"date_only":"2025-11-22T00:00:00.000"},{"station":"IT2215A","station_name":"Benevento Zona Industriale \u00b0","pollutant":"O3","date":"2025-11-22T00:00:00.000","value":49.1147826087,"Ore_Disponibili":23,"lat":41.2293368,"lon":14.4782074,"date_only":"2025-11-22T00:00:00.000"},{"station":"IT2215A","station_name":"Benevento Zona Industriale \u00b0","pollutant":"PM10","date":"2025-11-22T00:00:00.000","value":6.6591666667,"Ore_Disponibili":24,"lat":41.2293368,"lon":14.4782074,"date_only":"2025-11-22T00:00:00.000"},{"station":"IT2215A","station_name":"Benevento Zona Industriale \u00b0","pollutant":"PM2,5","date":"2025-11-22T00:00:00.000","value":5.10375,"Ore_Disponibili":24,"lat":41.2293368,"lon":14.4782074,"date_only":"2025-11-22T00:00:00.000"},{"station":"IT2216A","station_name":"Casoria Scuola Palizzi","pollutant":"NO2","date":"2025-11-22T00:00:00.000","value":30.3091304348,"Ore_Disponibili":23,"lat":40.904,"lon":14.289,"date_only":"2025-11-22T00:00:00.000"},{"station":"IT2216A","station_name":"Casoria Scuola Palizzi","pollutant":"O3","date":"2025-11-22T00:00:00.000","value":27.0486956522,"Ore_Disponibili":23,"lat":40.904,"lon":14.289,"date_only":"2025-11-22T00:00:00.000"},{"station":"IT2216A","station_name":"Casoria Scuola Palizzi","pollutant":"PM10","date":"2025-11-22T00:00:00.000","value":27.3941666667,"Ore_Disponibili":24,"lat":40.904,"lon":14.289,"date_only":"2025-11-22T00:00:00.000"},{"station":"IT2216A","station_name":"Casoria Scuola Palizzi","pollutant":"PM2,5","date":"2025-11-22T00:00:00.000","value":24.4725,"Ore_Disponibili":24,"lat":40.904,"lon":14.289,"date_only":"2025-11-22T00:00:00.000"},{"station":"IT2217A","station_name":"Torre Annunziata Sc. Pascoli","pollutant":"NO2","date":"2025-11-22T00:00:00.000","value":18.9618181818,"Ore_Disponibili":22,"lat":40.7469754,"lon":14.4608234,"date_only":"2025-11-22T00:00:00.000"},{"station":"IT2217A","station_name":"Torre Annunziata Sc. Pascoli","pollutant":"O3","date":"2025-11-22T00:00:00.000","value":43.3808695652,"Ore_Disponibili":23,"lat":40.7469754,"lon":14.4608234,"date_only":"2025-11-22T00:00:00.000"},{"station":"IT2218A","station_name":"San Felice a Cancello C. Scolast.","pollutant":"CO","date":"2025-11-22T00:00:00.000","value":0.33875,"Ore_Disponibili":24,"lat":41.015,"lon":14.287,"date_only":"2025-11-22T00:00:00.000"},{"station":"IT2218A","station_name":"San Felice a Cancello C. Scolast.","pollutant":"NO2","date":"2025-11-22T00:00:00.000","value":13.7882608696,"Ore_Disponibili":23,"lat":41.015,"lon":14.287,"date_only":"2025-11-22T00:00:00.000"},{"station":"IT2218A","station_name":"San Felice a Cancello C. Scolast.","pollutant":"O3","date":"2025-11-22T00:00:00.000","value":44.3052173913,"Ore_Disponibili":23,"lat":41.015,"lon":14.287,"date_only":"2025-11-22T00:00:00.000"},{"station":"IT2218A","station_name":"San Felice a Cancello C. Scolast.","pollutant":"PM10","date":"2025-11-22T00:00:00.000","value":17.5945833333,"Ore_Disponibili":24,"lat":41.015,"lon":14.287,"date_only":"2025-11-22T00:00:00.000"},{"station":"IT2218A","station_name":"San Felice a Cancello C. Scolast.","pollutant":"PM2,5","date":"2025-11-22T00:00:00.000","value":15.9279166667,"Ore_Disponibili":24,"lat":41.015,"lon":14.287,"date_only":"2025-11-22T00:00:00.000"},{"station":"IT2219A","station_name":"Acerra Scuola Caporale","pollutant":"CO","date":"2025-11-22T00:00:00.000","value":0.3826086957,"Ore_Disponibili":23,"lat":40.9071,"lon":14.3429,"date_only":"2025-11-22T00:00:00.000"},{"station":"IT2219A","station_name":"Acerra Scuola Caporale","pollutant":"NO2","date":"2025-11-22T00:00:00.000","value":26.8533333333,"Ore_Disponibili":21,"lat":40.9071,"lon":14.3429,"date_only":"2025-11-22T00:00:00.000"},{"station":"IT2219A","station_name":"Acerra Scuola Caporale","pollutant":"PM10","date":"2025-11-22T00:00:00.000","value":18.7729166667,"Ore_Disponibili":24,"lat":40.9071,"lon":14.3429,"date_only":"2025-11-22T00:00:00.000"},{"station":"IT2219A","station_name":"Acerra Scuola Caporale","pollutant":"PM2,5","date":"2025-11-22T00:00:00.000","value":16.96875,"Ore_Disponibili":24,"lat":40.9071,"lon":14.3429,"date_only":"2025-11-22T00:00:00.000"},{"station":"IT2221A","station_name":"Napoli via Epomeo *\u00b0","pollutant":"CO","date":"2025-11-22T00:00:00.000","value":0.4075,"Ore_Disponibili":24,"lat":40.7205434,"lon":13.8987737,"date_only":"2025-11-22T00:00:00.000"},{"station":"IT2221A","station_name":"Napoli via Epomeo *\u00b0","pollutant":"NO2","date":"2025-11-22T00:00:00.000","value":30.1826086957,"Ore_Disponibili":23,"lat":40.7205434,"lon":13.8987737,"date_only":"2025-11-22T00:00:00.000"},{"station":"IT2221A","station_name":"Napoli via Epomeo *\u00b0","pollutant":"O3","date":"2025-11-22T00:00:00.000","value":22.0241666667,"Ore_Disponibili":24,"lat":40.7205434,"lon":13.8987737,"date_only":"2025-11-22T00:00:00.000"},{"station":"IT2221A","station_name":"Napoli via Epomeo *\u00b0","pollutant":"PM10","date":"2025-11-22T00:00:00.000","value":8.2116666667,"Ore_Disponibili":24,"lat":40.7205434,"lon":13.8987737,"date_only":"2025-11-22T00:00:00.000"},{"station":"IT2221A","station_name":"Napoli via Epomeo *\u00b0","pollutant":"PM2,5","date":"2025-11-22T00:00:00.000","value":6.6783333333,"Ore_Disponibili":24,"lat":40.7205434,"lon":13.8987737,"date_only":"2025-11-22T00:00:00.000"},{"station":"IT2223A","station_name":"Volla Via Filichito *\u00b0","pollutant":"CO","date":"2025-11-22T00:00:00.000","value":0.3804347826,"Ore_Disponibili":23,"lat":40.8824226,"lon":14.3478545,"date_only":"2025-11-22T00:00:00.000"},{"station":"IT2223A","station_name":"Volla Via Filichito *\u00b0","pollutant":"NO2","date":"2025-11-22T00:00:00.000","value":41.9865217391,"Ore_Disponibili":23,"lat":40.8824226,"lon":14.3478545,"date_only":"2025-11-22T00:00:00.000"},{"station":"IT2223A","station_name":"Volla Via Filichito *\u00b0","pollutant":"O3","date":"2025-11-22T00:00:00.000","value":7.6234782609,"Ore_Disponibili":23,"lat":40.8824226,"lon":14.3478545,"date_only":"2025-11-22T00:00:00.000"},{"station":"IT2223A","station_name":"Volla Via Filichito *\u00b0","pollutant":"PM10","date":"2025-11-22T00:00:00.000","value":13.24,"Ore_Disponibili":22,"lat":40.8824226,"lon":14.3478545,"date_only":"2025-11-22T00:00:00.000"},{"station":"IT2223A","station_name":"Volla Via Filichito *\u00b0","pollutant":"PM2,5","date":"2025-11-22T00:00:00.000","value":12.3690909091,"Ore_Disponibili":22,"lat":40.8824226,"lon":14.3478545,"date_only":"2025-11-22T00:00:00.000"},{"station":"IT2226A","station_name":"Pomigliano d'Arco Area Asi","pollutant":"CO","date":"2025-11-22T00:00:00.000","value":0.3652173913,"Ore_Disponibili":23,"lat":40.412,"lon":15.341,"date_only":"2025-11-22T00:00:00.000"},{"station":"IT2226A","station_name":"Pomigliano d'Arco Area Asi","pollutant":"NO2","date":"2025-11-22T00:00:00.000","value":32.3491304348,"Ore_Disponibili":23,"lat":40.412,"lon":15.341,"date_only":"2025-11-22T00:00:00.000"},{"station":"IT2226A","station_name":"Pomigliano d'Arco Area Asi","pollutant":"PM10","date":"2025-11-22T00:00:00.000","value":15.4739130435,"Ore_Disponibili":23,"lat":40.412,"lon":15.341,"date_only":"2025-11-22T00:00:00.000"},{"station":"IT2226A","station_name":"Pomigliano d'Arco Area Asi","pollutant":"PM2,5","date":"2025-11-22T00:00:00.000","value":13.6695652174,"Ore_Disponibili":23,"lat":40.412,"lon":15.341,"date_only":"2025-11-22T00:00:00.000"},{"station":"IT2227A","station_name":"Avellino Scuola Alighieri","pollutant":"CO","date":"2025-11-22T00:00:00.000","value":0.5433333333,"Ore_Disponibili":24,"lat":40.9190395,"lon":14.784947,"date_only":"2025-11-22T00:00:00.000"},{"station":"IT2227A","station_name":"Avellino Scuola Alighieri","pollutant":"NO2","date":"2025-11-22T00:00:00.000","value":31.7516666667,"Ore_Disponibili":24,"lat":40.9190395,"lon":14.784947,"date_only":"2025-11-22T00:00:00.000"},{"station":"IT2227A","station_name":"Avellino Scuola Alighieri","pollutant":"PM10","date":"2025-11-22T00:00:00.000","value":10.1345833333,"Ore_Disponibili":24,"lat":40.9190395,"lon":14.784947,"date_only":"2025-11-22T00:00:00.000"},{"station":"IT2227A","station_name":"Avellino Scuola Alighieri","pollutant":"PM2,5","date":"2025-11-22T00:00:00.000","value":9.46375,"Ore_Disponibili":24,"lat":40.9190395,"lon":14.784947,"date_only":"2025-11-22T00:00:00.000"},{"station":"IT2228A","station_name":"Benevento Campo Sportivo","pollutant":"NO2","date":"2025-11-22T00:00:00.000","value":18.0129166667,"Ore_Disponibili":24,"lat":41.2315276,"lon":14.5332703,"date_only":"2025-11-22T00:00:00.000"},{"station":"IT2228A","station_name":"Benevento Campo Sportivo","pollutant":"O3","date":"2025-11-22T00:00:00.000","value":42.8083333333,"Ore_Disponibili":24,"lat":41.2315276,"lon":14.5332703,"date_only":"2025-11-22T00:00:00.000"},{"station":"IT2228A","station_name":"Benevento Campo Sportivo","pollutant":"PM10","date":"2025-11-22T00:00:00.000","value":11.4558333333,"Ore_Disponibili":24,"lat":41.2315276,"lon":14.5332703,"date_only":"2025-11-22T00:00:00.000"},{"station":"IT2228A","station_name":"Benevento Campo Sportivo","pollutant":"PM2,5","date":"2025-11-22T00:00:00.000","value":9.7679166667,"Ore_Disponibili":24,"lat":41.2315276,"lon":14.5332703,"date_only":"2025-11-22T00:00:00.000"},{"station":"IT2268A","station_name":"Battipaglia Parco Fiume","pollutant":"NO2","date":"2025-11-22T00:00:00.000","value":17.2552173913,"Ore_Disponibili":23,"lat":40.6167,"lon":14.9833,"date_only":"2025-11-22T00:00:00.000"},{"station":"IT2268A","station_name":"Battipaglia Parco Fiume","pollutant":"O3","date":"2025-11-22T00:00:00.000","value":47.3513043478,"Ore_Disponibili":23,"lat":40.6167,"lon":14.9833,"date_only":"2025-11-22T00:00:00.000"},{"station":"IT2268A","station_name":"Battipaglia Parco Fiume","pollutant":"PM10","date":"2025-11-22T00:00:00.000","value":0.0,"Ore_Disponibili":24,"lat":40.6167,"lon":14.9833,"date_only":"2025-11-22T00:00:00.000"},{"station":"IT2268A","station_name":"Battipaglia Parco Fiume","pollutant":"PM2,5","date":"2025-11-22T00:00:00.000","value":4.3,"Ore_Disponibili":24,"lat":40.6167,"lon":14.9833,"date_only":"2025-11-22T00:00:00.000"},{"station":"IT2270A","station_name":"Portici Parco Reggia","pollutant":"NO2","date":"2025-11-22T00:00:00.000","value":27.4959090909,"Ore_Disponibili":22,"lat":40.813588,"lon":14.3476526,"date_only":"2025-11-22T00:00:00.000"},{"station":"IT2270A","station_name":"Portici Parco Reggia","pollutant":"O3","date":"2025-11-22T00:00:00.000","value":28.2260869565,"Ore_Disponibili":23,"lat":40.813588,"lon":14.3476526,"date_only":"2025-11-22T00:00:00.000"},{"station":"IT2270A","station_name":"Portici Parco Reggia","pollutant":"PM10","date":"2025-11-22T00:00:00.000","value":12.20625,"Ore_Disponibili":24,"lat":40.813588,"lon":14.3476526,"date_only":"2025-11-22T00:00:00.000"},{"station":"IT2270A","station_name":"Portici Parco Reggia","pollutant":"PM2,5","date":"2025-11-22T00:00:00.000","value":10.7016666667,"Ore_Disponibili":24,"lat":40.813588,"lon":14.3476526,"date_only":"2025-11-22T00:00:00.000"},{"station":"IT2271A","station_name":"Aversa Scuola Cirillo \u00b0","pollutant":"CO","date":"2025-11-22T00:00:00.000","value":0.9704347826,"Ore_Disponibili":23,"lat":40.9758352,"lon":14.2117669,"date_only":"2025-11-22T00:00:00.000"},{"station":"IT2271A","station_name":"Aversa Scuola Cirillo \u00b0","pollutant":"NO2","date":"2025-11-22T00:00:00.000","value":34.3266666667,"Ore_Disponibili":21,"lat":40.9758352,"lon":14.2117669,"date_only":"2025-11-22T00:00:00.000"},{"station":"IT2271A","station_name":"Aversa Scuola Cirillo \u00b0","pollutant":"PM10","date":"2025-11-22T00:00:00.000","value":16.3804166667,"Ore_Disponibili":24,"lat":40.9758352,"lon":14.2117669,"date_only":"2025-11-22T00:00:00.000"},{"station":"IT2271A","station_name":"Aversa Scuola Cirillo \u00b0","pollutant":"PM2,5","date":"2025-11-22T00:00:00.000","value":14.6158333333,"Ore_Disponibili":24,"lat":40.9758352,"lon":14.2117669,"date_only":"2025-11-22T00:00:00.000"},{"station":"IT2272A","station_name":"Pozzuoli Zona Villa Avellino","pollutant":"NO2","date":"2025-11-22T00:00:00.000","value":19.6339130435,"Ore_Disponibili":23,"lat":40.834,"lon":14.119,"date_only":"2025-11-22T00:00:00.000"},{"station":"IT2272A","station_name":"Pozzuoli Zona Villa Avellino","pollutant":"O3","date":"2025-11-22T00:00:00.000","value":36.2294117647,"Ore_Disponibili":17,"lat":40.834,"lon":14.119,"date_only":"2025-11-22T00:00:00.000"},{"station":"IT2272A","station_name":"Pozzuoli Zona Villa Avellino","pollutant":"PM10","date":"2025-11-22T00:00:00.000","value":9.305,"Ore_Disponibili":24,"lat":40.834,"lon":14.119,"date_only":"2025-11-22T00:00:00.000"},{"station":"IT2272A","station_name":"Pozzuoli Zona Villa Avellino","pollutant":"PM2,5","date":"2025-11-22T00:00:00.000","value":6.9691666667,"Ore_Disponibili":24,"lat":40.834,"lon":14.119,"date_only":"2025-11-22T00:00:00.000"},{"station":"IT2273A","station_name":"Polla Area Tritovagliatore","pollutant":"CO","date":"2025-11-22T00:00:00.000","value":0.3234782609,"Ore_Disponibili":23,"lat":40.412,"lon":15.341,"date_only":"2025-11-22T00:00:00.000"},{"station":"IT2273A","station_name":"Polla Area Tritovagliatore","pollutant":"NO2","date":"2025-11-22T00:00:00.000","value":15.6291304348,"Ore_Disponibili":23,"lat":40.412,"lon":15.341,"date_only":"2025-11-22T00:00:00.000"},{"station":"IT2273A","station_name":"Polla Area Tritovagliatore","pollutant":"PM10","date":"2025-11-22T00:00:00.000","value":4.00875,"Ore_Disponibili":24,"lat":40.412,"lon":15.341,"date_only":"2025-11-22T00:00:00.000"},{"station":"IT2273A","station_name":"Polla Area Tritovagliatore","pollutant":"PM2,5","date":"2025-11-22T00:00:00.000","value":3.3208333333,"Ore_Disponibili":24,"lat":40.412,"lon":15.341,"date_only":"2025-11-22T00:00:00.000"},{"station":"IT2276A","station_name":"Ariano Irpino Stadio","pollutant":"CO","date":"2025-11-22T00:00:00.000","value":0.1408333333,"Ore_Disponibili":24,"lat":41.1555975,"lon":15.0967062,"date_only":"2025-11-22T00:00:00.000"},{"station":"IT2276A","station_name":"Ariano Irpino Stadio","pollutant":"NO2","date":"2025-11-22T00:00:00.000","value":5.9916666667,"Ore_Disponibili":24,"lat":41.1555975,"lon":15.0967062,"date_only":"2025-11-22T00:00:00.000"},{"station":"IT2276A","station_name":"Ariano Irpino Stadio","pollutant":"O3","date":"2025-11-22T00:00:00.000","value":75.2095652174,"Ore_Disponibili":23,"lat":41.1555975,"lon":15.0967062,"date_only":"2025-11-22T00:00:00.000"},{"station":"IT2277A","station_name":"Napoli Parco Virgiliano","pollutant":"CO","date":"2025-11-22T00:00:00.000","value":0.2720833333,"Ore_Disponibili":24,"lat":40.7984999,"lon":14.1790765,"date_only":"2025-11-22T00:00:00.000"},{"station":"IT2277A","station_name":"Napoli Parco Virgiliano","pollutant":"NO2","date":"2025-11-22T00:00:00.000","value":12.8991304348,"Ore_Disponibili":23,"lat":40.7984999,"lon":14.1790765,"date_only":"2025-11-22T00:00:00.000"},{"station":"IT2277A","station_name":"Napoli Parco Virgiliano","pollutant":"O3","date":"2025-11-22T00:00:00.000","value":50.9625,"Ore_Disponibili":24,"lat":40.7984999,"lon":14.1790765,"date_only":"2025-11-22T00:00:00.000"},{"station":"IT2277A","station_name":"Napoli Parco Virgiliano","pollutant":"PM10","date":"2025-11-22T00:00:00.000","value":0.0,"Ore_Disponibili":24,"lat":40.7984999,"lon":14.1790765,"date_only":"2025-11-22T00:00:00.000"},{"station":"IT2277A","station_name":"Napoli Parco Virgiliano","pollutant":"PM2,5","date":"2025-11-22T00:00:00.000","value":2.0,"Ore_Disponibili":24,"lat":40.7984999,"lon":14.1790765,"date_only":"2025-11-22T00:00:00.000"},{"station":"IT2283A","station_name":"Ottati Alburni","pollutant":"NO2","date":"2025-11-22T00:00:00.000","value":1.3252173913,"Ore_Disponibili":23,"lat":40.306,"lon":15.277,"date_only":"2025-11-22T00:00:00.000"},{"station":"IT2283A","station_name":"Ottati Alburni","pollutant":"O3","date":"2025-11-22T00:00:00.000","value":70.4191304348,"Ore_Disponibili":23,"lat":40.306,"lon":15.277,"date_only":"2025-11-22T00:00:00.000"},{"station":"IT2283A","station_name":"Ottati Alburni","pollutant":"PM10","date":"2025-11-22T00:00:00.000","value":1.7,"Ore_Disponibili":24,"lat":40.306,"lon":15.277,"date_only":"2025-11-22T00:00:00.000"},{"station":"IT2283A","station_name":"Ottati Alburni","pollutant":"PM2,5","date":"2025-11-22T00:00:00.000","value":0.4,"Ore_Disponibili":24,"lat":40.306,"lon":15.277,"date_only":"2025-11-22T00:00:00.000"}]