[{"station":"IT0898A","station_name":"NA06 MUSEO NAZIONALE","pollutant":"CO","date":"2025-03-30T00:00:00.000","value":0.5272727273,"Ore_Disponibili":22,"lat":40.8536064,"lon":14.25115,"date_only":"2025-03-30T00:00:00.000"},{"station":"IT0898A","station_name":"NA06 MUSEO NAZIONALE","pollutant":"NO2","date":"2025-03-30T00:00:00.000","value":24.75,"Ore_Disponibili":22,"lat":40.8536064,"lon":14.25115,"date_only":"2025-03-30T00:00:00.000"},{"station":"IT0898A","station_name":"NA06 MUSEO NAZIONALE","pollutant":"PM10","date":"2025-03-30T00:00:00.000","value":10.8826086957,"Ore_Disponibili":23,"lat":40.8536064,"lon":14.25115,"date_only":"2025-03-30T00:00:00.000"},{"station":"IT0898A","station_name":"NA06 MUSEO NAZIONALE","pollutant":"PM2,5","date":"2025-03-30T00:00:00.000","value":8.2434782609,"Ore_Disponibili":23,"lat":40.8536064,"lon":14.25115,"date_only":"2025-03-30T00:00:00.000"},{"station":"IT0934A","station_name":"BN32 Via Mustilli","pollutant":"NO2","date":"2025-03-30T00:00:00.000","value":18.1954545455,"Ore_Disponibili":22,"lat":41.7572524,"lon":12.3201661,"date_only":"2025-03-30T00:00:00.000"},{"station":"IT0934A","station_name":"BN32 Via Mustilli","pollutant":"PM10","date":"2025-03-30T00:00:00.000","value":17.1695652174,"Ore_Disponibili":23,"lat":41.7572524,"lon":12.3201661,"date_only":"2025-03-30T00:00:00.000"},{"station":"IT0934A","station_name":"BN32 Via Mustilli","pollutant":"PM2,5","date":"2025-03-30T00:00:00.000","value":9.9739130435,"Ore_Disponibili":23,"lat":41.7572524,"lon":12.3201661,"date_only":"2025-03-30T00:00:00.000"},{"station":"IT0936A","station_name":"AV41 SCUOLA V CIRCOLO","pollutant":"NO2","date":"2025-03-30T00:00:00.000","value":10.1181818182,"Ore_Disponibili":22,"lat":43.8951992,"lon":11.3222381,"date_only":"2025-03-30T00:00:00.000"},{"station":"IT0936A","station_name":"AV41 SCUOLA V CIRCOLO","pollutant":"O3","date":"2025-03-30T00:00:00.000","value":42.0363636364,"Ore_Disponibili":22,"lat":43.8951992,"lon":11.3222381,"date_only":"2025-03-30T00:00:00.000"},{"station":"IT0936A","station_name":"AV41 SCUOLA V CIRCOLO","pollutant":"PM10","date":"2025-03-30T00:00:00.000","value":7.4043478261,"Ore_Disponibili":23,"lat":43.8951992,"lon":11.3222381,"date_only":"2025-03-30T00:00:00.000"},{"station":"IT0936A","station_name":"AV41 SCUOLA V CIRCOLO","pollutant":"PM2,5","date":"2025-03-30T00:00:00.000","value":6.1304347826,"Ore_Disponibili":23,"lat":43.8951992,"lon":11.3222381,"date_only":"2025-03-30T00:00:00.000"},{"station":"IT1041A","station_name":"SA23 SCUOLA OSVALDO CONTI","pollutant":"NO2","date":"2025-03-30T00:00:00.000","value":15.7363636364,"Ore_Disponibili":22,"lat":41.058,"lon":14.808,"date_only":"2025-03-30T00:00:00.000"},{"station":"IT1041A","station_name":"SA23 SCUOLA OSVALDO CONTI","pollutant":"O3","date":"2025-03-30T00:00:00.000","value":42.0318181818,"Ore_Disponibili":22,"lat":41.058,"lon":14.808,"date_only":"2025-03-30T00:00:00.000"},{"station":"IT1041A","station_name":"SA23 SCUOLA OSVALDO CONTI","pollutant":"PM2,5","date":"2025-03-30T00:00:00.000","value":7.3,"Ore_Disponibili":23,"lat":41.058,"lon":14.808,"date_only":"2025-03-30T00:00:00.000"},{"station":"IT1486A","station_name":"CE51 ISTITUTO MANZONI","pollutant":"NO2","date":"2025-03-30T00:00:00.000","value":11.3545454545,"Ore_Disponibili":22,"lat":41.0818,"lon":14.3349,"date_only":"2025-03-30T00:00:00.000"},{"station":"IT1486A","station_name":"CE51 ISTITUTO MANZONI","pollutant":"O3","date":"2025-03-30T00:00:00.000","value":54.1136363636,"Ore_Disponibili":22,"lat":41.0818,"lon":14.3349,"date_only":"2025-03-30T00:00:00.000"},{"station":"IT1487A","station_name":"CE52 SCUOLA DE AMICIS","pollutant":"CO","date":"2025-03-30T00:00:00.000","value":0.3409090909,"Ore_Disponibili":22,"lat":45.4166851,"lon":11.8748262,"date_only":"2025-03-30T00:00:00.000"},{"station":"IT1487A","station_name":"CE52 SCUOLA DE AMICIS","pollutant":"NO2","date":"2025-03-30T00:00:00.000","value":18.3772727273,"Ore_Disponibili":22,"lat":45.4166851,"lon":11.8748262,"date_only":"2025-03-30T00:00:00.000"},{"station":"IT1487A","station_name":"CE52 SCUOLA DE AMICIS","pollutant":"PM2,5","date":"2025-03-30T00:00:00.000","value":3.8,"Ore_Disponibili":23,"lat":45.4166851,"lon":11.8748262,"date_only":"2025-03-30T00:00:00.000"},{"station":"IT1488A","station_name":"CE54 SCUOLA SETTEMBRINI","pollutant":"NO2","date":"2025-03-30T00:00:00.000","value":16.6454545455,"Ore_Disponibili":22,"lat":40.7402509,"lon":14.6724943,"date_only":"2025-03-30T00:00:00.000"},{"station":"IT1488A","station_name":"CE54 SCUOLA SETTEMBRINI","pollutant":"O3","date":"2025-03-30T00:00:00.000","value":38.35,"Ore_Disponibili":22,"lat":40.7402509,"lon":14.6724943,"date_only":"2025-03-30T00:00:00.000"},{"station":"IT1488A","station_name":"CE54 SCUOLA SETTEMBRINI","pollutant":"PM10","date":"2025-03-30T00:00:00.000","value":12.0217391304,"Ore_Disponibili":23,"lat":40.7402509,"lon":14.6724943,"date_only":"2025-03-30T00:00:00.000"},{"station":"IT1488A","station_name":"CE54 SCUOLA SETTEMBRINI","pollutant":"PM2,5","date":"2025-03-30T00:00:00.000","value":8.1739130435,"Ore_Disponibili":23,"lat":40.7402509,"lon":14.6724943,"date_only":"2025-03-30T00:00:00.000"},{"station":"IT1491A","station_name":"NA07 ENTE FERROVIE","pollutant":"CO","date":"2025-03-30T00:00:00.000","value":0.3318181818,"Ore_Disponibili":22,"lat":45.6541955,"lon":13.7741392,"date_only":"2025-03-30T00:00:00.000"},{"station":"IT1491A","station_name":"NA07 ENTE FERROVIE","pollutant":"NO2","date":"2025-03-30T00:00:00.000","value":28.6727272727,"Ore_Disponibili":22,"lat":45.6541955,"lon":13.7741392,"date_only":"2025-03-30T00:00:00.000"},{"station":"IT1491A","station_name":"NA07 ENTE FERROVIE","pollutant":"PM10","date":"2025-03-30T00:00:00.000","value":10.6727272727,"Ore_Disponibili":22,"lat":45.6541955,"lon":13.7741392,"date_only":"2025-03-30T00:00:00.000"},{"station":"IT1491A","station_name":"NA07 ENTE FERROVIE","pollutant":"PM2,5","date":"2025-03-30T00:00:00.000","value":7.6454545455,"Ore_Disponibili":22,"lat":45.6541955,"lon":13.7741392,"date_only":"2025-03-30T00:00:00.000"},{"station":"IT1493A","station_name":"NA09 I.T.I.S. ARGINE","pollutant":"CO","date":"2025-03-30T00:00:00.000","value":0.6136363636,"Ore_Disponibili":22,"lat":44.7377462,"lon":11.6477031,"date_only":"2025-03-30T00:00:00.000"},{"station":"IT1493A","station_name":"NA09 I.T.I.S. ARGINE","pollutant":"NO2","date":"2025-03-30T00:00:00.000","value":40.0,"Ore_Disponibili":22,"lat":44.7377462,"lon":11.6477031,"date_only":"2025-03-30T00:00:00.000"},{"station":"IT1493A","station_name":"NA09 I.T.I.S. ARGINE","pollutant":"PM10","date":"2025-03-30T00:00:00.000","value":19.2043478261,"Ore_Disponibili":23,"lat":44.7377462,"lon":11.6477031,"date_only":"2025-03-30T00:00:00.000"},{"station":"IT1493A","station_name":"NA09 I.T.I.S. ARGINE","pollutant":"PM2,5","date":"2025-03-30T00:00:00.000","value":14.5227272727,"Ore_Disponibili":22,"lat":44.7377462,"lon":11.6477031,"date_only":"2025-03-30T00:00:00.000"},{"station":"IT1495A","station_name":"NA08 OSPEDALE NUOVO PELLEGRINI","pollutant":"NO2","date":"2025-03-30T00:00:00.000","value":16.1333333333,"Ore_Disponibili":3,"lat":40.8535,"lon":14.235,"date_only":"2025-03-30T00:00:00.000"},{"station":"IT1495A","station_name":"NA08 OSPEDALE NUOVO PELLEGRINI","pollutant":"PM10","date":"2025-03-30T00:00:00.000","value":13.6,"Ore_Disponibili":23,"lat":40.8535,"lon":14.235,"date_only":"2025-03-30T00:00:00.000"},{"station":"IT1496A","station_name":"NA02 OSPEDALE SANTOBONO","pollutant":"NO2","date":"2025-03-30T00:00:00.000","value":35.0772727273,"Ore_Disponibili":22,"lat":40.8615516,"lon":14.2278503,"date_only":"2025-03-30T00:00:00.000"},{"station":"IT1496A","station_name":"NA02 OSPEDALE SANTOBONO","pollutant":"PM10","date":"2025-03-30T00:00:00.000","value":8.1826086957,"Ore_Disponibili":23,"lat":40.8615516,"lon":14.2278503,"date_only":"2025-03-30T00:00:00.000"},{"station":"IT1496A","station_name":"NA02 OSPEDALE SANTOBONO","pollutant":"PM2,5","date":"2025-03-30T00:00:00.000","value":5.4608695652,"Ore_Disponibili":23,"lat":40.8615516,"lon":14.2278503,"date_only":"2025-03-30T00:00:00.000"},{"station":"IT1497A","station_name":"NA01 OSSERVATORIO ASTRONOMICO","pollutant":"CO","date":"2025-03-30T00:00:00.000","value":0.1772727273,"Ore_Disponibili":22,"lat":46.0863714,"lon":13.3165669,"date_only":"2025-03-30T00:00:00.000"},{"station":"IT1497A","station_name":"NA01 OSSERVATORIO ASTRONOMICO","pollutant":"O3","date":"2025-03-30T00:00:00.000","value":64.2863636364,"Ore_Disponibili":22,"lat":46.0863714,"lon":13.3165669,"date_only":"2025-03-30T00:00:00.000"},{"station":"IT1497A","station_name":"NA01 OSSERVATORIO ASTRONOMICO","pollutant":"PM10","date":"2025-03-30T00:00:00.000","value":8.6782608696,"Ore_Disponibili":23,"lat":46.0863714,"lon":13.3165669,"date_only":"2025-03-30T00:00:00.000"},{"station":"IT1497A","station_name":"NA01 OSSERVATORIO ASTRONOMICO","pollutant":"PM2,5","date":"2025-03-30T00:00:00.000","value":4.8869565217,"Ore_Disponibili":23,"lat":46.0863714,"lon":13.3165669,"date_only":"2025-03-30T00:00:00.000"},{"station":"IT1504A","station_name":"SA22 Ospedale via Vernieri","pollutant":"CO","date":"2025-03-30T00:00:00.000","value":0.3428571429,"Ore_Disponibili":21,"lat":40.682,"lon":14.766,"date_only":"2025-03-30T00:00:00.000"},{"station":"IT1504A","station_name":"SA22 Ospedale via Vernieri","pollutant":"NO2","date":"2025-03-30T00:00:00.000","value":9.5380952381,"Ore_Disponibili":21,"lat":40.682,"lon":14.766,"date_only":"2025-03-30T00:00:00.000"},{"station":"IT1504A","station_name":"SA22 Ospedale via Vernieri","pollutant":"PM10","date":"2025-03-30T00:00:00.000","value":8.1904761905,"Ore_Disponibili":21,"lat":40.682,"lon":14.766,"date_only":"2025-03-30T00:00:00.000"},{"station":"IT1504A","station_name":"SA22 Ospedale via Vernieri","pollutant":"PM2,5","date":"2025-03-30T00:00:00.000","value":5.8666666667,"Ore_Disponibili":21,"lat":40.682,"lon":14.766,"date_only":"2025-03-30T00:00:00.000"},{"station":"IT2210A","station_name":"SOLOFRA ZONA INDUSTRIALE","pollutant":"CO","date":"2025-03-30T00:00:00.000","value":0.2782608696,"Ore_Disponibili":23,"lat":41.058,"lon":14.808,"date_only":"2025-03-30T00:00:00.000"},{"station":"IT2210A","station_name":"SOLOFRA ZONA INDUSTRIALE","pollutant":"NO2","date":"2025-03-30T00:00:00.000","value":2.7863636364,"Ore_Disponibili":22,"lat":41.058,"lon":14.808,"date_only":"2025-03-30T00:00:00.000"},{"station":"IT2210A","station_name":"SOLOFRA ZONA INDUSTRIALE","pollutant":"PM10","date":"2025-03-30T00:00:00.000","value":6.4304347826,"Ore_Disponibili":23,"lat":41.058,"lon":14.808,"date_only":"2025-03-30T00:00:00.000"},{"station":"IT2210A","station_name":"SOLOFRA ZONA INDUSTRIALE","pollutant":"PM2,5","date":"2025-03-30T00:00:00.000","value":4.8173913043,"Ore_Disponibili":23,"lat":41.058,"lon":14.808,"date_only":"2025-03-30T00:00:00.000"},{"station":"IT2211A","station_name":"ACERRA ZONA INDUSTRIALE","pollutant":"CO","date":"2025-03-30T00:00:00.000","value":0.4227272727,"Ore_Disponibili":22,"lat":40.9847962,"lon":14.3679606,"date_only":"2025-03-30T00:00:00.000"},{"station":"IT2211A","station_name":"ACERRA ZONA INDUSTRIALE","pollutant":"NO2","date":"2025-03-30T00:00:00.000","value":15.0318181818,"Ore_Disponibili":22,"lat":40.9847962,"lon":14.3679606,"date_only":"2025-03-30T00:00:00.000"},{"station":"IT2211A","station_name":"ACERRA ZONA INDUSTRIALE","pollutant":"PM10","date":"2025-03-30T00:00:00.000","value":10.1,"Ore_Disponibili":23,"lat":40.9847962,"lon":14.3679606,"date_only":"2025-03-30T00:00:00.000"},{"station":"IT2211A","station_name":"ACERRA ZONA INDUSTRIALE","pollutant":"PM2,5","date":"2025-03-30T00:00:00.000","value":6.9,"Ore_Disponibili":23,"lat":40.9847962,"lon":14.3679606,"date_only":"2025-03-30T00:00:00.000"},{"station":"IT2212A","station_name":"San Vitaliano Scuola Elementare Marconi","pollutant":"NO2","date":"2025-03-30T00:00:00.000","value":80.9409090909,"Ore_Disponibili":22,"lat":40.896,"lon":14.46,"date_only":"2025-03-30T00:00:00.000"},{"station":"IT2212A","station_name":"San Vitaliano Scuola Elementare Marconi","pollutant":"O3","date":"2025-03-30T00:00:00.000","value":49.1772727273,"Ore_Disponibili":22,"lat":40.896,"lon":14.46,"date_only":"2025-03-30T00:00:00.000"},{"station":"IT2212A","station_name":"San Vitaliano Scuola Elementare Marconi","pollutant":"PM10","date":"2025-03-30T00:00:00.000","value":15.3304347826,"Ore_Disponibili":23,"lat":40.896,"lon":14.46,"date_only":"2025-03-30T00:00:00.000"},{"station":"IT2212A","station_name":"San Vitaliano Scuola Elementare Marconi","pollutant":"PM2,5","date":"2025-03-30T00:00:00.000","value":13.0086956522,"Ore_Disponibili":23,"lat":40.896,"lon":14.46,"date_only":"2025-03-30T00:00:00.000"},{"station":"IT2213A","station_name":"CAVA DEI TIRRENI - STADIO","pollutant":"CO","date":"2025-03-30T00:00:00.000","value":0.3727272727,"Ore_Disponibili":22,"lat":44.4937761,"lon":11.3101851,"date_only":"2025-03-30T00:00:00.000"},{"station":"IT2213A","station_name":"CAVA DEI TIRRENI - STADIO","pollutant":"NO2","date":"2025-03-30T00:00:00.000","value":12.3181818182,"Ore_Disponibili":22,"lat":44.4937761,"lon":11.3101851,"date_only":"2025-03-30T00:00:00.000"},{"station":"IT2213A","station_name":"CAVA DEI TIRRENI - STADIO","pollutant":"O3","date":"2025-03-30T00:00:00.000","value":67.0409090909,"Ore_Disponibili":22,"lat":44.4937761,"lon":11.3101851,"date_only":"2025-03-30T00:00:00.000"},{"station":"IT2213A","station_name":"CAVA DEI TIRRENI - STADIO","pollutant":"PM10","date":"2025-03-30T00:00:00.000","value":8.4217391304,"Ore_Disponibili":23,"lat":44.4937761,"lon":11.3101851,"date_only":"2025-03-30T00:00:00.000"},{"station":"IT2213A","station_name":"CAVA DEI TIRRENI - STADIO","pollutant":"PM2,5","date":"2025-03-30T00:00:00.000","value":6.252173913,"Ore_Disponibili":23,"lat":44.4937761,"lon":11.3101851,"date_only":"2025-03-30T00:00:00.000"},{"station":"IT2214A","station_name":"Nocera Inferiore scuola Solimene","pollutant":"CO","date":"2025-03-30T00:00:00.000","value":0.1636363636,"Ore_Disponibili":22,"lat":40.7445,"lon":14.734,"date_only":"2025-03-30T00:00:00.000"},{"station":"IT2214A","station_name":"Nocera Inferiore scuola Solimene","pollutant":"NO2","date":"2025-03-30T00:00:00.000","value":6.4727272727,"Ore_Disponibili":22,"lat":40.7445,"lon":14.734,"date_only":"2025-03-30T00:00:00.000"},{"station":"IT2214A","station_name":"Nocera Inferiore scuola Solimene","pollutant":"PM10","date":"2025-03-30T00:00:00.000","value":7.0260869565,"Ore_Disponibili":23,"lat":40.7445,"lon":14.734,"date_only":"2025-03-30T00:00:00.000"},{"station":"IT2214A","station_name":"Nocera Inferiore scuola Solimene","pollutant":"PM2,5","date":"2025-03-30T00:00:00.000","value":5.4956521739,"Ore_Disponibili":23,"lat":40.7445,"lon":14.734,"date_only":"2025-03-30T00:00:00.000"},{"station":"IT2215A","station_name":"BENEVENTO ZONA INDUSTRIALE","pollutant":"O3","date":"2025-03-30T00:00:00.000","value":27.9380952381,"Ore_Disponibili":21,"lat":41.2293368,"lon":14.4782074,"date_only":"2025-03-30T00:00:00.000"},{"station":"IT2215A","station_name":"BENEVENTO ZONA INDUSTRIALE","pollutant":"PM10","date":"2025-03-30T00:00:00.000","value":9.1434782609,"Ore_Disponibili":23,"lat":41.2293368,"lon":14.4782074,"date_only":"2025-03-30T00:00:00.000"},{"station":"IT2215A","station_name":"BENEVENTO ZONA INDUSTRIALE","pollutant":"PM2,5","date":"2025-03-30T00:00:00.000","value":6.3956521739,"Ore_Disponibili":23,"lat":41.2293368,"lon":14.4782074,"date_only":"2025-03-30T00:00:00.000"},{"station":"IT2216A","station_name":"Casoria Scuola Palizzi (CAM)","pollutant":"NO2","date":"2025-03-30T00:00:00.000","value":11.2136363636,"Ore_Disponibili":22,"lat":40.904,"lon":14.289,"date_only":"2025-03-30T00:00:00.000"},{"station":"IT2216A","station_name":"Casoria Scuola Palizzi (CAM)","pollutant":"O3","date":"2025-03-30T00:00:00.000","value":55.55,"Ore_Disponibili":22,"lat":40.904,"lon":14.289,"date_only":"2025-03-30T00:00:00.000"},{"station":"IT2216A","station_name":"Casoria Scuola Palizzi (CAM)","pollutant":"PM10","date":"2025-03-30T00:00:00.000","value":11.1956521739,"Ore_Disponibili":23,"lat":40.904,"lon":14.289,"date_only":"2025-03-30T00:00:00.000"},{"station":"IT2216A","station_name":"Casoria Scuola Palizzi (CAM)","pollutant":"PM2,5","date":"2025-03-30T00:00:00.000","value":9.2956521739,"Ore_Disponibili":23,"lat":40.904,"lon":14.289,"date_only":"2025-03-30T00:00:00.000"},{"station":"IT2217A","station_name":"Torre Annunziata Scuola Media Pascoli","pollutant":"NO2","date":"2025-03-30T00:00:00.000","value":10.8590909091,"Ore_Disponibili":22,"lat":40.831,"lon":14.426,"date_only":"2025-03-30T00:00:00.000"},{"station":"IT2217A","station_name":"Torre Annunziata Scuola Media Pascoli","pollutant":"O3","date":"2025-03-30T00:00:00.000","value":65.6181818182,"Ore_Disponibili":22,"lat":40.831,"lon":14.426,"date_only":"2025-03-30T00:00:00.000"},{"station":"IT2218A","station_name":"San Felice a Cancello Complesso scolastico","pollutant":"CO","date":"2025-03-30T00:00:00.000","value":0.3652173913,"Ore_Disponibili":23,"lat":41.015,"lon":14.287,"date_only":"2025-03-30T00:00:00.000"},{"station":"IT2218A","station_name":"San Felice a Cancello Complesso scolastico","pollutant":"NO2","date":"2025-03-30T00:00:00.000","value":2.8173913043,"Ore_Disponibili":23,"lat":41.015,"lon":14.287,"date_only":"2025-03-30T00:00:00.000"},{"station":"IT2218A","station_name":"San Felice a Cancello Complesso scolastico","pollutant":"O3","date":"2025-03-30T00:00:00.000","value":73.4272727273,"Ore_Disponibili":22,"lat":41.015,"lon":14.287,"date_only":"2025-03-30T00:00:00.000"},{"station":"IT2218A","station_name":"San Felice a Cancello Complesso scolastico","pollutant":"PM10","date":"2025-03-30T00:00:00.000","value":8.8086956522,"Ore_Disponibili":23,"lat":41.015,"lon":14.287,"date_only":"2025-03-30T00:00:00.000"},{"station":"IT2218A","station_name":"San Felice a Cancello Complesso scolastico","pollutant":"PM2,5","date":"2025-03-30T00:00:00.000","value":6.5695652174,"Ore_Disponibili":23,"lat":41.015,"lon":14.287,"date_only":"2025-03-30T00:00:00.000"},{"station":"IT2219A","station_name":"Acerra scuola Caporale","pollutant":"CO","date":"2025-03-30T00:00:00.000","value":0.6818181818,"Ore_Disponibili":22,"lat":40.9169,"lon":14.3425,"date_only":"2025-03-30T00:00:00.000"},{"station":"IT2219A","station_name":"Acerra scuola Caporale","pollutant":"NO2","date":"2025-03-30T00:00:00.000","value":8.1272727273,"Ore_Disponibili":22,"lat":40.9169,"lon":14.3425,"date_only":"2025-03-30T00:00:00.000"},{"station":"IT2219A","station_name":"Acerra scuola Caporale","pollutant":"PM10","date":"2025-03-30T00:00:00.000","value":9.2304347826,"Ore_Disponibili":23,"lat":40.9169,"lon":14.3425,"date_only":"2025-03-30T00:00:00.000"},{"station":"IT2219A","station_name":"Acerra scuola Caporale","pollutant":"PM2,5","date":"2025-03-30T00:00:00.000","value":6.4434782609,"Ore_Disponibili":23,"lat":40.9169,"lon":14.3425,"date_only":"2025-03-30T00:00:00.000"},{"station":"IT2221A","station_name":"Napoli via Epomeo","pollutant":"CO","date":"2025-03-30T00:00:00.000","value":0.4090909091,"Ore_Disponibili":22,"lat":40.7205434,"lon":13.8987737,"date_only":"2025-03-30T00:00:00.000"},{"station":"IT2221A","station_name":"Napoli via Epomeo","pollutant":"NO2","date":"2025-03-30T00:00:00.000","value":14.8045454545,"Ore_Disponibili":22,"lat":40.7205434,"lon":13.8987737,"date_only":"2025-03-30T00:00:00.000"},{"station":"IT2221A","station_name":"Napoli via Epomeo","pollutant":"O3","date":"2025-03-30T00:00:00.000","value":49.5090909091,"Ore_Disponibili":22,"lat":40.7205434,"lon":13.8987737,"date_only":"2025-03-30T00:00:00.000"},{"station":"IT2221A","station_name":"Napoli via Epomeo","pollutant":"PM10","date":"2025-03-30T00:00:00.000","value":8.1347826087,"Ore_Disponibili":23,"lat":40.7205434,"lon":13.8987737,"date_only":"2025-03-30T00:00:00.000"},{"station":"IT2221A","station_name":"Napoli via Epomeo","pollutant":"PM2,5","date":"2025-03-30T00:00:00.000","value":5.9739130435,"Ore_Disponibili":23,"lat":40.7205434,"lon":13.8987737,"date_only":"2025-03-30T00:00:00.000"},{"station":"IT2223A","station_name":"Volla via Filichito","pollutant":"CO","date":"2025-03-30T00:00:00.000","value":0.4136363636,"Ore_Disponibili":22,"lat":40.8824226,"lon":14.3478545,"date_only":"2025-03-30T00:00:00.000"},{"station":"IT2223A","station_name":"Volla via Filichito","pollutant":"NO2","date":"2025-03-30T00:00:00.000","value":28.5217391304,"Ore_Disponibili":23,"lat":40.8824226,"lon":14.3478545,"date_only":"2025-03-30T00:00:00.000"},{"station":"IT2223A","station_name":"Volla via Filichito","pollutant":"O3","date":"2025-03-30T00:00:00.000","value":24.35,"Ore_Disponibili":22,"lat":40.8824226,"lon":14.3478545,"date_only":"2025-03-30T00:00:00.000"},{"station":"IT2223A","station_name":"Volla via Filichito","pollutant":"PM10","date":"2025-03-30T00:00:00.000","value":10.847826087,"Ore_Disponibili":23,"lat":40.8824226,"lon":14.3478545,"date_only":"2025-03-30T00:00:00.000"},{"station":"IT2223A","station_name":"Volla via Filichito","pollutant":"PM2,5","date":"2025-03-30T00:00:00.000","value":9.1130434783,"Ore_Disponibili":23,"lat":40.8824226,"lon":14.3478545,"date_only":"2025-03-30T00:00:00.000"},{"station":"IT2226A","station_name":"Pomigliano d'Arco Area ASI","pollutant":"NO2","date":"2025-03-30T00:00:00.000","value":15.0227272727,"Ore_Disponibili":22,"lat":40.9075,"lon":14.393,"date_only":"2025-03-30T00:00:00.000"},{"station":"IT2226A","station_name":"Pomigliano d'Arco Area ASI","pollutant":"PM10","date":"2025-03-30T00:00:00.000","value":7.7043478261,"Ore_Disponibili":23,"lat":40.9075,"lon":14.393,"date_only":"2025-03-30T00:00:00.000"},{"station":"IT2226A","station_name":"Pomigliano d'Arco Area ASI","pollutant":"PM2,5","date":"2025-03-30T00:00:00.000","value":4.0130434783,"Ore_Disponibili":23,"lat":40.9075,"lon":14.393,"date_only":"2025-03-30T00:00:00.000"},{"station":"IT2227A","station_name":"AVELLINO - SCUOLA ALIGHIERI","pollutant":"CO","date":"2025-03-30T00:00:00.000","value":0.4136363636,"Ore_Disponibili":22,"lat":40.9190395,"lon":14.784947,"date_only":"2025-03-30T00:00:00.000"},{"station":"IT2227A","station_name":"AVELLINO - SCUOLA ALIGHIERI","pollutant":"NO2","date":"2025-03-30T00:00:00.000","value":22.9391304348,"Ore_Disponibili":23,"lat":40.9190395,"lon":14.784947,"date_only":"2025-03-30T00:00:00.000"},{"station":"IT2227A","station_name":"AVELLINO - SCUOLA ALIGHIERI","pollutant":"PM10","date":"2025-03-30T00:00:00.000","value":4.7434782609,"Ore_Disponibili":23,"lat":40.9190395,"lon":14.784947,"date_only":"2025-03-30T00:00:00.000"},{"station":"IT2227A","station_name":"AVELLINO - SCUOLA ALIGHIERI","pollutant":"PM2,5","date":"2025-03-30T00:00:00.000","value":3.6260869565,"Ore_Disponibili":23,"lat":40.9190395,"lon":14.784947,"date_only":"2025-03-30T00:00:00.000"},{"station":"IT2228A","station_name":"BENEVENTO CAMPO SPORTIVO","pollutant":"NO2","date":"2025-03-30T00:00:00.000","value":9.9173913043,"Ore_Disponibili":23,"lat":41.2315276,"lon":14.5332703,"date_only":"2025-03-30T00:00:00.000"},{"station":"IT2228A","station_name":"BENEVENTO CAMPO SPORTIVO","pollutant":"O3","date":"2025-03-30T00:00:00.000","value":43.9818181818,"Ore_Disponibili":22,"lat":41.2315276,"lon":14.5332703,"date_only":"2025-03-30T00:00:00.000"},{"station":"IT2228A","station_name":"BENEVENTO CAMPO SPORTIVO","pollutant":"PM10","date":"2025-03-30T00:00:00.000","value":10.5260869565,"Ore_Disponibili":23,"lat":41.2315276,"lon":14.5332703,"date_only":"2025-03-30T00:00:00.000"},{"station":"IT2228A","station_name":"BENEVENTO CAMPO SPORTIVO","pollutant":"PM2,5","date":"2025-03-30T00:00:00.000","value":7.6347826087,"Ore_Disponibili":23,"lat":41.2315276,"lon":14.5332703,"date_only":"2025-03-30T00:00:00.000"},{"station":"IT2268A","station_name":"BATTIPAGLIA - PARCO FIUME","pollutant":"NO2","date":"2025-03-30T00:00:00.000","value":15.7545454545,"Ore_Disponibili":22,"lat":44.3859682,"lon":7.5509829,"date_only":"2025-03-30T00:00:00.000"},{"station":"IT2268A","station_name":"BATTIPAGLIA - PARCO FIUME","pollutant":"O3","date":"2025-03-30T00:00:00.000","value":50.9818181818,"Ore_Disponibili":22,"lat":44.3859682,"lon":7.5509829,"date_only":"2025-03-30T00:00:00.000"},{"station":"IT2268A","station_name":"BATTIPAGLIA - PARCO FIUME","pollutant":"PM10","date":"2025-03-30T00:00:00.000","value":3.2,"Ore_Disponibili":23,"lat":44.3859682,"lon":7.5509829,"date_only":"2025-03-30T00:00:00.000"},{"station":"IT2268A","station_name":"BATTIPAGLIA - PARCO FIUME","pollutant":"PM2,5","date":"2025-03-30T00:00:00.000","value":0.0,"Ore_Disponibili":23,"lat":44.3859682,"lon":7.5509829,"date_only":"2025-03-30T00:00:00.000"},{"station":"IT2270A","station_name":"Portici parco Reggia","pollutant":"NO2","date":"2025-03-30T00:00:00.000","value":10.6363636364,"Ore_Disponibili":22,"lat":40.813588,"lon":14.3476526,"date_only":"2025-03-30T00:00:00.000"},{"station":"IT2270A","station_name":"Portici parco Reggia","pollutant":"O3","date":"2025-03-30T00:00:00.000","value":60.4727272727,"Ore_Disponibili":22,"lat":40.813588,"lon":14.3476526,"date_only":"2025-03-30T00:00:00.000"},{"station":"IT2270A","station_name":"Portici parco Reggia","pollutant":"PM10","date":"2025-03-30T00:00:00.000","value":6.9826086957,"Ore_Disponibili":23,"lat":40.813588,"lon":14.3476526,"date_only":"2025-03-30T00:00:00.000"},{"station":"IT2270A","station_name":"Portici parco Reggia","pollutant":"PM2,5","date":"2025-03-30T00:00:00.000","value":5.3565217391,"Ore_Disponibili":23,"lat":40.813588,"lon":14.3476526,"date_only":"2025-03-30T00:00:00.000"},{"station":"IT2271A","station_name":"Aversa scuola Cirillo","pollutant":"CO","date":"2025-03-30T00:00:00.000","value":0.5590909091,"Ore_Disponibili":22,"lat":40.9758352,"lon":14.2117669,"date_only":"2025-03-30T00:00:00.000"},{"station":"IT2271A","station_name":"Aversa scuola Cirillo","pollutant":"NO2","date":"2025-03-30T00:00:00.000","value":16.8545454545,"Ore_Disponibili":22,"lat":40.9758352,"lon":14.2117669,"date_only":"2025-03-30T00:00:00.000"},{"station":"IT2271A","station_name":"Aversa scuola Cirillo","pollutant":"PM10","date":"2025-03-30T00:00:00.000","value":12.2260869565,"Ore_Disponibili":23,"lat":40.9758352,"lon":14.2117669,"date_only":"2025-03-30T00:00:00.000"},{"station":"IT2271A","station_name":"Aversa scuola Cirillo","pollutant":"PM2,5","date":"2025-03-30T00:00:00.000","value":9.0391304348,"Ore_Disponibili":23,"lat":40.9758352,"lon":14.2117669,"date_only":"2025-03-30T00:00:00.000"},{"station":"IT2272A","station_name":"Pozzuoli ex Villa Avellino","pollutant":"NO2","date":"2025-03-30T00:00:00.000","value":11.8086956522,"Ore_Disponibili":23,"lat":40.834,"lon":14.119,"date_only":"2025-03-30T00:00:00.000"},{"station":"IT2272A","station_name":"Pozzuoli ex Villa Avellino","pollutant":"O3","date":"2025-03-30T00:00:00.000","value":54.7695652174,"Ore_Disponibili":23,"lat":40.834,"lon":14.119,"date_only":"2025-03-30T00:00:00.000"},{"station":"IT2273A","station_name":"Polla Area tritovagliatore","pollutant":"CO","date":"2025-03-30T00:00:00.000","value":0.1727272727,"Ore_Disponibili":22,"lat":40.412,"lon":15.341,"date_only":"2025-03-30T00:00:00.000"},{"station":"IT2273A","station_name":"Polla Area tritovagliatore","pollutant":"NO2","date":"2025-03-30T00:00:00.000","value":19.1409090909,"Ore_Disponibili":22,"lat":40.412,"lon":15.341,"date_only":"2025-03-30T00:00:00.000"},{"station":"IT2273A","station_name":"Polla Area tritovagliatore","pollutant":"PM10","date":"2025-03-30T00:00:00.000","value":9.352173913,"Ore_Disponibili":23,"lat":40.412,"lon":15.341,"date_only":"2025-03-30T00:00:00.000"},{"station":"IT2273A","station_name":"Polla Area tritovagliatore","pollutant":"PM2,5","date":"2025-03-30T00:00:00.000","value":7.7173913043,"Ore_Disponibili":23,"lat":40.412,"lon":15.341,"date_only":"2025-03-30T00:00:00.000"},{"station":"IT2276A","station_name":"Ariano Irpino Villa Comunale","pollutant":"CO","date":"2025-03-30T00:00:00.000","value":0.2772727273,"Ore_Disponibili":22,"lat":41.1549432,"lon":15.0951624,"date_only":"2025-03-30T00:00:00.000"},{"station":"IT2276A","station_name":"Ariano Irpino Villa Comunale","pollutant":"NO2","date":"2025-03-30T00:00:00.000","value":1.2913043478,"Ore_Disponibili":23,"lat":41.1549432,"lon":15.0951624,"date_only":"2025-03-30T00:00:00.000"},{"station":"IT2276A","station_name":"Ariano Irpino Villa Comunale","pollutant":"O3","date":"2025-03-30T00:00:00.000","value":88.2045454545,"Ore_Disponibili":22,"lat":41.1549432,"lon":15.0951624,"date_only":"2025-03-30T00:00:00.000"},{"station":"IT2277A","station_name":"Napoli parco Virgiliano","pollutant":"CO","date":"2025-03-30T00:00:00.000","value":0.3318181818,"Ore_Disponibili":22,"lat":40.7984999,"lon":14.1790765,"date_only":"2025-03-30T00:00:00.000"},{"station":"IT2277A","station_name":"Napoli parco Virgiliano","pollutant":"O3","date":"2025-03-30T00:00:00.000","value":74.6130434783,"Ore_Disponibili":23,"lat":40.7984999,"lon":14.1790765,"date_only":"2025-03-30T00:00:00.000"},{"station":"IT2283A","station_name":"OTTATI - ALBURNI","pollutant":"NO2","date":"2025-03-30T00:00:00.000","value":2.3727272727,"Ore_Disponibili":22,"lat":40.560311,"lon":15.303957,"date_only":"2025-03-30T00:00:00.000"},{"station":"IT2283A","station_name":"OTTATI - ALBURNI","pollutant":"O3","date":"2025-03-30T00:00:00.000","value":80.4136363636,"Ore_Disponibili":22,"lat":40.560311,"lon":15.303957,"date_only":"2025-03-30T00:00:00.000"},{"station":"IT2283A","station_name":"OTTATI - ALBURNI","pollutant":"PM10","date":"2025-03-30T00:00:00.000","value":10.8,"Ore_Disponibili":23,"lat":40.560311,"lon":15.303957,"date_only":"2025-03-30T00:00:00.000"},{"station":"IT2283A","station_name":"OTTATI - ALBURNI","pollutant":"PM2,5","date":"2025-03-30T00:00:00.000","value":2.1,"Ore_Disponibili":23,"lat":40.560311,"lon":15.303957,"date_only":"2025-03-30T00:00:00.000"}]