[{"station":"EDI01","station_name":"Presenzano Vic. Monastero \u00b0*","pollutant":"NO2","date":"2025-10-17","value":6.974173913,"Ore_Disponibili":23,"lat":41.239,"lon":14.232,"date_only":"2025-10-17T00:00:00.000"},{"station":"EDI01","station_name":"Presenzano Vic. Monastero \u00b0*","pollutant":"O3","date":"2025-10-17","value":56.8504347826,"Ore_Disponibili":23,"lat":41.239,"lon":14.232,"date_only":"2025-10-17T00:00:00.000"},{"station":"EDI01","station_name":"Presenzano Vic. Monastero \u00b0*","pollutant":"PM10","date":"2025-10-17","value":2.9565217391,"Ore_Disponibili":23,"lat":41.239,"lon":14.232,"date_only":"2025-10-17T00:00:00.000"},{"station":"EDI02","station_name":"Pratella Loc. Mastrati \u00b0*","pollutant":"NO2","date":"2025-10-17","value":5.7409583333,"Ore_Disponibili":24,"lat":41.461,"lon":14.641,"date_only":"2025-10-17T00:00:00.000"},{"station":"EDI02","station_name":"Pratella Loc. Mastrati \u00b0*","pollutant":"O3","date":"2025-10-17","value":53.405,"Ore_Disponibili":24,"lat":41.461,"lon":14.641,"date_only":"2025-10-17T00:00:00.000"},{"station":"EDI02","station_name":"Pratella Loc. Mastrati \u00b0*","pollutant":"PM10","date":"2025-10-17","value":6.6666666667,"Ore_Disponibili":24,"lat":41.461,"lon":14.641,"date_only":"2025-10-17T00:00:00.000"},{"station":"IT0898A","station_name":"Napoli NA06 Museo Nazionale","pollutant":"NO2","date":"2025-10-17","value":39.6503333333,"Ore_Disponibili":24,"lat":40.8536064,"lon":14.25115,"date_only":"2025-10-17T00:00:00.000"},{"station":"IT0898A","station_name":"Napoli NA06 Museo Nazionale","pollutant":"PM10","date":"2025-10-17","value":9.5111111111,"Ore_Disponibili":9,"lat":40.8536064,"lon":14.25115,"date_only":"2025-10-17T00:00:00.000"},{"station":"IT0934A","station_name":"Benevento BN32 Via Mustilli","pollutant":"NO2","date":"2025-10-17","value":14.4305833333,"Ore_Disponibili":24,"lat":41.1317868,"lon":14.7885516,"date_only":"2025-10-17T00:00:00.000"},{"station":"IT0934A","station_name":"Benevento BN32 Via Mustilli","pollutant":"PM10","date":"2025-10-17","value":13.4833333333,"Ore_Disponibili":6,"lat":41.1317868,"lon":14.7885516,"date_only":"2025-10-17T00:00:00.000"},{"station":"IT0936A","station_name":"Avellino AV41 Sc. V Circolo \u00b0","pollutant":"NO2","date":"2025-10-17","value":4.1557083333,"Ore_Disponibili":24,"lat":40.9152,"lon":14.7955,"date_only":"2025-10-17T00:00:00.000"},{"station":"IT0936A","station_name":"Avellino AV41 Sc. V Circolo \u00b0","pollutant":"O3","date":"2025-10-17","value":32.4069565217,"Ore_Disponibili":23,"lat":40.9152,"lon":14.7955,"date_only":"2025-10-17T00:00:00.000"},{"station":"IT0936A","station_name":"Avellino AV41 Sc. V Circolo \u00b0","pollutant":"PM10","date":"2025-10-17","value":3.8717391304,"Ore_Disponibili":23,"lat":40.9152,"lon":14.7955,"date_only":"2025-10-17T00:00:00.000"},{"station":"IT1041A","station_name":"Salerno SA23 Scuola Conti \u00b0","pollutant":"NO2","date":"2025-10-17","value":9.6800833333,"Ore_Disponibili":24,"lat":40.675,"lon":14.768,"date_only":"2025-10-17T00:00:00.000"},{"station":"IT1041A","station_name":"Salerno SA23 Scuola Conti \u00b0","pollutant":"O3","date":"2025-10-17","value":37.0216666667,"Ore_Disponibili":24,"lat":40.675,"lon":14.768,"date_only":"2025-10-17T00:00:00.000"},{"station":"IT1486A","station_name":"Caserta CE51 Ist. Manzoni","pollutant":"NO2","date":"2025-10-17","value":7.8292916667,"Ore_Disponibili":24,"lat":41.0818,"lon":14.3349,"date_only":"2025-10-17T00:00:00.000"},{"station":"IT1486A","station_name":"Caserta CE51 Ist. Manzoni","pollutant":"O3","date":"2025-10-17","value":57.7933333333,"Ore_Disponibili":24,"lat":41.0818,"lon":14.3349,"date_only":"2025-10-17T00:00:00.000"},{"station":"IT1486A","station_name":"Caserta CE51 Ist. Manzoni","pollutant":"PM10","date":"2025-10-17","value":4.5285714286,"Ore_Disponibili":7,"lat":41.0818,"lon":14.3349,"date_only":"2025-10-17T00:00:00.000"},{"station":"IT1487A","station_name":"Caserta CE52 Sc. De Amicis","pollutant":"NO2","date":"2025-10-17","value":8.4757619048,"Ore_Disponibili":21,"lat":41.0085302,"lon":14.0787912,"date_only":"2025-10-17T00:00:00.000"},{"station":"IT1487A","station_name":"Caserta CE52 Sc. De Amicis","pollutant":"PM10","date":"2025-10-17","value":22.8,"Ore_Disponibili":24,"lat":41.0085302,"lon":14.0787912,"date_only":"2025-10-17T00:00:00.000"},{"station":"IT1488A","station_name":"Maddaloni CE54 Sc. Settembrini","pollutant":"NO2","date":"2025-10-17","value":10.2149130435,"Ore_Disponibili":23,"lat":41.094,"lon":14.402,"date_only":"2025-10-17T00:00:00.000"},{"station":"IT1488A","station_name":"Maddaloni CE54 Sc. Settembrini","pollutant":"O3","date":"2025-10-17","value":50.0113043478,"Ore_Disponibili":23,"lat":41.094,"lon":14.402,"date_only":"2025-10-17T00:00:00.000"},{"station":"IT1488A","station_name":"Maddaloni CE54 Sc. Settembrini","pollutant":"PM10","date":"2025-10-17","value":7.9533333333,"Ore_Disponibili":24,"lat":41.094,"lon":14.402,"date_only":"2025-10-17T00:00:00.000"},{"station":"IT1491A","station_name":"Napoli NA07 Ferrovia \u00b0","pollutant":"NO2","date":"2025-10-17","value":40.6162916667,"Ore_Disponibili":24,"lat":40.8277815,"lon":14.3989433,"date_only":"2025-10-17T00:00:00.000"},{"station":"IT1491A","station_name":"Napoli NA07 Ferrovia \u00b0","pollutant":"PM10","date":"2025-10-17","value":11.4375,"Ore_Disponibili":8,"lat":40.8277815,"lon":14.3989433,"date_only":"2025-10-17T00:00:00.000"},{"station":"IT1493A","station_name":"Napoli NA09 Via Argine","pollutant":"NO2","date":"2025-10-17","value":40.3581666667,"Ore_Disponibili":24,"lat":40.8560636,"lon":14.3234622,"date_only":"2025-10-17T00:00:00.000"},{"station":"IT1493A","station_name":"Napoli NA09 Via Argine","pollutant":"PM10","date":"2025-10-17","value":16.0888888889,"Ore_Disponibili":9,"lat":40.8560636,"lon":14.3234622,"date_only":"2025-10-17T00:00:00.000"},{"station":"IT1495A","station_name":"Napoli NA08 Osp. N. Pellegrini","pollutant":"NO2","date":"2025-10-17","value":36.4477272727,"Ore_Disponibili":22,"lat":40.8535,"lon":14.235,"date_only":"2025-10-17T00:00:00.000"},{"station":"IT1495A","station_name":"Napoli NA08 Osp. N. Pellegrini","pollutant":"PM10","date":"2025-10-17","value":12.4,"Ore_Disponibili":24,"lat":40.8535,"lon":14.235,"date_only":"2025-10-17T00:00:00.000"},{"station":"IT1496A","station_name":"Napoli NA02 Osp. Santobono \u00b0","pollutant":"NO2","date":"2025-10-17","value":39.0974583333,"Ore_Disponibili":24,"lat":40.8554,"lon":14.2231,"date_only":"2025-10-17T00:00:00.000"},{"station":"IT1496A","station_name":"Napoli NA02 Osp. Santobono \u00b0","pollutant":"PM10","date":"2025-10-17","value":7.9041666667,"Ore_Disponibili":24,"lat":40.8554,"lon":14.2231,"date_only":"2025-10-17T00:00:00.000"},{"station":"IT1497A","station_name":"Napoli NA01 Oss. Astronomico","pollutant":"NO2","date":"2025-10-17","value":27.0089047619,"Ore_Disponibili":21,"lat":40.853,"lon":14.305,"date_only":"2025-10-17T00:00:00.000"},{"station":"IT1497A","station_name":"Napoli NA01 Oss. Astronomico","pollutant":"O3","date":"2025-10-17","value":38.8733333333,"Ore_Disponibili":24,"lat":40.853,"lon":14.305,"date_only":"2025-10-17T00:00:00.000"},{"station":"IT1497A","station_name":"Napoli NA01 Oss. Astronomico","pollutant":"PM10","date":"2025-10-17","value":12.16,"Ore_Disponibili":24,"lat":40.853,"lon":14.305,"date_only":"2025-10-17T00:00:00.000"},{"station":"IT1504A","station_name":"Salerno SA22 Osp. Via Vernieri","pollutant":"NO2","date":"2025-10-17","value":10.72525,"Ore_Disponibili":24,"lat":40.682,"lon":14.766,"date_only":"2025-10-17T00:00:00.000"},{"station":"IT1504A","station_name":"Salerno SA22 Osp. Via Vernieri","pollutant":"PM10","date":"2025-10-17","value":7.1333333333,"Ore_Disponibili":9,"lat":40.682,"lon":14.766,"date_only":"2025-10-17T00:00:00.000"},{"station":"IT2210A","station_name":"Solofra Zona Industriale","pollutant":"NO2","date":"2025-10-17","value":3.4762608696,"Ore_Disponibili":23,"lat":41.058,"lon":14.808,"date_only":"2025-10-17T00:00:00.000"},{"station":"IT2210A","station_name":"Solofra Zona Industriale","pollutant":"PM10","date":"2025-10-17","value":5.4691666667,"Ore_Disponibili":24,"lat":41.058,"lon":14.808,"date_only":"2025-10-17T00:00:00.000"},{"station":"IT2211A","station_name":"Acerra Zona Industriale","pollutant":"NO2","date":"2025-10-17","value":25.2766153846,"Ore_Disponibili":13,"lat":40.9847962,"lon":14.3679606,"date_only":"2025-10-17T00:00:00.000"},{"station":"IT2211A","station_name":"Acerra Zona Industriale","pollutant":"PM10","date":"2025-10-17","value":5.7,"Ore_Disponibili":24,"lat":40.9847962,"lon":14.3679606,"date_only":"2025-10-17T00:00:00.000"},{"station":"IT2212A","station_name":"S. Vitaliano Scuola Marconi","pollutant":"NO2","date":"2025-10-17","value":23.6026956522,"Ore_Disponibili":23,"lat":40.896,"lon":14.46,"date_only":"2025-10-17T00:00:00.000"},{"station":"IT2212A","station_name":"S. Vitaliano Scuola Marconi","pollutant":"O3","date":"2025-10-17","value":50.4495652174,"Ore_Disponibili":23,"lat":40.896,"lon":14.46,"date_only":"2025-10-17T00:00:00.000"},{"station":"IT2212A","station_name":"S. Vitaliano Scuola Marconi","pollutant":"PM10","date":"2025-10-17","value":5.0879166667,"Ore_Disponibili":24,"lat":40.896,"lon":14.46,"date_only":"2025-10-17T00:00:00.000"},{"station":"IT2213A","station_name":"Cava dei Tirreni Stadio","pollutant":"NO2","date":"2025-10-17","value":17.4023043478,"Ore_Disponibili":23,"lat":40.7125,"lon":14.638,"date_only":"2025-10-17T00:00:00.000"},{"station":"IT2213A","station_name":"Cava dei Tirreni Stadio","pollutant":"O3","date":"2025-10-17","value":41.68,"Ore_Disponibili":23,"lat":40.7125,"lon":14.638,"date_only":"2025-10-17T00:00:00.000"},{"station":"IT2213A","station_name":"Cava dei Tirreni Stadio","pollutant":"PM10","date":"2025-10-17","value":7.1775,"Ore_Disponibili":24,"lat":40.7125,"lon":14.638,"date_only":"2025-10-17T00:00:00.000"},{"station":"IT2214A","station_name":"Nocera Inferiore Sc. Solimena","pollutant":"NO2","date":"2025-10-17","value":12.722826087,"Ore_Disponibili":23,"lat":40.7473393,"lon":14.6410145,"date_only":"2025-10-17T00:00:00.000"},{"station":"IT2214A","station_name":"Nocera Inferiore Sc. Solimena","pollutant":"PM10","date":"2025-10-17","value":4.0983333333,"Ore_Disponibili":24,"lat":40.7473393,"lon":14.6410145,"date_only":"2025-10-17T00:00:00.000"},{"station":"IT2215A","station_name":"Benevento Zona Industriale \u00b0","pollutant":"NO2","date":"2025-10-17","value":10.715875,"Ore_Disponibili":24,"lat":41.2293368,"lon":14.4782074,"date_only":"2025-10-17T00:00:00.000"},{"station":"IT2215A","station_name":"Benevento Zona Industriale \u00b0","pollutant":"O3","date":"2025-10-17","value":33.1826086957,"Ore_Disponibili":23,"lat":41.2293368,"lon":14.4782074,"date_only":"2025-10-17T00:00:00.000"},{"station":"IT2215A","station_name":"Benevento Zona Industriale \u00b0","pollutant":"PM10","date":"2025-10-17","value":9.84125,"Ore_Disponibili":24,"lat":41.2293368,"lon":14.4782074,"date_only":"2025-10-17T00:00:00.000"},{"station":"IT2216A","station_name":"Casoria Scuola Palizzi","pollutant":"NO2","date":"2025-10-17","value":22.8662727273,"Ore_Disponibili":22,"lat":40.904,"lon":14.289,"date_only":"2025-10-17T00:00:00.000"},{"station":"IT2216A","station_name":"Casoria Scuola Palizzi","pollutant":"O3","date":"2025-10-17","value":34.3869565217,"Ore_Disponibili":23,"lat":40.904,"lon":14.289,"date_only":"2025-10-17T00:00:00.000"},{"station":"IT2216A","station_name":"Casoria Scuola Palizzi","pollutant":"PM10","date":"2025-10-17","value":13.1141666667,"Ore_Disponibili":24,"lat":40.904,"lon":14.289,"date_only":"2025-10-17T00:00:00.000"},{"station":"IT2217A","station_name":"Torre Annunziata Sc. Pascoli","pollutant":"NO2","date":"2025-10-17","value":19.1469090909,"Ore_Disponibili":22,"lat":40.7469754,"lon":14.4608234,"date_only":"2025-10-17T00:00:00.000"},{"station":"IT2217A","station_name":"Torre Annunziata Sc. Pascoli","pollutant":"O3","date":"2025-10-17","value":38.3304347826,"Ore_Disponibili":23,"lat":40.7469754,"lon":14.4608234,"date_only":"2025-10-17T00:00:00.000"},{"station":"IT2218A","station_name":"San Felice a Cancello C. Scolast.","pollutant":"NO2","date":"2025-10-17","value":2.0540434783,"Ore_Disponibili":23,"lat":41.015,"lon":14.287,"date_only":"2025-10-17T00:00:00.000"},{"station":"IT2218A","station_name":"San Felice a Cancello C. Scolast.","pollutant":"O3","date":"2025-10-17","value":71.4634782609,"Ore_Disponibili":23,"lat":41.015,"lon":14.287,"date_only":"2025-10-17T00:00:00.000"},{"station":"IT2218A","station_name":"San Felice a Cancello C. Scolast.","pollutant":"PM10","date":"2025-10-17","value":3.9470833333,"Ore_Disponibili":24,"lat":41.015,"lon":14.287,"date_only":"2025-10-17T00:00:00.000"},{"station":"IT2219A","station_name":"Acerra Scuola Caporale","pollutant":"NO2","date":"2025-10-17","value":19.5021,"Ore_Disponibili":20,"lat":40.9071,"lon":14.3429,"date_only":"2025-10-17T00:00:00.000"},{"station":"IT2219A","station_name":"Acerra Scuola Caporale","pollutant":"PM10","date":"2025-10-17","value":10.8516666667,"Ore_Disponibili":24,"lat":40.9071,"lon":14.3429,"date_only":"2025-10-17T00:00:00.000"},{"station":"IT2221A","station_name":"Napoli via Epomeo *\u00b0","pollutant":"NO2","date":"2025-10-17","value":21.848125,"Ore_Disponibili":24,"lat":40.7205434,"lon":13.8987737,"date_only":"2025-10-17T00:00:00.000"},{"station":"IT2221A","station_name":"Napoli via Epomeo *\u00b0","pollutant":"O3","date":"2025-10-17","value":27.2241666667,"Ore_Disponibili":24,"lat":40.7205434,"lon":13.8987737,"date_only":"2025-10-17T00:00:00.000"},{"station":"IT2221A","station_name":"Napoli via Epomeo *\u00b0","pollutant":"PM10","date":"2025-10-17","value":9.71375,"Ore_Disponibili":24,"lat":40.7205434,"lon":13.8987737,"date_only":"2025-10-17T00:00:00.000"},{"station":"IT2223A","station_name":"Volla Via Filichito *\u00b0","pollutant":"NO2","date":"2025-10-17","value":34.9614166667,"Ore_Disponibili":24,"lat":40.8824226,"lon":14.3478545,"date_only":"2025-10-17T00:00:00.000"},{"station":"IT2223A","station_name":"Volla Via Filichito *\u00b0","pollutant":"O3","date":"2025-10-17","value":13.579047619,"Ore_Disponibili":21,"lat":40.8824226,"lon":14.3478545,"date_only":"2025-10-17T00:00:00.000"},{"station":"IT2223A","station_name":"Volla Via Filichito *\u00b0","pollutant":"PM10","date":"2025-10-17","value":5.3216666667,"Ore_Disponibili":24,"lat":40.8824226,"lon":14.3478545,"date_only":"2025-10-17T00:00:00.000"},{"station":"IT2226A","station_name":"Pomigliano d'Arco Area Asi","pollutant":"NO2","date":"2025-10-17","value":27.9389130435,"Ore_Disponibili":23,"lat":40.412,"lon":15.341,"date_only":"2025-10-17T00:00:00.000"},{"station":"IT2226A","station_name":"Pomigliano d'Arco Area Asi","pollutant":"PM10","date":"2025-10-17","value":9.1375,"Ore_Disponibili":8,"lat":40.412,"lon":15.341,"date_only":"2025-10-17T00:00:00.000"},{"station":"IT2227A","station_name":"Avellino Scuola Alighieri","pollutant":"NO2","date":"2025-10-17","value":16.9819166667,"Ore_Disponibili":24,"lat":40.9190395,"lon":14.784947,"date_only":"2025-10-17T00:00:00.000"},{"station":"IT2227A","station_name":"Avellino Scuola Alighieri","pollutant":"PM10","date":"2025-10-17","value":3.5104166667,"Ore_Disponibili":24,"lat":40.9190395,"lon":14.784947,"date_only":"2025-10-17T00:00:00.000"},{"station":"IT2228A","station_name":"Benevento Campo Sportivo","pollutant":"NO2","date":"2025-10-17","value":12.0219583333,"Ore_Disponibili":24,"lat":41.2315276,"lon":14.5332703,"date_only":"2025-10-17T00:00:00.000"},{"station":"IT2228A","station_name":"Benevento Campo Sportivo","pollutant":"O3","date":"2025-10-17","value":25.6443478261,"Ore_Disponibili":23,"lat":41.2315276,"lon":14.5332703,"date_only":"2025-10-17T00:00:00.000"},{"station":"IT2228A","station_name":"Benevento Campo Sportivo","pollutant":"PM10","date":"2025-10-17","value":11.6020833333,"Ore_Disponibili":24,"lat":41.2315276,"lon":14.5332703,"date_only":"2025-10-17T00:00:00.000"},{"station":"IT2268A","station_name":"Battipaglia Parco Fiume","pollutant":"NO2","date":"2025-10-17","value":22.9185652174,"Ore_Disponibili":23,"lat":40.6167,"lon":14.9833,"date_only":"2025-10-17T00:00:00.000"},{"station":"IT2268A","station_name":"Battipaglia Parco Fiume","pollutant":"O3","date":"2025-10-17","value":26.0313043478,"Ore_Disponibili":23,"lat":40.6167,"lon":14.9833,"date_only":"2025-10-17T00:00:00.000"},{"station":"IT2268A","station_name":"Battipaglia Parco Fiume","pollutant":"PM10","date":"2025-10-17","value":0.0,"Ore_Disponibili":24,"lat":40.6167,"lon":14.9833,"date_only":"2025-10-17T00:00:00.000"},{"station":"IT2270A","station_name":"Portici Parco Reggia","pollutant":"NO2","date":"2025-10-17","value":22.6281304348,"Ore_Disponibili":23,"lat":40.813588,"lon":14.3476526,"date_only":"2025-10-17T00:00:00.000"},{"station":"IT2270A","station_name":"Portici Parco Reggia","pollutant":"O3","date":"2025-10-17","value":25.8558333333,"Ore_Disponibili":24,"lat":40.813588,"lon":14.3476526,"date_only":"2025-10-17T00:00:00.000"},{"station":"IT2270A","station_name":"Portici Parco Reggia","pollutant":"PM10","date":"2025-10-17","value":7.0654166667,"Ore_Disponibili":24,"lat":40.813588,"lon":14.3476526,"date_only":"2025-10-17T00:00:00.000"},{"station":"IT2271A","station_name":"Aversa Scuola Cirillo \u00b0","pollutant":"NO2","date":"2025-10-17","value":25.0965652174,"Ore_Disponibili":23,"lat":40.9758352,"lon":14.2117669,"date_only":"2025-10-17T00:00:00.000"},{"station":"IT2271A","station_name":"Aversa Scuola Cirillo \u00b0","pollutant":"PM10","date":"2025-10-17","value":7.0829166667,"Ore_Disponibili":24,"lat":40.9758352,"lon":14.2117669,"date_only":"2025-10-17T00:00:00.000"},{"station":"IT2272A","station_name":"Pozzuoli Zona Villa Avellino","pollutant":"NO2","date":"2025-10-17","value":16.932,"Ore_Disponibili":2,"lat":40.834,"lon":14.119,"date_only":"2025-10-17T00:00:00.000"},{"station":"IT2272A","station_name":"Pozzuoli Zona Villa Avellino","pollutant":"O3","date":"2025-10-17","value":25.0558333333,"Ore_Disponibili":24,"lat":40.834,"lon":14.119,"date_only":"2025-10-17T00:00:00.000"},{"station":"IT2272A","station_name":"Pozzuoli Zona Villa Avellino","pollutant":"PM10","date":"2025-10-17","value":8.1045833333,"Ore_Disponibili":24,"lat":40.834,"lon":14.119,"date_only":"2025-10-17T00:00:00.000"},{"station":"IT2273A","station_name":"Polla Area Tritovagliatore","pollutant":"NO2","date":"2025-10-17","value":18.631,"Ore_Disponibili":23,"lat":40.412,"lon":15.341,"date_only":"2025-10-17T00:00:00.000"},{"station":"IT2273A","station_name":"Polla Area Tritovagliatore","pollutant":"PM10","date":"2025-10-17","value":5.27125,"Ore_Disponibili":24,"lat":40.412,"lon":15.341,"date_only":"2025-10-17T00:00:00.000"},{"station":"IT2276A","station_name":"Ariano Irpino Stadio","pollutant":"NO2","date":"2025-10-17","value":5.7378695652,"Ore_Disponibili":23,"lat":41.1555975,"lon":15.0967062,"date_only":"2025-10-17T00:00:00.000"},{"station":"IT2276A","station_name":"Ariano Irpino Stadio","pollutant":"O3","date":"2025-10-17","value":61.8652173913,"Ore_Disponibili":23,"lat":41.1555975,"lon":15.0967062,"date_only":"2025-10-17T00:00:00.000"},{"station":"IT2277A","station_name":"Napoli Parco Virgiliano","pollutant":"NO2","date":"2025-10-17","value":19.8981304348,"Ore_Disponibili":23,"lat":40.7984999,"lon":14.1790765,"date_only":"2025-10-17T00:00:00.000"},{"station":"IT2277A","station_name":"Napoli Parco Virgiliano","pollutant":"O3","date":"2025-10-17","value":51.4890909091,"Ore_Disponibili":22,"lat":40.7984999,"lon":14.1790765,"date_only":"2025-10-17T00:00:00.000"},{"station":"IT2277A","station_name":"Napoli Parco Virgiliano","pollutant":"PM10","date":"2025-10-17","value":4.6,"Ore_Disponibili":24,"lat":40.7984999,"lon":14.1790765,"date_only":"2025-10-17T00:00:00.000"},{"station":"IT2283A","station_name":"Ottati Alburni","pollutant":"NO2","date":"2025-10-17","value":2.0894347826,"Ore_Disponibili":23,"lat":40.306,"lon":15.277,"date_only":"2025-10-17T00:00:00.000"},{"station":"IT2283A","station_name":"Ottati Alburni","pollutant":"O3","date":"2025-10-17","value":53.6956521739,"Ore_Disponibili":23,"lat":40.306,"lon":15.277,"date_only":"2025-10-17T00:00:00.000"},{"station":"IT2283A","station_name":"Ottati Alburni","pollutant":"PM10","date":"2025-10-17","value":0.0,"Ore_Disponibili":24,"lat":40.306,"lon":15.277,"date_only":"2025-10-17T00:00:00.000"},{"station":"LM01","station_name":"Laboratorio Mobile LM01","pollutant":"NO2","date":"2025-10-17","value":36.4986666667,"Ore_Disponibili":24,"lat":40.916943,"lon":14.780833,"date_only":"2025-10-17T00:00:00.000"},{"station":"LM01","station_name":"Laboratorio Mobile LM01","pollutant":"O3","date":"2025-10-17","value":39.4483333333,"Ore_Disponibili":24,"lat":40.916943,"lon":14.780833,"date_only":"2025-10-17T00:00:00.000"},{"station":"LM01","station_name":"Laboratorio Mobile LM01","pollutant":"PM10","date":"2025-10-17","value":7.8125,"Ore_Disponibili":8,"lat":40.916943,"lon":14.780833,"date_only":"2025-10-17T00:00:00.000"},{"station":"LM03","station_name":"Laboratorio Mobile LM03","pollutant":"NO2","date":"2025-10-17","value":15.5281428571,"Ore_Disponibili":21,"lat":40.805622,"lon":14.173979,"date_only":"2025-10-17T00:00:00.000"},{"station":"LM03","station_name":"Laboratorio Mobile LM03","pollutant":"O3","date":"2025-10-17","value":37.1419047619,"Ore_Disponibili":21,"lat":40.805622,"lon":14.173979,"date_only":"2025-10-17T00:00:00.000"},{"station":"LM03","station_name":"Laboratorio Mobile LM03","pollutant":"PM10","date":"2025-10-17","value":7.2133333333,"Ore_Disponibili":24,"lat":40.805622,"lon":14.173979,"date_only":"2025-10-17T00:00:00.000"},{"station":"MMA61","station_name":"Laboratorio Mobile MMA","pollutant":"NO2","date":"2025-10-17","value":13.9387826087,"Ore_Disponibili":23,"lat":null,"lon":null,"date_only":"2025-10-17T00:00:00.000"},{"station":"MMA61","station_name":"Laboratorio Mobile MMA","pollutant":"O3","date":"2025-10-17","value":43.147826087,"Ore_Disponibili":23,"lat":null,"lon":null,"date_only":"2025-10-17T00:00:00.000"},{"station":"MMA61","station_name":"Laboratorio Mobile MMA","pollutant":"PM10","date":"2025-10-17","value":5.7504166667,"Ore_Disponibili":24,"lat":null,"lon":null,"date_only":"2025-10-17T00:00:00.000"},{"station":"MMB62","station_name":"Laboratorio Mobile MMB","pollutant":"NO2","date":"2025-10-17","value":13.4885652174,"Ore_Disponibili":23,"lat":40.805622,"lon":14.173979,"date_only":"2025-10-17T00:00:00.000"},{"station":"MMB62","station_name":"Laboratorio Mobile MMB","pollutant":"O3","date":"2025-10-17","value":49.5904347826,"Ore_Disponibili":23,"lat":40.805622,"lon":14.173979,"date_only":"2025-10-17T00:00:00.000"},{"station":"MMB62","station_name":"Laboratorio Mobile MMB","pollutant":"PM10","date":"2025-10-17","value":7.28375,"Ore_Disponibili":24,"lat":40.805622,"lon":14.173979,"date_only":"2025-10-17T00:00:00.000"},{"station":"STIR01","station_name":"Pianodardine STIR","pollutant":"NO2","date":"2025-10-17","value":16.1573478261,"Ore_Disponibili":23,"lat":40.9436148,"lon":14.8298173,"date_only":"2025-10-17T00:00:00.000"},{"station":"STIR01","station_name":"Pianodardine STIR","pollutant":"O3","date":"2025-10-17","value":34.8339130435,"Ore_Disponibili":23,"lat":40.9436148,"lon":14.8298173,"date_only":"2025-10-17T00:00:00.000"},{"station":"STIR01","station_name":"Pianodardine STIR","pollutant":"PM10","date":"2025-10-17","value":5.7,"Ore_Disponibili":24,"lat":40.9436148,"lon":14.8298173,"date_only":"2025-10-17T00:00:00.000"},{"station":"STIR03","station_name":"Casalduni STIR","pollutant":"O3","date":"2025-10-17","value":56.3247619048,"Ore_Disponibili":21,"lat":41.2595,"lon":14.6949,"date_only":"2025-10-17T00:00:00.000"},{"station":"STIR05","station_name":"Caivano STIR","pollutant":"NO2","date":"2025-10-17","value":6.3913478261,"Ore_Disponibili":23,"lat":40.9965849,"lon":14.2944939,"date_only":"2025-10-17T00:00:00.000"},{"station":"STIR05","station_name":"Caivano STIR","pollutant":"O3","date":"2025-10-17","value":67.6104347826,"Ore_Disponibili":23,"lat":40.9965849,"lon":14.2944939,"date_only":"2025-10-17T00:00:00.000"},{"station":"STIR05","station_name":"Caivano STIR","pollutant":"PM10","date":"2025-10-17","value":3.0,"Ore_Disponibili":24,"lat":40.9965849,"lon":14.2944939,"date_only":"2025-10-17T00:00:00.000"},{"station":"STIR07","station_name":"Battipaglia STIR","pollutant":"NO2","date":"2025-10-17","value":11.7747391304,"Ore_Disponibili":23,"lat":40.6167,"lon":14.9833,"date_only":"2025-10-17T00:00:00.000"},{"station":"STIR07","station_name":"Battipaglia STIR","pollutant":"PM10","date":"2025-10-17","value":5.0,"Ore_Disponibili":24,"lat":40.6167,"lon":14.9833,"date_only":"2025-10-17T00:00:00.000"},{"station":"STIR08","station_name":"S. Maria Capua V. STIR","pollutant":"NO2","date":"2025-10-17","value":17.460625,"Ore_Disponibili":16,"lat":41.048084,"lon":14.2385823,"date_only":"2025-10-17T00:00:00.000"},{"station":"STIR08","station_name":"S. Maria Capua V. STIR","pollutant":"O3","date":"2025-10-17","value":33.8643478261,"Ore_Disponibili":23,"lat":41.048084,"lon":14.2385823,"date_only":"2025-10-17T00:00:00.000"},{"station":"STIR08","station_name":"S. Maria Capua V. STIR","pollutant":"PM10","date":"2025-10-17","value":1.1,"Ore_Disponibili":24,"lat":41.048084,"lon":14.2385823,"date_only":"2025-10-17T00:00:00.000"},{"station":"STIR10","station_name":"Tufino STIR","pollutant":"NO2","date":"2025-10-17","value":14.8360416667,"Ore_Disponibili":24,"lat":40.944411,"lon":14.5808578,"date_only":"2025-10-17T00:00:00.000"},{"station":"STIR10","station_name":"Tufino STIR","pollutant":"O3","date":"2025-10-17","value":46.9113043478,"Ore_Disponibili":23,"lat":40.944411,"lon":14.5808578,"date_only":"2025-10-17T00:00:00.000"},{"station":"STIR10","station_name":"Tufino STIR","pollutant":"PM10","date":"2025-10-17","value":5.4,"Ore_Disponibili":24,"lat":40.944411,"lon":14.5808578,"date_only":"2025-10-17T00:00:00.000"},{"station":"STIR23","station_name":"Giugliano STIR","pollutant":"NO2","date":"2025-10-17","value":14.2914,"Ore_Disponibili":15,"lat":40.9385072,"lon":14.1080969,"date_only":"2025-10-17T00:00:00.000"},{"station":"STIR23","station_name":"Giugliano STIR","pollutant":"O3","date":"2025-10-17","value":35.8113043478,"Ore_Disponibili":23,"lat":40.9385072,"lon":14.1080969,"date_only":"2025-10-17T00:00:00.000"},{"station":"STIR23","station_name":"Giugliano STIR","pollutant":"PM10","date":"2025-10-17","value":7.5,"Ore_Disponibili":24,"lat":40.9385072,"lon":14.1080969,"date_only":"2025-10-17T00:00:00.000"},{"station":"STIR30","station_name":"Discarica Maruzzella","pollutant":"PM10","date":"2025-10-17","value":5.1,"Ore_Disponibili":24,"lat":41.05389,"lon":14.23389,"date_only":"2025-10-17T00:00:00.000"},{"station":"STIR38","station_name":"Acerra Scuola Capasso","pollutant":"O3","date":"2025-10-17","value":42.5965217391,"Ore_Disponibili":23,"lat":40.9071,"lon":14.3429,"date_only":"2025-10-17T00:00:00.000"},{"station":"STIR38","station_name":"Acerra Scuola Capasso","pollutant":"PM10","date":"2025-10-17","value":15.5,"Ore_Disponibili":24,"lat":40.9071,"lon":14.3429,"date_only":"2025-10-17T00:00:00.000"}]