[{"station":"IT0898A","station_name":"Napoli NA06 Museo Nazionale","pollutant":"CO","date":"2025-11-14T00:00:00.000","value":1.121625,"Ore_Disponibili":24,"lat":40.8536064,"lon":14.25115,"date_only":"2025-11-14T00:00:00.000"},{"station":"IT0898A","station_name":"Napoli NA06 Museo Nazionale","pollutant":"NO2","date":"2025-11-14T00:00:00.000","value":62.54025,"Ore_Disponibili":24,"lat":40.8536064,"lon":14.25115,"date_only":"2025-11-14T00:00:00.000"},{"station":"IT0898A","station_name":"Napoli NA06 Museo Nazionale","pollutant":"PM10","date":"2025-11-14T00:00:00.000","value":37.5,"Ore_Disponibili":10,"lat":40.8536064,"lon":14.25115,"date_only":"2025-11-14T00:00:00.000"},{"station":"IT0898A","station_name":"Napoli NA06 Museo Nazionale","pollutant":"PM2,5","date":"2025-11-14T00:00:00.000","value":30.37,"Ore_Disponibili":10,"lat":40.8536064,"lon":14.25115,"date_only":"2025-11-14T00:00:00.000"},{"station":"IT0934A","station_name":"Benevento BN32 Via Mustilli","pollutant":"NO2","date":"2025-11-14T00:00:00.000","value":29.7636666667,"Ore_Disponibili":24,"lat":41.1317868,"lon":14.7885516,"date_only":"2025-11-14T00:00:00.000"},{"station":"IT0934A","station_name":"Benevento BN32 Via Mustilli","pollutant":"PM10","date":"2025-11-14T00:00:00.000","value":46.08,"Ore_Disponibili":10,"lat":41.1317868,"lon":14.7885516,"date_only":"2025-11-14T00:00:00.000"},{"station":"IT0934A","station_name":"Benevento BN32 Via Mustilli","pollutant":"PM2,5","date":"2025-11-14T00:00:00.000","value":38.79,"Ore_Disponibili":10,"lat":41.1317868,"lon":14.7885516,"date_only":"2025-11-14T00:00:00.000"},{"station":"IT0936A","station_name":"Avellino AV41 Sc. V Circolo \u00b0","pollutant":"NO2","date":"2025-11-14T00:00:00.000","value":34.7655416667,"Ore_Disponibili":24,"lat":40.9152,"lon":14.7955,"date_only":"2025-11-14T00:00:00.000"},{"station":"IT0936A","station_name":"Avellino AV41 Sc. V Circolo \u00b0","pollutant":"O3","date":"2025-11-14T00:00:00.000","value":15.7891666667,"Ore_Disponibili":24,"lat":40.9152,"lon":14.7955,"date_only":"2025-11-14T00:00:00.000"},{"station":"IT0936A","station_name":"Avellino AV41 Sc. V Circolo \u00b0","pollutant":"PM10","date":"2025-11-14T00:00:00.000","value":52.58625,"Ore_Disponibili":24,"lat":40.9152,"lon":14.7955,"date_only":"2025-11-14T00:00:00.000"},{"station":"IT0936A","station_name":"Avellino AV41 Sc. V Circolo \u00b0","pollutant":"PM2,5","date":"2025-11-14T00:00:00.000","value":47.04125,"Ore_Disponibili":24,"lat":40.9152,"lon":14.7955,"date_only":"2025-11-14T00:00:00.000"},{"station":"IT1041A","station_name":"Salerno SA23 Scuola Conti \u00b0","pollutant":"NO2","date":"2025-11-14T00:00:00.000","value":43.300125,"Ore_Disponibili":24,"lat":40.675,"lon":14.768,"date_only":"2025-11-14T00:00:00.000"},{"station":"IT1041A","station_name":"Salerno SA23 Scuola Conti \u00b0","pollutant":"O3","date":"2025-11-14T00:00:00.000","value":13.6166666667,"Ore_Disponibili":12,"lat":40.675,"lon":14.768,"date_only":"2025-11-14T00:00:00.000"},{"station":"IT1041A","station_name":"Salerno SA23 Scuola Conti \u00b0","pollutant":"PM2,5","date":"2025-11-14T00:00:00.000","value":20.0,"Ore_Disponibili":24,"lat":40.675,"lon":14.768,"date_only":"2025-11-14T00:00:00.000"},{"station":"IT1486A","station_name":"Caserta CE51 Ist. Manzoni","pollutant":"NO2","date":"2025-11-14T00:00:00.000","value":32.0160833333,"Ore_Disponibili":24,"lat":41.0818,"lon":14.3349,"date_only":"2025-11-14T00:00:00.000"},{"station":"IT1486A","station_name":"Caserta CE51 Ist. Manzoni","pollutant":"O3","date":"2025-11-14T00:00:00.000","value":38.2625,"Ore_Disponibili":24,"lat":41.0818,"lon":14.3349,"date_only":"2025-11-14T00:00:00.000"},{"station":"IT1486A","station_name":"Caserta CE51 Ist. Manzoni","pollutant":"PM10","date":"2025-11-14T00:00:00.000","value":24.52,"Ore_Disponibili":10,"lat":41.0818,"lon":14.3349,"date_only":"2025-11-14T00:00:00.000"},{"station":"IT1486A","station_name":"Caserta CE51 Ist. Manzoni","pollutant":"PM2,5","date":"2025-11-14T00:00:00.000","value":17.72,"Ore_Disponibili":10,"lat":41.0818,"lon":14.3349,"date_only":"2025-11-14T00:00:00.000"},{"station":"IT1487A","station_name":"Caserta CE52 Sc. De Amicis","pollutant":"CO","date":"2025-11-14T00:00:00.000","value":0.4853913043,"Ore_Disponibili":23,"lat":41.0085302,"lon":14.0787912,"date_only":"2025-11-14T00:00:00.000"},{"station":"IT1487A","station_name":"Caserta CE52 Sc. De Amicis","pollutant":"NO2","date":"2025-11-14T00:00:00.000","value":21.2666956522,"Ore_Disponibili":23,"lat":41.0085302,"lon":14.0787912,"date_only":"2025-11-14T00:00:00.000"},{"station":"IT1487A","station_name":"Caserta CE52 Sc. De Amicis","pollutant":"PM10","date":"2025-11-14T00:00:00.000","value":28.8,"Ore_Disponibili":24,"lat":41.0085302,"lon":14.0787912,"date_only":"2025-11-14T00:00:00.000"},{"station":"IT1487A","station_name":"Caserta CE52 Sc. De Amicis","pollutant":"PM2,5","date":"2025-11-14T00:00:00.000","value":17.3,"Ore_Disponibili":24,"lat":41.0085302,"lon":14.0787912,"date_only":"2025-11-14T00:00:00.000"},{"station":"IT1488A","station_name":"Maddaloni CE54 Sc. Settembrini","pollutant":"NO2","date":"2025-11-14T00:00:00.000","value":34.7575652174,"Ore_Disponibili":23,"lat":41.094,"lon":14.402,"date_only":"2025-11-14T00:00:00.000"},{"station":"IT1488A","station_name":"Maddaloni CE54 Sc. Settembrini","pollutant":"O3","date":"2025-11-14T00:00:00.000","value":26.2230769231,"Ore_Disponibili":13,"lat":41.094,"lon":14.402,"date_only":"2025-11-14T00:00:00.000"},{"station":"IT1488A","station_name":"Maddaloni CE54 Sc. Settembrini","pollutant":"PM10","date":"2025-11-14T00:00:00.000","value":47.8908695652,"Ore_Disponibili":23,"lat":41.094,"lon":14.402,"date_only":"2025-11-14T00:00:00.000"},{"station":"IT1488A","station_name":"Maddaloni CE54 Sc. Settembrini","pollutant":"PM2,5","date":"2025-11-14T00:00:00.000","value":28.9204166667,"Ore_Disponibili":24,"lat":41.094,"lon":14.402,"date_only":"2025-11-14T00:00:00.000"},{"station":"IT1491A","station_name":"Napoli NA07 Ferrovia \u00b0","pollutant":"CO","date":"2025-11-14T00:00:00.000","value":1.2220416667,"Ore_Disponibili":24,"lat":40.8277815,"lon":14.3989433,"date_only":"2025-11-14T00:00:00.000"},{"station":"IT1491A","station_name":"Napoli NA07 Ferrovia \u00b0","pollutant":"NO2","date":"2025-11-14T00:00:00.000","value":73.3050833333,"Ore_Disponibili":24,"lat":40.8277815,"lon":14.3989433,"date_only":"2025-11-14T00:00:00.000"},{"station":"IT1491A","station_name":"Napoli NA07 Ferrovia \u00b0","pollutant":"PM10","date":"2025-11-14T00:00:00.000","value":44.91,"Ore_Disponibili":10,"lat":40.8277815,"lon":14.3989433,"date_only":"2025-11-14T00:00:00.000"},{"station":"IT1491A","station_name":"Napoli NA07 Ferrovia \u00b0","pollutant":"PM2,5","date":"2025-11-14T00:00:00.000","value":27.66,"Ore_Disponibili":10,"lat":40.8277815,"lon":14.3989433,"date_only":"2025-11-14T00:00:00.000"},{"station":"IT1493A","station_name":"Napoli NA09 Via Argine","pollutant":"CO","date":"2025-11-14T00:00:00.000","value":1.0928333333,"Ore_Disponibili":24,"lat":40.8560636,"lon":14.3234622,"date_only":"2025-11-14T00:00:00.000"},{"station":"IT1493A","station_name":"Napoli NA09 Via Argine","pollutant":"NO2","date":"2025-11-14T00:00:00.000","value":52.0497916667,"Ore_Disponibili":24,"lat":40.8560636,"lon":14.3234622,"date_only":"2025-11-14T00:00:00.000"},{"station":"IT1493A","station_name":"Napoli NA09 Via Argine","pollutant":"PM10","date":"2025-11-14T00:00:00.000","value":53.36,"Ore_Disponibili":10,"lat":40.8560636,"lon":14.3234622,"date_only":"2025-11-14T00:00:00.000"},{"station":"IT1493A","station_name":"Napoli NA09 Via Argine","pollutant":"PM2,5","date":"2025-11-14T00:00:00.000","value":37.26,"Ore_Disponibili":10,"lat":40.8560636,"lon":14.3234622,"date_only":"2025-11-14T00:00:00.000"},{"station":"IT1495A","station_name":"Napoli NA08 Osp. N. Pellegrini","pollutant":"NO2","date":"2025-11-14T00:00:00.000","value":60.58025,"Ore_Disponibili":24,"lat":40.8535,"lon":14.235,"date_only":"2025-11-14T00:00:00.000"},{"station":"IT1495A","station_name":"Napoli NA08 Osp. N. Pellegrini","pollutant":"PM10","date":"2025-11-14T00:00:00.000","value":60.6,"Ore_Disponibili":24,"lat":40.8535,"lon":14.235,"date_only":"2025-11-14T00:00:00.000"},{"station":"IT1496A","station_name":"Napoli NA02 Osp. Santobono \u00b0","pollutant":"NO2","date":"2025-11-14T00:00:00.000","value":61.43275,"Ore_Disponibili":24,"lat":40.8554,"lon":14.2231,"date_only":"2025-11-14T00:00:00.000"},{"station":"IT1496A","station_name":"Napoli NA02 Osp. Santobono \u00b0","pollutant":"PM10","date":"2025-11-14T00:00:00.000","value":26.21625,"Ore_Disponibili":24,"lat":40.8554,"lon":14.2231,"date_only":"2025-11-14T00:00:00.000"},{"station":"IT1496A","station_name":"Napoli NA02 Osp. Santobono \u00b0","pollutant":"PM2,5","date":"2025-11-14T00:00:00.000","value":20.26125,"Ore_Disponibili":24,"lat":40.8554,"lon":14.2231,"date_only":"2025-11-14T00:00:00.000"},{"station":"IT1497A","station_name":"Napoli NA01 Oss. Astronomico","pollutant":"CO","date":"2025-11-14T00:00:00.000","value":0.3734166667,"Ore_Disponibili":24,"lat":40.853,"lon":14.305,"date_only":"2025-11-14T00:00:00.000"},{"station":"IT1497A","station_name":"Napoli NA01 Oss. Astronomico","pollutant":"NO2","date":"2025-11-14T00:00:00.000","value":30.9823333333,"Ore_Disponibili":24,"lat":40.853,"lon":14.305,"date_only":"2025-11-14T00:00:00.000"},{"station":"IT1497A","station_name":"Napoli NA01 Oss. Astronomico","pollutant":"O3","date":"2025-11-14T00:00:00.000","value":54.959047619,"Ore_Disponibili":21,"lat":40.853,"lon":14.305,"date_only":"2025-11-14T00:00:00.000"},{"station":"IT1497A","station_name":"Napoli NA01 Oss. Astronomico","pollutant":"PM10","date":"2025-11-14T00:00:00.000","value":21.35,"Ore_Disponibili":24,"lat":40.853,"lon":14.305,"date_only":"2025-11-14T00:00:00.000"},{"station":"IT1497A","station_name":"Napoli NA01 Oss. Astronomico","pollutant":"PM2,5","date":"2025-11-14T00:00:00.000","value":16.75125,"Ore_Disponibili":24,"lat":40.853,"lon":14.305,"date_only":"2025-11-14T00:00:00.000"},{"station":"IT1504A","station_name":"Salerno SA22 Osp. Via Vernieri","pollutant":"CO","date":"2025-11-14T00:00:00.000","value":0.73025,"Ore_Disponibili":24,"lat":40.682,"lon":14.766,"date_only":"2025-11-14T00:00:00.000"},{"station":"IT1504A","station_name":"Salerno SA22 Osp. Via Vernieri","pollutant":"NO2","date":"2025-11-14T00:00:00.000","value":40.608375,"Ore_Disponibili":24,"lat":40.682,"lon":14.766,"date_only":"2025-11-14T00:00:00.000"},{"station":"IT1504A","station_name":"Salerno SA22 Osp. Via Vernieri","pollutant":"PM10","date":"2025-11-14T00:00:00.000","value":24.8444444444,"Ore_Disponibili":9,"lat":40.682,"lon":14.766,"date_only":"2025-11-14T00:00:00.000"},{"station":"IT1504A","station_name":"Salerno SA22 Osp. Via Vernieri","pollutant":"PM2,5","date":"2025-11-14T00:00:00.000","value":20.4333333333,"Ore_Disponibili":9,"lat":40.682,"lon":14.766,"date_only":"2025-11-14T00:00:00.000"},{"station":"IT2210A","station_name":"Solofra Zona Industriale","pollutant":"CO","date":"2025-11-14T00:00:00.000","value":0.7871304348,"Ore_Disponibili":23,"lat":41.058,"lon":14.808,"date_only":"2025-11-14T00:00:00.000"},{"station":"IT2210A","station_name":"Solofra Zona Industriale","pollutant":"NO2","date":"2025-11-14T00:00:00.000","value":16.5549545455,"Ore_Disponibili":22,"lat":41.058,"lon":14.808,"date_only":"2025-11-14T00:00:00.000"},{"station":"IT2210A","station_name":"Solofra Zona Industriale","pollutant":"PM10","date":"2025-11-14T00:00:00.000","value":37.8066666667,"Ore_Disponibili":24,"lat":41.058,"lon":14.808,"date_only":"2025-11-14T00:00:00.000"},{"station":"IT2210A","station_name":"Solofra Zona Industriale","pollutant":"PM2,5","date":"2025-11-14T00:00:00.000","value":31.1808333333,"Ore_Disponibili":24,"lat":41.058,"lon":14.808,"date_only":"2025-11-14T00:00:00.000"},{"station":"IT2211A","station_name":"Acerra Zona Industriale","pollutant":"CO","date":"2025-11-14T00:00:00.000","value":0.6682608696,"Ore_Disponibili":23,"lat":40.9847962,"lon":14.3679606,"date_only":"2025-11-14T00:00:00.000"},{"station":"IT2211A","station_name":"Acerra Zona Industriale","pollutant":"NO2","date":"2025-11-14T00:00:00.000","value":47.7383478261,"Ore_Disponibili":23,"lat":40.9847962,"lon":14.3679606,"date_only":"2025-11-14T00:00:00.000"},{"station":"IT2211A","station_name":"Acerra Zona Industriale","pollutant":"PM10","date":"2025-11-14T00:00:00.000","value":55.4,"Ore_Disponibili":24,"lat":40.9847962,"lon":14.3679606,"date_only":"2025-11-14T00:00:00.000"},{"station":"IT2211A","station_name":"Acerra Zona Industriale","pollutant":"PM2,5","date":"2025-11-14T00:00:00.000","value":34.8,"Ore_Disponibili":24,"lat":40.9847962,"lon":14.3679606,"date_only":"2025-11-14T00:00:00.000"},{"station":"IT2212A","station_name":"S. Vitaliano Scuola Marconi","pollutant":"NO2","date":"2025-11-14T00:00:00.000","value":61.2356956522,"Ore_Disponibili":23,"lat":40.896,"lon":14.46,"date_only":"2025-11-14T00:00:00.000"},{"station":"IT2212A","station_name":"S. Vitaliano Scuola Marconi","pollutant":"O3","date":"2025-11-14T00:00:00.000","value":19.6717391304,"Ore_Disponibili":23,"lat":40.896,"lon":14.46,"date_only":"2025-11-14T00:00:00.000"},{"station":"IT2212A","station_name":"S. Vitaliano Scuola Marconi","pollutant":"PM10","date":"2025-11-14T00:00:00.000","value":62.7825,"Ore_Disponibili":24,"lat":40.896,"lon":14.46,"date_only":"2025-11-14T00:00:00.000"},{"station":"IT2212A","station_name":"S. Vitaliano Scuola Marconi","pollutant":"PM2,5","date":"2025-11-14T00:00:00.000","value":37.3535,"Ore_Disponibili":20,"lat":40.896,"lon":14.46,"date_only":"2025-11-14T00:00:00.000"},{"station":"IT2213A","station_name":"Cava dei Tirreni Stadio","pollutant":"CO","date":"2025-11-14T00:00:00.000","value":0.6413913043,"Ore_Disponibili":23,"lat":40.7125,"lon":14.638,"date_only":"2025-11-14T00:00:00.000"},{"station":"IT2213A","station_name":"Cava dei Tirreni Stadio","pollutant":"NO2","date":"2025-11-14T00:00:00.000","value":36.5372608696,"Ore_Disponibili":23,"lat":40.7125,"lon":14.638,"date_only":"2025-11-14T00:00:00.000"},{"station":"IT2213A","station_name":"Cava dei Tirreni Stadio","pollutant":"O3","date":"2025-11-14T00:00:00.000","value":32.4556521739,"Ore_Disponibili":23,"lat":40.7125,"lon":14.638,"date_only":"2025-11-14T00:00:00.000"},{"station":"IT2213A","station_name":"Cava dei Tirreni Stadio","pollutant":"PM10","date":"2025-11-14T00:00:00.000","value":32.1825,"Ore_Disponibili":24,"lat":40.7125,"lon":14.638,"date_only":"2025-11-14T00:00:00.000"},{"station":"IT2213A","station_name":"Cava dei Tirreni Stadio","pollutant":"PM2,5","date":"2025-11-14T00:00:00.000","value":26.0854166667,"Ore_Disponibili":24,"lat":40.7125,"lon":14.638,"date_only":"2025-11-14T00:00:00.000"},{"station":"IT2214A","station_name":"Nocera Inferiore Sc. Solimena","pollutant":"CO","date":"2025-11-14T00:00:00.000","value":0.7130909091,"Ore_Disponibili":22,"lat":40.7473393,"lon":14.6410145,"date_only":"2025-11-14T00:00:00.000"},{"station":"IT2214A","station_name":"Nocera Inferiore Sc. Solimena","pollutant":"NO2","date":"2025-11-14T00:00:00.000","value":43.3950869565,"Ore_Disponibili":23,"lat":40.7473393,"lon":14.6410145,"date_only":"2025-11-14T00:00:00.000"},{"station":"IT2214A","station_name":"Nocera Inferiore Sc. Solimena","pollutant":"PM10","date":"2025-11-14T00:00:00.000","value":43.95875,"Ore_Disponibili":16,"lat":40.7473393,"lon":14.6410145,"date_only":"2025-11-14T00:00:00.000"},{"station":"IT2214A","station_name":"Nocera Inferiore Sc. Solimena","pollutant":"PM2,5","date":"2025-11-14T00:00:00.000","value":31.455,"Ore_Disponibili":16,"lat":40.7473393,"lon":14.6410145,"date_only":"2025-11-14T00:00:00.000"},{"station":"IT2215A","station_name":"Benevento Zona Industriale \u00b0","pollutant":"NO2","date":"2025-11-14T00:00:00.000","value":17.649125,"Ore_Disponibili":24,"lat":41.2293368,"lon":14.4782074,"date_only":"2025-11-14T00:00:00.000"},{"station":"IT2215A","station_name":"Benevento Zona Industriale \u00b0","pollutant":"O3","date":"2025-11-14T00:00:00.000","value":26.3539130435,"Ore_Disponibili":23,"lat":41.2293368,"lon":14.4782074,"date_only":"2025-11-14T00:00:00.000"},{"station":"IT2215A","station_name":"Benevento Zona Industriale \u00b0","pollutant":"PM10","date":"2025-11-14T00:00:00.000","value":39.5141666667,"Ore_Disponibili":24,"lat":41.2293368,"lon":14.4782074,"date_only":"2025-11-14T00:00:00.000"},{"station":"IT2215A","station_name":"Benevento Zona Industriale \u00b0","pollutant":"PM2,5","date":"2025-11-14T00:00:00.000","value":32.9145833333,"Ore_Disponibili":24,"lat":41.2293368,"lon":14.4782074,"date_only":"2025-11-14T00:00:00.000"},{"station":"IT2216A","station_name":"Casoria Scuola Palizzi","pollutant":"NO2","date":"2025-11-14T00:00:00.000","value":56.8918695652,"Ore_Disponibili":23,"lat":40.904,"lon":14.289,"date_only":"2025-11-14T00:00:00.000"},{"station":"IT2216A","station_name":"Casoria Scuola Palizzi","pollutant":"O3","date":"2025-11-14T00:00:00.000","value":13.9809090909,"Ore_Disponibili":22,"lat":40.904,"lon":14.289,"date_only":"2025-11-14T00:00:00.000"},{"station":"IT2216A","station_name":"Casoria Scuola Palizzi","pollutant":"PM10","date":"2025-11-14T00:00:00.000","value":79.7779166667,"Ore_Disponibili":24,"lat":40.904,"lon":14.289,"date_only":"2025-11-14T00:00:00.000"},{"station":"IT2216A","station_name":"Casoria Scuola Palizzi","pollutant":"PM2,5","date":"2025-11-14T00:00:00.000","value":49.0694117647,"Ore_Disponibili":17,"lat":40.904,"lon":14.289,"date_only":"2025-11-14T00:00:00.000"},{"station":"IT2217A","station_name":"Torre Annunziata Sc. Pascoli","pollutant":"NO2","date":"2025-11-14T00:00:00.000","value":34.3712272727,"Ore_Disponibili":22,"lat":40.7469754,"lon":14.4608234,"date_only":"2025-11-14T00:00:00.000"},{"station":"IT2217A","station_name":"Torre Annunziata Sc. Pascoli","pollutant":"O3","date":"2025-11-14T00:00:00.000","value":38.1052173913,"Ore_Disponibili":23,"lat":40.7469754,"lon":14.4608234,"date_only":"2025-11-14T00:00:00.000"},{"station":"IT2218A","station_name":"San Felice a Cancello C. Scolast.","pollutant":"CO","date":"2025-11-14T00:00:00.000","value":0.4295416667,"Ore_Disponibili":24,"lat":41.015,"lon":14.287,"date_only":"2025-11-14T00:00:00.000"},{"station":"IT2218A","station_name":"San Felice a Cancello C. Scolast.","pollutant":"NO2","date":"2025-11-14T00:00:00.000","value":31.2688695652,"Ore_Disponibili":23,"lat":41.015,"lon":14.287,"date_only":"2025-11-14T00:00:00.000"},{"station":"IT2218A","station_name":"San Felice a Cancello C. Scolast.","pollutant":"O3","date":"2025-11-14T00:00:00.000","value":24.1260869565,"Ore_Disponibili":23,"lat":41.015,"lon":14.287,"date_only":"2025-11-14T00:00:00.000"},{"station":"IT2218A","station_name":"San Felice a Cancello C. Scolast.","pollutant":"PM10","date":"2025-11-14T00:00:00.000","value":40.815,"Ore_Disponibili":24,"lat":41.015,"lon":14.287,"date_only":"2025-11-14T00:00:00.000"},{"station":"IT2218A","station_name":"San Felice a Cancello C. Scolast.","pollutant":"PM2,5","date":"2025-11-14T00:00:00.000","value":30.0075,"Ore_Disponibili":24,"lat":41.015,"lon":14.287,"date_only":"2025-11-14T00:00:00.000"},{"station":"IT2219A","station_name":"Acerra Scuola Caporale","pollutant":"CO","date":"2025-11-14T00:00:00.000","value":1.1727727273,"Ore_Disponibili":22,"lat":40.9071,"lon":14.3429,"date_only":"2025-11-14T00:00:00.000"},{"station":"IT2219A","station_name":"Acerra Scuola Caporale","pollutant":"NO2","date":"2025-11-14T00:00:00.000","value":42.6415238095,"Ore_Disponibili":21,"lat":40.9071,"lon":14.3429,"date_only":"2025-11-14T00:00:00.000"},{"station":"IT2219A","station_name":"Acerra Scuola Caporale","pollutant":"PM10","date":"2025-11-14T00:00:00.000","value":54.3460869565,"Ore_Disponibili":23,"lat":40.9071,"lon":14.3429,"date_only":"2025-11-14T00:00:00.000"},{"station":"IT2219A","station_name":"Acerra Scuola Caporale","pollutant":"PM2,5","date":"2025-11-14T00:00:00.000","value":43.0434782609,"Ore_Disponibili":23,"lat":40.9071,"lon":14.3429,"date_only":"2025-11-14T00:00:00.000"},{"station":"IT2221A","station_name":"Napoli via Epomeo *\u00b0","pollutant":"CO","date":"2025-11-14T00:00:00.000","value":0.78025,"Ore_Disponibili":24,"lat":40.7205434,"lon":13.8987737,"date_only":"2025-11-14T00:00:00.000"},{"station":"IT2221A","station_name":"Napoli via Epomeo *\u00b0","pollutant":"NO2","date":"2025-11-14T00:00:00.000","value":36.7942916667,"Ore_Disponibili":24,"lat":40.7205434,"lon":13.8987737,"date_only":"2025-11-14T00:00:00.000"},{"station":"IT2221A","station_name":"Napoli via Epomeo *\u00b0","pollutant":"O3","date":"2025-11-14T00:00:00.000","value":16.5775,"Ore_Disponibili":24,"lat":40.7205434,"lon":13.8987737,"date_only":"2025-11-14T00:00:00.000"},{"station":"IT2221A","station_name":"Napoli via Epomeo *\u00b0","pollutant":"PM10","date":"2025-11-14T00:00:00.000","value":29.5825,"Ore_Disponibili":24,"lat":40.7205434,"lon":13.8987737,"date_only":"2025-11-14T00:00:00.000"},{"station":"IT2221A","station_name":"Napoli via Epomeo *\u00b0","pollutant":"PM2,5","date":"2025-11-14T00:00:00.000","value":22.39625,"Ore_Disponibili":24,"lat":40.7205434,"lon":13.8987737,"date_only":"2025-11-14T00:00:00.000"},{"station":"IT2223A","station_name":"Volla Via Filichito *\u00b0","pollutant":"CO","date":"2025-11-14T00:00:00.000","value":1.1198333333,"Ore_Disponibili":24,"lat":40.8824226,"lon":14.3478545,"date_only":"2025-11-14T00:00:00.000"},{"station":"IT2223A","station_name":"Volla Via Filichito *\u00b0","pollutant":"NO2","date":"2025-11-14T00:00:00.000","value":39.150875,"Ore_Disponibili":24,"lat":40.8824226,"lon":14.3478545,"date_only":"2025-11-14T00:00:00.000"},{"station":"IT2223A","station_name":"Volla Via Filichito *\u00b0","pollutant":"O3","date":"2025-11-14T00:00:00.000","value":15.0883333333,"Ore_Disponibili":24,"lat":40.8824226,"lon":14.3478545,"date_only":"2025-11-14T00:00:00.000"},{"station":"IT2223A","station_name":"Volla Via Filichito *\u00b0","pollutant":"PM10","date":"2025-11-14T00:00:00.000","value":43.0933333333,"Ore_Disponibili":24,"lat":40.8824226,"lon":14.3478545,"date_only":"2025-11-14T00:00:00.000"},{"station":"IT2223A","station_name":"Volla Via Filichito *\u00b0","pollutant":"PM2,5","date":"2025-11-14T00:00:00.000","value":33.15,"Ore_Disponibili":24,"lat":40.8824226,"lon":14.3478545,"date_only":"2025-11-14T00:00:00.000"},{"station":"IT2226A","station_name":"Pomigliano d'Arco Area Asi","pollutant":"CO","date":"2025-11-14T00:00:00.000","value":0.5497391304,"Ore_Disponibili":23,"lat":40.412,"lon":15.341,"date_only":"2025-11-14T00:00:00.000"},{"station":"IT2226A","station_name":"Pomigliano d'Arco Area Asi","pollutant":"NO2","date":"2025-11-14T00:00:00.000","value":62.0996086957,"Ore_Disponibili":23,"lat":40.412,"lon":15.341,"date_only":"2025-11-14T00:00:00.000"},{"station":"IT2226A","station_name":"Pomigliano d'Arco Area Asi","pollutant":"PM10","date":"2025-11-14T00:00:00.000","value":49.73,"Ore_Disponibili":10,"lat":40.412,"lon":15.341,"date_only":"2025-11-14T00:00:00.000"},{"station":"IT2226A","station_name":"Pomigliano d'Arco Area Asi","pollutant":"PM2,5","date":"2025-11-14T00:00:00.000","value":40.69,"Ore_Disponibili":10,"lat":40.412,"lon":15.341,"date_only":"2025-11-14T00:00:00.000"},{"station":"IT2227A","station_name":"Avellino Scuola Alighieri","pollutant":"CO","date":"2025-11-14T00:00:00.000","value":1.0939583333,"Ore_Disponibili":24,"lat":40.9190395,"lon":14.784947,"date_only":"2025-11-14T00:00:00.000"},{"station":"IT2227A","station_name":"Avellino Scuola Alighieri","pollutant":"NO2","date":"2025-11-14T00:00:00.000","value":43.3819166667,"Ore_Disponibili":24,"lat":40.9190395,"lon":14.784947,"date_only":"2025-11-14T00:00:00.000"},{"station":"IT2227A","station_name":"Avellino Scuola Alighieri","pollutant":"PM10","date":"2025-11-14T00:00:00.000","value":29.4504166667,"Ore_Disponibili":24,"lat":40.9190395,"lon":14.784947,"date_only":"2025-11-14T00:00:00.000"},{"station":"IT2227A","station_name":"Avellino Scuola Alighieri","pollutant":"PM2,5","date":"2025-11-14T00:00:00.000","value":25.24,"Ore_Disponibili":24,"lat":40.9190395,"lon":14.784947,"date_only":"2025-11-14T00:00:00.000"},{"station":"IT2228A","station_name":"Benevento Campo Sportivo","pollutant":"NO2","date":"2025-11-14T00:00:00.000","value":24.1281666667,"Ore_Disponibili":24,"lat":41.2315276,"lon":14.5332703,"date_only":"2025-11-14T00:00:00.000"},{"station":"IT2228A","station_name":"Benevento Campo Sportivo","pollutant":"O3","date":"2025-11-14T00:00:00.000","value":20.4366666667,"Ore_Disponibili":24,"lat":41.2315276,"lon":14.5332703,"date_only":"2025-11-14T00:00:00.000"},{"station":"IT2228A","station_name":"Benevento Campo Sportivo","pollutant":"PM10","date":"2025-11-14T00:00:00.000","value":51.5158333333,"Ore_Disponibili":24,"lat":41.2315276,"lon":14.5332703,"date_only":"2025-11-14T00:00:00.000"},{"station":"IT2228A","station_name":"Benevento Campo Sportivo","pollutant":"PM2,5","date":"2025-11-14T00:00:00.000","value":43.5491666667,"Ore_Disponibili":24,"lat":41.2315276,"lon":14.5332703,"date_only":"2025-11-14T00:00:00.000"},{"station":"IT2268A","station_name":"Battipaglia Parco Fiume","pollutant":"NO2","date":"2025-11-14T00:00:00.000","value":29.4263043478,"Ore_Disponibili":23,"lat":40.6167,"lon":14.9833,"date_only":"2025-11-14T00:00:00.000"},{"station":"IT2268A","station_name":"Battipaglia Parco Fiume","pollutant":"O3","date":"2025-11-14T00:00:00.000","value":33.4695652174,"Ore_Disponibili":23,"lat":40.6167,"lon":14.9833,"date_only":"2025-11-14T00:00:00.000"},{"station":"IT2268A","station_name":"Battipaglia Parco Fiume","pollutant":"PM10","date":"2025-11-14T00:00:00.000","value":31.2,"Ore_Disponibili":24,"lat":40.6167,"lon":14.9833,"date_only":"2025-11-14T00:00:00.000"},{"station":"IT2268A","station_name":"Battipaglia Parco Fiume","pollutant":"PM2,5","date":"2025-11-14T00:00:00.000","value":17.9,"Ore_Disponibili":24,"lat":40.6167,"lon":14.9833,"date_only":"2025-11-14T00:00:00.000"},{"station":"IT2270A","station_name":"Portici Parco Reggia","pollutant":"NO2","date":"2025-11-14T00:00:00.000","value":28.447,"Ore_Disponibili":23,"lat":40.813588,"lon":14.3476526,"date_only":"2025-11-14T00:00:00.000"},{"station":"IT2270A","station_name":"Portici Parco Reggia","pollutant":"O3","date":"2025-11-14T00:00:00.000","value":43.9982608696,"Ore_Disponibili":23,"lat":40.813588,"lon":14.3476526,"date_only":"2025-11-14T00:00:00.000"},{"station":"IT2270A","station_name":"Portici Parco Reggia","pollutant":"PM10","date":"2025-11-14T00:00:00.000","value":20.2533333333,"Ore_Disponibili":24,"lat":40.813588,"lon":14.3476526,"date_only":"2025-11-14T00:00:00.000"},{"station":"IT2270A","station_name":"Portici Parco Reggia","pollutant":"PM2,5","date":"2025-11-14T00:00:00.000","value":15.9958333333,"Ore_Disponibili":24,"lat":40.813588,"lon":14.3476526,"date_only":"2025-11-14T00:00:00.000"},{"station":"IT2271A","station_name":"Aversa Scuola Cirillo \u00b0","pollutant":"CO","date":"2025-11-14T00:00:00.000","value":1.4314347826,"Ore_Disponibili":23,"lat":40.9758352,"lon":14.2117669,"date_only":"2025-11-14T00:00:00.000"},{"station":"IT2271A","station_name":"Aversa Scuola Cirillo \u00b0","pollutant":"NO2","date":"2025-11-14T00:00:00.000","value":54.4606956522,"Ore_Disponibili":23,"lat":40.9758352,"lon":14.2117669,"date_only":"2025-11-14T00:00:00.000"},{"station":"IT2271A","station_name":"Aversa Scuola Cirillo \u00b0","pollutant":"PM10","date":"2025-11-14T00:00:00.000","value":56.4775,"Ore_Disponibili":24,"lat":40.9758352,"lon":14.2117669,"date_only":"2025-11-14T00:00:00.000"},{"station":"IT2271A","station_name":"Aversa Scuola Cirillo \u00b0","pollutant":"PM2,5","date":"2025-11-14T00:00:00.000","value":44.8816666667,"Ore_Disponibili":24,"lat":40.9758352,"lon":14.2117669,"date_only":"2025-11-14T00:00:00.000"},{"station":"IT2272A","station_name":"Pozzuoli Zona Villa Avellino","pollutant":"NO2","date":"2025-11-14T00:00:00.000","value":26.503173913,"Ore_Disponibili":23,"lat":40.834,"lon":14.119,"date_only":"2025-11-14T00:00:00.000"},{"station":"IT2272A","station_name":"Pozzuoli Zona Villa Avellino","pollutant":"O3","date":"2025-11-14T00:00:00.000","value":33.4291666667,"Ore_Disponibili":24,"lat":40.834,"lon":14.119,"date_only":"2025-11-14T00:00:00.000"},{"station":"IT2272A","station_name":"Pozzuoli Zona Villa Avellino","pollutant":"PM10","date":"2025-11-14T00:00:00.000","value":21.9816666667,"Ore_Disponibili":24,"lat":40.834,"lon":14.119,"date_only":"2025-11-14T00:00:00.000"},{"station":"IT2272A","station_name":"Pozzuoli Zona Villa Avellino","pollutant":"PM2,5","date":"2025-11-14T00:00:00.000","value":17.2454166667,"Ore_Disponibili":24,"lat":40.834,"lon":14.119,"date_only":"2025-11-14T00:00:00.000"},{"station":"IT2273A","station_name":"Polla Area Tritovagliatore","pollutant":"CO","date":"2025-11-14T00:00:00.000","value":1.19325,"Ore_Disponibili":20,"lat":40.412,"lon":15.341,"date_only":"2025-11-14T00:00:00.000"},{"station":"IT2273A","station_name":"Polla Area Tritovagliatore","pollutant":"NO2","date":"2025-11-14T00:00:00.000","value":28.8898695652,"Ore_Disponibili":23,"lat":40.412,"lon":15.341,"date_only":"2025-11-14T00:00:00.000"},{"station":"IT2273A","station_name":"Polla Area Tritovagliatore","pollutant":"PM10","date":"2025-11-14T00:00:00.000","value":15.8733333333,"Ore_Disponibili":24,"lat":40.412,"lon":15.341,"date_only":"2025-11-14T00:00:00.000"},{"station":"IT2273A","station_name":"Polla Area Tritovagliatore","pollutant":"PM2,5","date":"2025-11-14T00:00:00.000","value":13.0491666667,"Ore_Disponibili":24,"lat":40.412,"lon":15.341,"date_only":"2025-11-14T00:00:00.000"},{"station":"IT2276A","station_name":"Ariano Irpino Stadio","pollutant":"CO","date":"2025-11-14T00:00:00.000","value":0.3802608696,"Ore_Disponibili":23,"lat":41.1555975,"lon":15.0967062,"date_only":"2025-11-14T00:00:00.000"},{"station":"IT2276A","station_name":"Ariano Irpino Stadio","pollutant":"NO2","date":"2025-11-14T00:00:00.000","value":11.4647826087,"Ore_Disponibili":23,"lat":41.1555975,"lon":15.0967062,"date_only":"2025-11-14T00:00:00.000"},{"station":"IT2276A","station_name":"Ariano Irpino Stadio","pollutant":"O3","date":"2025-11-14T00:00:00.000","value":80.427826087,"Ore_Disponibili":23,"lat":41.1555975,"lon":15.0967062,"date_only":"2025-11-14T00:00:00.000"},{"station":"IT2277A","station_name":"Napoli Parco Virgiliano","pollutant":"CO","date":"2025-11-14T00:00:00.000","value":0.2618,"Ore_Disponibili":20,"lat":40.7984999,"lon":14.1790765,"date_only":"2025-11-14T00:00:00.000"},{"station":"IT2277A","station_name":"Napoli Parco Virgiliano","pollutant":"NO2","date":"2025-11-14T00:00:00.000","value":27.2626521739,"Ore_Disponibili":23,"lat":40.7984999,"lon":14.1790765,"date_only":"2025-11-14T00:00:00.000"},{"station":"IT2277A","station_name":"Napoli Parco Virgiliano","pollutant":"O3","date":"2025-11-14T00:00:00.000","value":64.965,"Ore_Disponibili":24,"lat":40.7984999,"lon":14.1790765,"date_only":"2025-11-14T00:00:00.000"},{"station":"IT2277A","station_name":"Napoli Parco Virgiliano","pollutant":"PM10","date":"2025-11-14T00:00:00.000","value":11.9,"Ore_Disponibili":24,"lat":40.7984999,"lon":14.1790765,"date_only":"2025-11-14T00:00:00.000"},{"station":"IT2277A","station_name":"Napoli Parco Virgiliano","pollutant":"PM2,5","date":"2025-11-14T00:00:00.000","value":15.4,"Ore_Disponibili":24,"lat":40.7984999,"lon":14.1790765,"date_only":"2025-11-14T00:00:00.000"},{"station":"IT2283A","station_name":"Ottati Alburni","pollutant":"NO2","date":"2025-11-14T00:00:00.000","value":1.7750434783,"Ore_Disponibili":23,"lat":40.306,"lon":15.277,"date_only":"2025-11-14T00:00:00.000"},{"station":"IT2283A","station_name":"Ottati Alburni","pollutant":"O3","date":"2025-11-14T00:00:00.000","value":70.5634782609,"Ore_Disponibili":23,"lat":40.306,"lon":15.277,"date_only":"2025-11-14T00:00:00.000"},{"station":"IT2283A","station_name":"Ottati Alburni","pollutant":"PM10","date":"2025-11-14T00:00:00.000","value":0.1,"Ore_Disponibili":24,"lat":40.306,"lon":15.277,"date_only":"2025-11-14T00:00:00.000"},{"station":"IT2283A","station_name":"Ottati Alburni","pollutant":"PM2,5","date":"2025-11-14T00:00:00.000","value":1.6,"Ore_Disponibili":24,"lat":40.306,"lon":15.277,"date_only":"2025-11-14T00:00:00.000"}]