[{"station":"IT0898A","station_name":"NA06 MUSEO NAZIONALE","pollutant":"CO","date":"2025-01-01T00:00:00.000","value":1.0869565217,"Ore_Disponibili":23,"lat":40.8536064,"lon":14.25115,"date_only":"2025-01-01T00:00:00.000"},{"station":"IT0898A","station_name":"NA06 MUSEO NAZIONALE","pollutant":"NO2","date":"2025-01-01T00:00:00.000","value":56.147826087,"Ore_Disponibili":23,"lat":40.8536064,"lon":14.25115,"date_only":"2025-01-01T00:00:00.000"},{"station":"IT0898A","station_name":"NA06 MUSEO NAZIONALE","pollutant":"PM10","date":"2025-01-01T00:00:00.000","value":351.175,"Ore_Disponibili":24,"lat":40.8536064,"lon":14.25115,"date_only":"2025-01-01T00:00:00.000"},{"station":"IT0898A","station_name":"NA06 MUSEO NAZIONALE","pollutant":"PM2,5","date":"2025-01-01T00:00:00.000","value":325.3380952381,"Ore_Disponibili":21,"lat":40.8536064,"lon":14.25115,"date_only":"2025-01-01T00:00:00.000"},{"station":"IT0934A","station_name":"BN32 Via Mustilli","pollutant":"NO2","date":"2025-01-01T00:00:00.000","value":16.3956521739,"Ore_Disponibili":23,"lat":41.7572524,"lon":12.3201661,"date_only":"2025-01-01T00:00:00.000"},{"station":"IT0934A","station_name":"BN32 Via Mustilli","pollutant":"PM10","date":"2025-01-01T00:00:00.000","value":71.9833333333,"Ore_Disponibili":18,"lat":41.7572524,"lon":12.3201661,"date_only":"2025-01-01T00:00:00.000"},{"station":"IT0934A","station_name":"BN32 Via Mustilli","pollutant":"PM2,5","date":"2025-01-01T00:00:00.000","value":55.6722222222,"Ore_Disponibili":18,"lat":41.7572524,"lon":12.3201661,"date_only":"2025-01-01T00:00:00.000"},{"station":"IT0936A","station_name":"AV41 SCUOLA V CIRCOLO","pollutant":"NO2","date":"2025-01-01T00:00:00.000","value":23.2666666667,"Ore_Disponibili":24,"lat":43.8951992,"lon":11.3222381,"date_only":"2025-01-01T00:00:00.000"},{"station":"IT0936A","station_name":"AV41 SCUOLA V CIRCOLO","pollutant":"O3","date":"2025-01-01T00:00:00.000","value":17.1913043478,"Ore_Disponibili":23,"lat":43.8951992,"lon":11.3222381,"date_only":"2025-01-01T00:00:00.000"},{"station":"IT0936A","station_name":"AV41 SCUOLA V CIRCOLO","pollutant":"PM10","date":"2025-01-01T00:00:00.000","value":115.25,"Ore_Disponibili":24,"lat":43.8951992,"lon":11.3222381,"date_only":"2025-01-01T00:00:00.000"},{"station":"IT0936A","station_name":"AV41 SCUOLA V CIRCOLO","pollutant":"PM2,5","date":"2025-01-01T00:00:00.000","value":112.6166666667,"Ore_Disponibili":24,"lat":43.8951992,"lon":11.3222381,"date_only":"2025-01-01T00:00:00.000"},{"station":"IT1041A","station_name":"SA23 SCUOLA OSVALDO CONTI","pollutant":"NO2","date":"2025-01-01T00:00:00.000","value":35.647826087,"Ore_Disponibili":23,"lat":41.058,"lon":14.808,"date_only":"2025-01-01T00:00:00.000"},{"station":"IT1041A","station_name":"SA23 SCUOLA OSVALDO CONTI","pollutant":"O3","date":"2025-01-01T00:00:00.000","value":16.6304347826,"Ore_Disponibili":23,"lat":41.058,"lon":14.808,"date_only":"2025-01-01T00:00:00.000"},{"station":"IT1041A","station_name":"SA23 SCUOLA OSVALDO CONTI","pollutant":"PM2,5","date":"2025-01-01T00:00:00.000","value":85.5,"Ore_Disponibili":24,"lat":41.058,"lon":14.808,"date_only":"2025-01-01T00:00:00.000"},{"station":"IT1486A","station_name":"CE51 ISTITUTO MANZONI","pollutant":"NO2","date":"2025-01-01T00:00:00.000","value":23.0291666667,"Ore_Disponibili":24,"lat":41.0818,"lon":14.3349,"date_only":"2025-01-01T00:00:00.000"},{"station":"IT1486A","station_name":"CE51 ISTITUTO MANZONI","pollutant":"O3","date":"2025-01-01T00:00:00.000","value":35.9739130435,"Ore_Disponibili":23,"lat":41.0818,"lon":14.3349,"date_only":"2025-01-01T00:00:00.000"},{"station":"IT1487A","station_name":"CE52 SCUOLA DE AMICIS","pollutant":"CO","date":"2025-01-01T00:00:00.000","value":0.6434782609,"Ore_Disponibili":23,"lat":45.4166851,"lon":11.8748262,"date_only":"2025-01-01T00:00:00.000"},{"station":"IT1487A","station_name":"CE52 SCUOLA DE AMICIS","pollutant":"NO2","date":"2025-01-01T00:00:00.000","value":20.2304347826,"Ore_Disponibili":23,"lat":45.4166851,"lon":11.8748262,"date_only":"2025-01-01T00:00:00.000"},{"station":"IT1487A","station_name":"CE52 SCUOLA DE AMICIS","pollutant":"PM10","date":"2025-01-01T00:00:00.000","value":125.9,"Ore_Disponibili":24,"lat":45.4166851,"lon":11.8748262,"date_only":"2025-01-01T00:00:00.000"},{"station":"IT1487A","station_name":"CE52 SCUOLA DE AMICIS","pollutant":"PM2,5","date":"2025-01-01T00:00:00.000","value":76.5,"Ore_Disponibili":24,"lat":45.4166851,"lon":11.8748262,"date_only":"2025-01-01T00:00:00.000"},{"station":"IT1488A","station_name":"CE54 SCUOLA SETTEMBRINI","pollutant":"NO2","date":"2025-01-01T00:00:00.000","value":31.1739130435,"Ore_Disponibili":23,"lat":40.7402509,"lon":14.6724943,"date_only":"2025-01-01T00:00:00.000"},{"station":"IT1488A","station_name":"CE54 SCUOLA SETTEMBRINI","pollutant":"O3","date":"2025-01-01T00:00:00.000","value":14.7090909091,"Ore_Disponibili":22,"lat":40.7402509,"lon":14.6724943,"date_only":"2025-01-01T00:00:00.000"},{"station":"IT1488A","station_name":"CE54 SCUOLA SETTEMBRINI","pollutant":"PM10","date":"2025-01-01T00:00:00.000","value":217.6291666667,"Ore_Disponibili":24,"lat":40.7402509,"lon":14.6724943,"date_only":"2025-01-01T00:00:00.000"},{"station":"IT1488A","station_name":"CE54 SCUOLA SETTEMBRINI","pollutant":"PM2,5","date":"2025-01-01T00:00:00.000","value":184.5125,"Ore_Disponibili":24,"lat":40.7402509,"lon":14.6724943,"date_only":"2025-01-01T00:00:00.000"},{"station":"IT1491A","station_name":"NA07 ENTE FERROVIE","pollutant":"CO","date":"2025-01-01T00:00:00.000","value":1.1652173913,"Ore_Disponibili":23,"lat":45.6541955,"lon":13.7741392,"date_only":"2025-01-01T00:00:00.000"},{"station":"IT1491A","station_name":"NA07 ENTE FERROVIE","pollutant":"NO2","date":"2025-01-01T00:00:00.000","value":53.6958333333,"Ore_Disponibili":24,"lat":45.6541955,"lon":13.7741392,"date_only":"2025-01-01T00:00:00.000"},{"station":"IT1491A","station_name":"NA07 ENTE FERROVIE","pollutant":"PM10","date":"2025-01-01T00:00:00.000","value":100.9333333333,"Ore_Disponibili":21,"lat":45.6541955,"lon":13.7741392,"date_only":"2025-01-01T00:00:00.000"},{"station":"IT1491A","station_name":"NA07 ENTE FERROVIE","pollutant":"PM2,5","date":"2025-01-01T00:00:00.000","value":96.6217391304,"Ore_Disponibili":23,"lat":45.6541955,"lon":13.7741392,"date_only":"2025-01-01T00:00:00.000"},{"station":"IT1493A","station_name":"NA09 I.T.I.S. ARGINE","pollutant":"CO","date":"2025-01-01T00:00:00.000","value":1.7217391304,"Ore_Disponibili":23,"lat":44.7377462,"lon":11.6477031,"date_only":"2025-01-01T00:00:00.000"},{"station":"IT1493A","station_name":"NA09 I.T.I.S. ARGINE","pollutant":"NO2","date":"2025-01-01T00:00:00.000","value":45.6695652174,"Ore_Disponibili":23,"lat":44.7377462,"lon":11.6477031,"date_only":"2025-01-01T00:00:00.000"},{"station":"IT1493A","station_name":"NA09 I.T.I.S. ARGINE","pollutant":"PM10","date":"2025-01-01T00:00:00.000","value":135.82,"Ore_Disponibili":20,"lat":44.7377462,"lon":11.6477031,"date_only":"2025-01-01T00:00:00.000"},{"station":"IT1493A","station_name":"NA09 I.T.I.S. ARGINE","pollutant":"PM2,5","date":"2025-01-01T00:00:00.000","value":125.2666666667,"Ore_Disponibili":21,"lat":44.7377462,"lon":11.6477031,"date_only":"2025-01-01T00:00:00.000"},{"station":"IT1495A","station_name":"NA08 OSPEDALE NUOVO PELLEGRINI","pollutant":"NO2","date":"2025-01-01T00:00:00.000","value":43.8956521739,"Ore_Disponibili":23,"lat":40.8535,"lon":14.235,"date_only":"2025-01-01T00:00:00.000"},{"station":"IT1495A","station_name":"NA08 OSPEDALE NUOVO PELLEGRINI","pollutant":"PM10","date":"2025-01-01T00:00:00.000","value":200.0,"Ore_Disponibili":24,"lat":40.8535,"lon":14.235,"date_only":"2025-01-01T00:00:00.000"},{"station":"IT1496A","station_name":"NA02 OSPEDALE SANTOBONO","pollutant":"NO2","date":"2025-01-01T00:00:00.000","value":59.5173913043,"Ore_Disponibili":23,"lat":40.8615516,"lon":14.2278503,"date_only":"2025-01-01T00:00:00.000"},{"station":"IT1496A","station_name":"NA02 OSPEDALE SANTOBONO","pollutant":"PM10","date":"2025-01-01T00:00:00.000","value":101.5136363636,"Ore_Disponibili":22,"lat":40.8615516,"lon":14.2278503,"date_only":"2025-01-01T00:00:00.000"},{"station":"IT1496A","station_name":"NA02 OSPEDALE SANTOBONO","pollutant":"PM2,5","date":"2025-01-01T00:00:00.000","value":88.9136363636,"Ore_Disponibili":22,"lat":40.8615516,"lon":14.2278503,"date_only":"2025-01-01T00:00:00.000"},{"station":"IT1497A","station_name":"NA01 OSSERVATORIO ASTRONOMICO","pollutant":"CO","date":"2025-01-01T00:00:00.000","value":0.6086956522,"Ore_Disponibili":23,"lat":46.0863714,"lon":13.3165669,"date_only":"2025-01-01T00:00:00.000"},{"station":"IT1497A","station_name":"NA01 OSSERVATORIO ASTRONOMICO","pollutant":"NO2","date":"2025-01-01T00:00:00.000","value":25.7958333333,"Ore_Disponibili":24,"lat":46.0863714,"lon":13.3165669,"date_only":"2025-01-01T00:00:00.000"},{"station":"IT1497A","station_name":"NA01 OSSERVATORIO ASTRONOMICO","pollutant":"O3","date":"2025-01-01T00:00:00.000","value":55.9782608696,"Ore_Disponibili":23,"lat":46.0863714,"lon":13.3165669,"date_only":"2025-01-01T00:00:00.000"},{"station":"IT1497A","station_name":"NA01 OSSERVATORIO ASTRONOMICO","pollutant":"PM10","date":"2025-01-01T00:00:00.000","value":128.3375,"Ore_Disponibili":24,"lat":46.0863714,"lon":13.3165669,"date_only":"2025-01-01T00:00:00.000"},{"station":"IT1497A","station_name":"NA01 OSSERVATORIO ASTRONOMICO","pollutant":"PM2,5","date":"2025-01-01T00:00:00.000","value":119.9416666667,"Ore_Disponibili":24,"lat":46.0863714,"lon":13.3165669,"date_only":"2025-01-01T00:00:00.000"},{"station":"IT1504A","station_name":"SA22 Ospedale via Vernieri","pollutant":"CO","date":"2025-01-01T00:00:00.000","value":0.7130434783,"Ore_Disponibili":23,"lat":40.682,"lon":14.766,"date_only":"2025-01-01T00:00:00.000"},{"station":"IT1504A","station_name":"SA22 Ospedale via Vernieri","pollutant":"NO2","date":"2025-01-01T00:00:00.000","value":37.6173913043,"Ore_Disponibili":23,"lat":40.682,"lon":14.766,"date_only":"2025-01-01T00:00:00.000"},{"station":"IT1504A","station_name":"SA22 Ospedale via Vernieri","pollutant":"PM10","date":"2025-01-01T00:00:00.000","value":141.9333333333,"Ore_Disponibili":24,"lat":40.682,"lon":14.766,"date_only":"2025-01-01T00:00:00.000"},{"station":"IT1504A","station_name":"SA22 Ospedale via Vernieri","pollutant":"PM2,5","date":"2025-01-01T00:00:00.000","value":108.675,"Ore_Disponibili":24,"lat":40.682,"lon":14.766,"date_only":"2025-01-01T00:00:00.000"},{"station":"IT2210A","station_name":"SOLOFRA ZONA INDUSTRIALE","pollutant":"CO","date":"2025-01-01T00:00:00.000","value":0.7416666667,"Ore_Disponibili":24,"lat":41.058,"lon":14.808,"date_only":"2025-01-01T00:00:00.000"},{"station":"IT2210A","station_name":"SOLOFRA ZONA INDUSTRIALE","pollutant":"NO2","date":"2025-01-01T00:00:00.000","value":14.147826087,"Ore_Disponibili":23,"lat":41.058,"lon":14.808,"date_only":"2025-01-01T00:00:00.000"},{"station":"IT2210A","station_name":"SOLOFRA ZONA INDUSTRIALE","pollutant":"PM10","date":"2025-01-01T00:00:00.000","value":65.275,"Ore_Disponibili":24,"lat":41.058,"lon":14.808,"date_only":"2025-01-01T00:00:00.000"},{"station":"IT2210A","station_name":"SOLOFRA ZONA INDUSTRIALE","pollutant":"PM2,5","date":"2025-01-01T00:00:00.000","value":62.0208333333,"Ore_Disponibili":24,"lat":41.058,"lon":14.808,"date_only":"2025-01-01T00:00:00.000"},{"station":"IT2211A","station_name":"ACERRA ZONA INDUSTRIALE","pollutant":"CO","date":"2025-01-01T00:00:00.000","value":1.2565217391,"Ore_Disponibili":23,"lat":40.9847962,"lon":14.3679606,"date_only":"2025-01-01T00:00:00.000"},{"station":"IT2211A","station_name":"ACERRA ZONA INDUSTRIALE","pollutant":"NO2","date":"2025-01-01T00:00:00.000","value":31.3695652174,"Ore_Disponibili":23,"lat":40.9847962,"lon":14.3679606,"date_only":"2025-01-01T00:00:00.000"},{"station":"IT2211A","station_name":"ACERRA ZONA INDUSTRIALE","pollutant":"PM10","date":"2025-01-01T00:00:00.000","value":173.2,"Ore_Disponibili":24,"lat":40.9847962,"lon":14.3679606,"date_only":"2025-01-01T00:00:00.000"},{"station":"IT2212A","station_name":"San Vitaliano Scuola Elementare Marconi","pollutant":"NO2","date":"2025-01-01T00:00:00.000","value":64.4130434783,"Ore_Disponibili":23,"lat":40.896,"lon":14.46,"date_only":"2025-01-01T00:00:00.000"},{"station":"IT2212A","station_name":"San Vitaliano Scuola Elementare Marconi","pollutant":"O3","date":"2025-01-01T00:00:00.000","value":14.3782608696,"Ore_Disponibili":23,"lat":40.896,"lon":14.46,"date_only":"2025-01-01T00:00:00.000"},{"station":"IT2212A","station_name":"San Vitaliano Scuola Elementare Marconi","pollutant":"PM10","date":"2025-01-01T00:00:00.000","value":347.7416666667,"Ore_Disponibili":24,"lat":40.896,"lon":14.46,"date_only":"2025-01-01T00:00:00.000"},{"station":"IT2212A","station_name":"San Vitaliano Scuola Elementare Marconi","pollutant":"PM2,5","date":"2025-01-01T00:00:00.000","value":339.25,"Ore_Disponibili":24,"lat":40.896,"lon":14.46,"date_only":"2025-01-01T00:00:00.000"},{"station":"IT2213A","station_name":"CAVA DEI TIRRENI - STADIO","pollutant":"CO","date":"2025-01-01T00:00:00.000","value":0.7956521739,"Ore_Disponibili":23,"lat":44.4937761,"lon":11.3101851,"date_only":"2025-01-01T00:00:00.000"},{"station":"IT2213A","station_name":"CAVA DEI TIRRENI - STADIO","pollutant":"NO2","date":"2025-01-01T00:00:00.000","value":31.1782608696,"Ore_Disponibili":23,"lat":44.4937761,"lon":11.3101851,"date_only":"2025-01-01T00:00:00.000"},{"station":"IT2213A","station_name":"CAVA DEI TIRRENI - STADIO","pollutant":"O3","date":"2025-01-01T00:00:00.000","value":27.6695652174,"Ore_Disponibili":23,"lat":44.4937761,"lon":11.3101851,"date_only":"2025-01-01T00:00:00.000"},{"station":"IT2213A","station_name":"CAVA DEI TIRRENI - STADIO","pollutant":"PM10","date":"2025-01-01T00:00:00.000","value":103.7166666667,"Ore_Disponibili":24,"lat":44.4937761,"lon":11.3101851,"date_only":"2025-01-01T00:00:00.000"},{"station":"IT2213A","station_name":"CAVA DEI TIRRENI - STADIO","pollutant":"PM2,5","date":"2025-01-01T00:00:00.000","value":97.225,"Ore_Disponibili":24,"lat":44.4937761,"lon":11.3101851,"date_only":"2025-01-01T00:00:00.000"},{"station":"IT2214A","station_name":"Nocera Inferiore scuola Solimene","pollutant":"CO","date":"2025-01-01T00:00:00.000","value":1.5347826087,"Ore_Disponibili":23,"lat":40.7445,"lon":14.734,"date_only":"2025-01-01T00:00:00.000"},{"station":"IT2214A","station_name":"Nocera Inferiore scuola Solimene","pollutant":"NO2","date":"2025-01-01T00:00:00.000","value":40.8130434783,"Ore_Disponibili":23,"lat":40.7445,"lon":14.734,"date_only":"2025-01-01T00:00:00.000"},{"station":"IT2214A","station_name":"Nocera Inferiore scuola Solimene","pollutant":"PM10","date":"2025-01-01T00:00:00.000","value":199.475,"Ore_Disponibili":24,"lat":40.7445,"lon":14.734,"date_only":"2025-01-01T00:00:00.000"},{"station":"IT2214A","station_name":"Nocera Inferiore scuola Solimene","pollutant":"PM2,5","date":"2025-01-01T00:00:00.000","value":188.0583333333,"Ore_Disponibili":24,"lat":40.7445,"lon":14.734,"date_only":"2025-01-01T00:00:00.000"},{"station":"IT2215A","station_name":"BENEVENTO ZONA INDUSTRIALE","pollutant":"NO2","date":"2025-01-01T00:00:00.000","value":8.4541666667,"Ore_Disponibili":24,"lat":41.2293368,"lon":14.4782074,"date_only":"2025-01-01T00:00:00.000"},{"station":"IT2215A","station_name":"BENEVENTO ZONA INDUSTRIALE","pollutant":"O3","date":"2025-01-01T00:00:00.000","value":31.052173913,"Ore_Disponibili":23,"lat":41.2293368,"lon":14.4782074,"date_only":"2025-01-01T00:00:00.000"},{"station":"IT2215A","station_name":"BENEVENTO ZONA INDUSTRIALE","pollutant":"PM10","date":"2025-01-01T00:00:00.000","value":50.8458333333,"Ore_Disponibili":24,"lat":41.2293368,"lon":14.4782074,"date_only":"2025-01-01T00:00:00.000"},{"station":"IT2215A","station_name":"BENEVENTO ZONA INDUSTRIALE","pollutant":"PM2,5","date":"2025-01-01T00:00:00.000","value":49.9791666667,"Ore_Disponibili":24,"lat":41.2293368,"lon":14.4782074,"date_only":"2025-01-01T00:00:00.000"},{"station":"IT2216A","station_name":"Casoria Scuola Palizzi (CAM)","pollutant":"NO2","date":"2025-01-01T00:00:00.000","value":26.4565217391,"Ore_Disponibili":23,"lat":40.904,"lon":14.289,"date_only":"2025-01-01T00:00:00.000"},{"station":"IT2216A","station_name":"Casoria Scuola Palizzi (CAM)","pollutant":"O3","date":"2025-01-01T00:00:00.000","value":15.8913043478,"Ore_Disponibili":23,"lat":40.904,"lon":14.289,"date_only":"2025-01-01T00:00:00.000"},{"station":"IT2216A","station_name":"Casoria Scuola Palizzi (CAM)","pollutant":"PM10","date":"2025-01-01T00:00:00.000","value":351.5708333333,"Ore_Disponibili":24,"lat":40.904,"lon":14.289,"date_only":"2025-01-01T00:00:00.000"},{"station":"IT2216A","station_name":"Casoria Scuola Palizzi (CAM)","pollutant":"PM2,5","date":"2025-01-01T00:00:00.000","value":345.0041666667,"Ore_Disponibili":24,"lat":40.904,"lon":14.289,"date_only":"2025-01-01T00:00:00.000"},{"station":"IT2217A","station_name":"Torre Annunziata Scuola Media Pascoli","pollutant":"NO2","date":"2025-01-01T00:00:00.000","value":25.4913043478,"Ore_Disponibili":23,"lat":40.831,"lon":14.426,"date_only":"2025-01-01T00:00:00.000"},{"station":"IT2217A","station_name":"Torre Annunziata Scuola Media Pascoli","pollutant":"O3","date":"2025-01-01T00:00:00.000","value":31.7260869565,"Ore_Disponibili":23,"lat":40.831,"lon":14.426,"date_only":"2025-01-01T00:00:00.000"},{"station":"IT2218A","station_name":"San Felice a Cancello Complesso scolastico","pollutant":"CO","date":"2025-01-01T00:00:00.000","value":0.8416666667,"Ore_Disponibili":24,"lat":41.015,"lon":14.287,"date_only":"2025-01-01T00:00:00.000"},{"station":"IT2218A","station_name":"San Felice a Cancello Complesso scolastico","pollutant":"NO2","date":"2025-01-01T00:00:00.000","value":20.1666666667,"Ore_Disponibili":24,"lat":41.015,"lon":14.287,"date_only":"2025-01-01T00:00:00.000"},{"station":"IT2218A","station_name":"San Felice a Cancello Complesso scolastico","pollutant":"O3","date":"2025-01-01T00:00:00.000","value":20.5173913043,"Ore_Disponibili":23,"lat":41.015,"lon":14.287,"date_only":"2025-01-01T00:00:00.000"},{"station":"IT2218A","station_name":"San Felice a Cancello Complesso scolastico","pollutant":"PM10","date":"2025-01-01T00:00:00.000","value":126.8,"Ore_Disponibili":24,"lat":41.015,"lon":14.287,"date_only":"2025-01-01T00:00:00.000"},{"station":"IT2218A","station_name":"San Felice a Cancello Complesso scolastico","pollutant":"PM2,5","date":"2025-01-01T00:00:00.000","value":119.9375,"Ore_Disponibili":24,"lat":41.015,"lon":14.287,"date_only":"2025-01-01T00:00:00.000"},{"station":"IT2219A","station_name":"Acerra scuola Caporale","pollutant":"CO","date":"2025-01-01T00:00:00.000","value":1.9956521739,"Ore_Disponibili":23,"lat":40.9169,"lon":14.3425,"date_only":"2025-01-01T00:00:00.000"},{"station":"IT2219A","station_name":"Acerra scuola Caporale","pollutant":"NO2","date":"2025-01-01T00:00:00.000","value":28.8739130435,"Ore_Disponibili":23,"lat":40.9169,"lon":14.3425,"date_only":"2025-01-01T00:00:00.000"},{"station":"IT2219A","station_name":"Acerra scuola Caporale","pollutant":"PM10","date":"2025-01-01T00:00:00.000","value":275.45,"Ore_Disponibili":24,"lat":40.9169,"lon":14.3425,"date_only":"2025-01-01T00:00:00.000"},{"station":"IT2219A","station_name":"Acerra scuola Caporale","pollutant":"PM2,5","date":"2025-01-01T00:00:00.000","value":259.9125,"Ore_Disponibili":24,"lat":40.9169,"lon":14.3425,"date_only":"2025-01-01T00:00:00.000"},{"station":"IT2221A","station_name":"Napoli via Epomeo","pollutant":"CO","date":"2025-01-01T00:00:00.000","value":0.9173913043,"Ore_Disponibili":23,"lat":40.7205434,"lon":13.8987737,"date_only":"2025-01-01T00:00:00.000"},{"station":"IT2221A","station_name":"Napoli via Epomeo","pollutant":"NO2","date":"2025-01-01T00:00:00.000","value":26.8434782609,"Ore_Disponibili":23,"lat":40.7205434,"lon":13.8987737,"date_only":"2025-01-01T00:00:00.000"},{"station":"IT2221A","station_name":"Napoli via Epomeo","pollutant":"O3","date":"2025-01-01T00:00:00.000","value":26.7173913043,"Ore_Disponibili":23,"lat":40.7205434,"lon":13.8987737,"date_only":"2025-01-01T00:00:00.000"},{"station":"IT2221A","station_name":"Napoli via Epomeo","pollutant":"PM10","date":"2025-01-01T00:00:00.000","value":108.6208333333,"Ore_Disponibili":24,"lat":40.7205434,"lon":13.8987737,"date_only":"2025-01-01T00:00:00.000"},{"station":"IT2221A","station_name":"Napoli via Epomeo","pollutant":"PM2,5","date":"2025-01-01T00:00:00.000","value":100.5333333333,"Ore_Disponibili":24,"lat":40.7205434,"lon":13.8987737,"date_only":"2025-01-01T00:00:00.000"},{"station":"IT2223A","station_name":"Volla via Filichito","pollutant":"CO","date":"2025-01-01T00:00:00.000","value":1.7434782609,"Ore_Disponibili":23,"lat":40.8824226,"lon":14.3478545,"date_only":"2025-01-01T00:00:00.000"},{"station":"IT2223A","station_name":"Volla via Filichito","pollutant":"NO2","date":"2025-01-01T00:00:00.000","value":29.0166666667,"Ore_Disponibili":24,"lat":40.8824226,"lon":14.3478545,"date_only":"2025-01-01T00:00:00.000"},{"station":"IT2223A","station_name":"Volla via Filichito","pollutant":"O3","date":"2025-01-01T00:00:00.000","value":18.3043478261,"Ore_Disponibili":23,"lat":40.8824226,"lon":14.3478545,"date_only":"2025-01-01T00:00:00.000"},{"station":"IT2223A","station_name":"Volla via Filichito","pollutant":"PM10","date":"2025-01-01T00:00:00.000","value":320.0666666667,"Ore_Disponibili":24,"lat":40.8824226,"lon":14.3478545,"date_only":"2025-01-01T00:00:00.000"},{"station":"IT2223A","station_name":"Volla via Filichito","pollutant":"PM2,5","date":"2025-01-01T00:00:00.000","value":300.4666666667,"Ore_Disponibili":24,"lat":40.8824226,"lon":14.3478545,"date_only":"2025-01-01T00:00:00.000"},{"station":"IT2226A","station_name":"Pomigliano d'Arco Area ASI","pollutant":"CO","date":"2025-01-01T00:00:00.000","value":0.8,"Ore_Disponibili":23,"lat":40.9075,"lon":14.393,"date_only":"2025-01-01T00:00:00.000"},{"station":"IT2226A","station_name":"Pomigliano d'Arco Area ASI","pollutant":"NO2","date":"2025-01-01T00:00:00.000","value":34.4647058824,"Ore_Disponibili":17,"lat":40.9075,"lon":14.393,"date_only":"2025-01-01T00:00:00.000"},{"station":"IT2226A","station_name":"Pomigliano d'Arco Area ASI","pollutant":"PM10","date":"2025-01-01T00:00:00.000","value":128.7666666667,"Ore_Disponibili":24,"lat":40.9075,"lon":14.393,"date_only":"2025-01-01T00:00:00.000"},{"station":"IT2226A","station_name":"Pomigliano d'Arco Area ASI","pollutant":"PM2,5","date":"2025-01-01T00:00:00.000","value":114.8791666667,"Ore_Disponibili":24,"lat":40.9075,"lon":14.393,"date_only":"2025-01-01T00:00:00.000"},{"station":"IT2227A","station_name":"AVELLINO - SCUOLA ALIGHIERI","pollutant":"CO","date":"2025-01-01T00:00:00.000","value":1.8652173913,"Ore_Disponibili":23,"lat":40.9190395,"lon":14.784947,"date_only":"2025-01-01T00:00:00.000"},{"station":"IT2227A","station_name":"AVELLINO - SCUOLA ALIGHIERI","pollutant":"NO2","date":"2025-01-01T00:00:00.000","value":27.7416666667,"Ore_Disponibili":24,"lat":40.9190395,"lon":14.784947,"date_only":"2025-01-01T00:00:00.000"},{"station":"IT2227A","station_name":"AVELLINO - SCUOLA ALIGHIERI","pollutant":"PM10","date":"2025-01-01T00:00:00.000","value":75.0666666667,"Ore_Disponibili":24,"lat":40.9190395,"lon":14.784947,"date_only":"2025-01-01T00:00:00.000"},{"station":"IT2227A","station_name":"AVELLINO - SCUOLA ALIGHIERI","pollutant":"PM2,5","date":"2025-01-01T00:00:00.000","value":72.3875,"Ore_Disponibili":24,"lat":40.9190395,"lon":14.784947,"date_only":"2025-01-01T00:00:00.000"},{"station":"IT2228A","station_name":"BENEVENTO CAMPO SPORTIVO","pollutant":"NO2","date":"2025-01-01T00:00:00.000","value":16.4583333333,"Ore_Disponibili":24,"lat":41.2315276,"lon":14.5332703,"date_only":"2025-01-01T00:00:00.000"},{"station":"IT2228A","station_name":"BENEVENTO CAMPO SPORTIVO","pollutant":"O3","date":"2025-01-01T00:00:00.000","value":21.7434782609,"Ore_Disponibili":23,"lat":41.2315276,"lon":14.5332703,"date_only":"2025-01-01T00:00:00.000"},{"station":"IT2228A","station_name":"BENEVENTO CAMPO SPORTIVO","pollutant":"PM10","date":"2025-01-01T00:00:00.000","value":92.0125,"Ore_Disponibili":24,"lat":41.2315276,"lon":14.5332703,"date_only":"2025-01-01T00:00:00.000"},{"station":"IT2228A","station_name":"BENEVENTO CAMPO SPORTIVO","pollutant":"PM2,5","date":"2025-01-01T00:00:00.000","value":89.8,"Ore_Disponibili":24,"lat":41.2315276,"lon":14.5332703,"date_only":"2025-01-01T00:00:00.000"},{"station":"IT2268A","station_name":"BATTIPAGLIA - PARCO FIUME","pollutant":"NO2","date":"2025-01-01T00:00:00.000","value":13.3,"Ore_Disponibili":23,"lat":44.3859682,"lon":7.5509829,"date_only":"2025-01-01T00:00:00.000"},{"station":"IT2268A","station_name":"BATTIPAGLIA - PARCO FIUME","pollutant":"O3","date":"2025-01-01T00:00:00.000","value":39.252173913,"Ore_Disponibili":23,"lat":44.3859682,"lon":7.5509829,"date_only":"2025-01-01T00:00:00.000"},{"station":"IT2268A","station_name":"BATTIPAGLIA - PARCO FIUME","pollutant":"PM2,5","date":"2025-01-01T00:00:00.000","value":30.2,"Ore_Disponibili":24,"lat":44.3859682,"lon":7.5509829,"date_only":"2025-01-01T00:00:00.000"},{"station":"IT2270A","station_name":"Portici parco Reggia","pollutant":"NO2","date":"2025-01-01T00:00:00.000","value":30.0391304348,"Ore_Disponibili":23,"lat":40.813588,"lon":14.3476526,"date_only":"2025-01-01T00:00:00.000"},{"station":"IT2270A","station_name":"Portici parco Reggia","pollutant":"O3","date":"2025-01-01T00:00:00.000","value":36.352173913,"Ore_Disponibili":23,"lat":40.813588,"lon":14.3476526,"date_only":"2025-01-01T00:00:00.000"},{"station":"IT2270A","station_name":"Portici parco Reggia","pollutant":"PM10","date":"2025-01-01T00:00:00.000","value":84.125,"Ore_Disponibili":24,"lat":40.813588,"lon":14.3476526,"date_only":"2025-01-01T00:00:00.000"},{"station":"IT2270A","station_name":"Portici parco Reggia","pollutant":"PM2,5","date":"2025-01-01T00:00:00.000","value":78.6958333333,"Ore_Disponibili":24,"lat":40.813588,"lon":14.3476526,"date_only":"2025-01-01T00:00:00.000"},{"station":"IT2271A","station_name":"Aversa scuola Cirillo","pollutant":"CO","date":"2025-01-01T00:00:00.000","value":1.8043478261,"Ore_Disponibili":23,"lat":40.9758352,"lon":14.2117669,"date_only":"2025-01-01T00:00:00.000"},{"station":"IT2271A","station_name":"Aversa scuola Cirillo","pollutant":"NO2","date":"2025-01-01T00:00:00.000","value":34.4291666667,"Ore_Disponibili":24,"lat":40.9758352,"lon":14.2117669,"date_only":"2025-01-01T00:00:00.000"},{"station":"IT2271A","station_name":"Aversa scuola Cirillo","pollutant":"PM10","date":"2025-01-01T00:00:00.000","value":331.0958333333,"Ore_Disponibili":24,"lat":40.9758352,"lon":14.2117669,"date_only":"2025-01-01T00:00:00.000"},{"station":"IT2271A","station_name":"Aversa scuola Cirillo","pollutant":"PM2,5","date":"2025-01-01T00:00:00.000","value":321.6625,"Ore_Disponibili":24,"lat":40.9758352,"lon":14.2117669,"date_only":"2025-01-01T00:00:00.000"},{"station":"IT2272A","station_name":"Pozzuoli ex Villa Avellino","pollutant":"NO2","date":"2025-01-01T00:00:00.000","value":27.8875,"Ore_Disponibili":24,"lat":40.834,"lon":14.119,"date_only":"2025-01-01T00:00:00.000"},{"station":"IT2272A","station_name":"Pozzuoli ex Villa Avellino","pollutant":"O3","date":"2025-01-01T00:00:00.000","value":36.7833333333,"Ore_Disponibili":24,"lat":40.834,"lon":14.119,"date_only":"2025-01-01T00:00:00.000"},{"station":"IT2272A","station_name":"Pozzuoli ex Villa Avellino","pollutant":"PM10","date":"2025-01-01T00:00:00.000","value":92.0833333333,"Ore_Disponibili":24,"lat":40.834,"lon":14.119,"date_only":"2025-01-01T00:00:00.000"},{"station":"IT2272A","station_name":"Pozzuoli ex Villa Avellino","pollutant":"PM2,5","date":"2025-01-01T00:00:00.000","value":85.7833333333,"Ore_Disponibili":24,"lat":40.834,"lon":14.119,"date_only":"2025-01-01T00:00:00.000"},{"station":"IT2273A","station_name":"Polla Area tritovagliatore","pollutant":"CO","date":"2025-01-01T00:00:00.000","value":0.7086956522,"Ore_Disponibili":23,"lat":40.412,"lon":15.341,"date_only":"2025-01-01T00:00:00.000"},{"station":"IT2273A","station_name":"Polla Area tritovagliatore","pollutant":"NO2","date":"2025-01-01T00:00:00.000","value":25.6304347826,"Ore_Disponibili":23,"lat":40.412,"lon":15.341,"date_only":"2025-01-01T00:00:00.000"},{"station":"IT2273A","station_name":"Polla Area tritovagliatore","pollutant":"PM10","date":"2025-01-01T00:00:00.000","value":38.9083333333,"Ore_Disponibili":24,"lat":40.412,"lon":15.341,"date_only":"2025-01-01T00:00:00.000"},{"station":"IT2273A","station_name":"Polla Area tritovagliatore","pollutant":"PM2,5","date":"2025-01-01T00:00:00.000","value":37.7666666667,"Ore_Disponibili":24,"lat":40.412,"lon":15.341,"date_only":"2025-01-01T00:00:00.000"},{"station":"IT2276A","station_name":"Ariano Irpino Villa Comunale","pollutant":"CO","date":"2025-01-01T00:00:00.000","value":0.5217391304,"Ore_Disponibili":23,"lat":41.1549432,"lon":15.0951624,"date_only":"2025-01-01T00:00:00.000"},{"station":"IT2276A","station_name":"Ariano Irpino Villa Comunale","pollutant":"NO2","date":"2025-01-01T00:00:00.000","value":8.9375,"Ore_Disponibili":24,"lat":41.1549432,"lon":15.0951624,"date_only":"2025-01-01T00:00:00.000"},{"station":"IT2276A","station_name":"Ariano Irpino Villa Comunale","pollutant":"O3","date":"2025-01-01T00:00:00.000","value":73.9130434783,"Ore_Disponibili":23,"lat":41.1549432,"lon":15.0951624,"date_only":"2025-01-01T00:00:00.000"},{"station":"IT2277A","station_name":"Napoli parco Virgiliano","pollutant":"CO","date":"2025-01-01T00:00:00.000","value":0.3608695652,"Ore_Disponibili":23,"lat":40.7984999,"lon":14.1790765,"date_only":"2025-01-01T00:00:00.000"},{"station":"IT2277A","station_name":"Napoli parco Virgiliano","pollutant":"NO2","date":"2025-01-01T00:00:00.000","value":13.3217391304,"Ore_Disponibili":23,"lat":40.7984999,"lon":14.1790765,"date_only":"2025-01-01T00:00:00.000"},{"station":"IT2277A","station_name":"Napoli parco Virgiliano","pollutant":"PM10","date":"2025-01-01T00:00:00.000","value":128.2,"Ore_Disponibili":24,"lat":40.7984999,"lon":14.1790765,"date_only":"2025-01-01T00:00:00.000"},{"station":"IT2277A","station_name":"Napoli parco Virgiliano","pollutant":"PM2,5","date":"2025-01-01T00:00:00.000","value":115.8,"Ore_Disponibili":24,"lat":40.7984999,"lon":14.1790765,"date_only":"2025-01-01T00:00:00.000"},{"station":"IT2283A","station_name":"OTTATI - ALBURNI","pollutant":"NO2","date":"2025-01-01T00:00:00.000","value":1.4217391304,"Ore_Disponibili":23,"lat":40.560311,"lon":15.303957,"date_only":"2025-01-01T00:00:00.000"},{"station":"IT2283A","station_name":"OTTATI - ALBURNI","pollutant":"O3","date":"2025-01-01T00:00:00.000","value":67.4173913043,"Ore_Disponibili":23,"lat":40.560311,"lon":15.303957,"date_only":"2025-01-01T00:00:00.000"},{"station":"IT2283A","station_name":"OTTATI - ALBURNI","pollutant":"PM10","date":"2025-01-01T00:00:00.000","value":26.5,"Ore_Disponibili":24,"lat":40.560311,"lon":15.303957,"date_only":"2025-01-01T00:00:00.000"},{"station":"IT2283A","station_name":"OTTATI - ALBURNI","pollutant":"PM2,5","date":"2025-01-01T00:00:00.000","value":12.5,"Ore_Disponibili":24,"lat":40.560311,"lon":15.303957,"date_only":"2025-01-01T00:00:00.000"}]