[{"station":"EDI01","station_name":"Presenzano Vic. Monastero \u00b0*","pollutant":"NO2","date":"2025-10-12T00:00:00.000","value":5.6547826087,"Ore_Disponibili":23,"lat":41.239,"lon":14.232,"date_only":"2025-10-12T00:00:00.000"},{"station":"EDI01","station_name":"Presenzano Vic. Monastero \u00b0*","pollutant":"O3","date":"2025-10-12T00:00:00.000","value":54.4904347826,"Ore_Disponibili":23,"lat":41.239,"lon":14.232,"date_only":"2025-10-12T00:00:00.000"},{"station":"EDI01","station_name":"Presenzano Vic. Monastero \u00b0*","pollutant":"PM10","date":"2025-10-12T00:00:00.000","value":7.0416666667,"Ore_Disponibili":24,"lat":41.239,"lon":14.232,"date_only":"2025-10-12T00:00:00.000"},{"station":"EDI01","station_name":"Presenzano Vic. Monastero \u00b0*","pollutant":"PM2,5","date":"2025-10-12T00:00:00.000","value":5.2083333333,"Ore_Disponibili":24,"lat":41.239,"lon":14.232,"date_only":"2025-10-12T00:00:00.000"},{"station":"EDI02","station_name":"Pratella Loc. Mastrati \u00b0*","pollutant":"NO2","date":"2025-10-12T00:00:00.000","value":3.8220833333,"Ore_Disponibili":24,"lat":41.461,"lon":14.641,"date_only":"2025-10-12T00:00:00.000"},{"station":"EDI02","station_name":"Pratella Loc. Mastrati \u00b0*","pollutant":"O3","date":"2025-10-12T00:00:00.000","value":53.5008695652,"Ore_Disponibili":23,"lat":41.461,"lon":14.641,"date_only":"2025-10-12T00:00:00.000"},{"station":"EDI02","station_name":"Pratella Loc. Mastrati \u00b0*","pollutant":"PM10","date":"2025-10-12T00:00:00.000","value":8.4347826087,"Ore_Disponibili":23,"lat":41.461,"lon":14.641,"date_only":"2025-10-12T00:00:00.000"},{"station":"EDI02","station_name":"Pratella Loc. Mastrati \u00b0*","pollutant":"PM2,5","date":"2025-10-12T00:00:00.000","value":8.652173913,"Ore_Disponibili":23,"lat":41.461,"lon":14.641,"date_only":"2025-10-12T00:00:00.000"},{"station":"IT0898A","station_name":"Napoli NA06 Museo Nazionale","pollutant":"NO2","date":"2025-10-12T00:00:00.000","value":43.3720833333,"Ore_Disponibili":24,"lat":40.8536064,"lon":14.25115,"date_only":"2025-10-12T00:00:00.000"},{"station":"IT0898A","station_name":"Napoli NA06 Museo Nazionale","pollutant":"PM10","date":"2025-10-12T00:00:00.000","value":17.5375,"Ore_Disponibili":24,"lat":40.8536064,"lon":14.25115,"date_only":"2025-10-12T00:00:00.000"},{"station":"IT0898A","station_name":"Napoli NA06 Museo Nazionale","pollutant":"PM2,5","date":"2025-10-12T00:00:00.000","value":12.9,"Ore_Disponibili":23,"lat":40.8536064,"lon":14.25115,"date_only":"2025-10-12T00:00:00.000"},{"station":"IT0934A","station_name":"Benevento BN32 Via Mustilli","pollutant":"NO2","date":"2025-10-12T00:00:00.000","value":18.8425,"Ore_Disponibili":24,"lat":41.1317868,"lon":14.7885516,"date_only":"2025-10-12T00:00:00.000"},{"station":"IT0934A","station_name":"Benevento BN32 Via Mustilli","pollutant":"PM10","date":"2025-10-12T00:00:00.000","value":15.3958333333,"Ore_Disponibili":24,"lat":41.1317868,"lon":14.7885516,"date_only":"2025-10-12T00:00:00.000"},{"station":"IT0934A","station_name":"Benevento BN32 Via Mustilli","pollutant":"PM2,5","date":"2025-10-12T00:00:00.000","value":8.5,"Ore_Disponibili":22,"lat":41.1317868,"lon":14.7885516,"date_only":"2025-10-12T00:00:00.000"},{"station":"IT0936A","station_name":"Avellino AV41 Sc. V Circolo \u00b0","pollutant":"NO2","date":"2025-10-12T00:00:00.000","value":14.7991666667,"Ore_Disponibili":24,"lat":40.9152,"lon":14.7955,"date_only":"2025-10-12T00:00:00.000"},{"station":"IT0936A","station_name":"Avellino AV41 Sc. V Circolo \u00b0","pollutant":"O3","date":"2025-10-12T00:00:00.000","value":51.5966666667,"Ore_Disponibili":24,"lat":40.9152,"lon":14.7955,"date_only":"2025-10-12T00:00:00.000"},{"station":"IT0936A","station_name":"Avellino AV41 Sc. V Circolo \u00b0","pollutant":"PM10","date":"2025-10-12T00:00:00.000","value":15.96,"Ore_Disponibili":24,"lat":40.9152,"lon":14.7955,"date_only":"2025-10-12T00:00:00.000"},{"station":"IT0936A","station_name":"Avellino AV41 Sc. V Circolo \u00b0","pollutant":"PM2,5","date":"2025-10-12T00:00:00.000","value":13.0770833333,"Ore_Disponibili":24,"lat":40.9152,"lon":14.7955,"date_only":"2025-10-12T00:00:00.000"},{"station":"IT1041A","station_name":"Salerno SA23 Scuola Conti \u00b0","pollutant":"NO2","date":"2025-10-12T00:00:00.000","value":31.09375,"Ore_Disponibili":24,"lat":40.675,"lon":14.768,"date_only":"2025-10-12T00:00:00.000"},{"station":"IT1041A","station_name":"Salerno SA23 Scuola Conti \u00b0","pollutant":"PM2,5","date":"2025-10-12T00:00:00.000","value":4.1,"Ore_Disponibili":24,"lat":40.675,"lon":14.768,"date_only":"2025-10-12T00:00:00.000"},{"station":"IT1486A","station_name":"Caserta CE51 Ist. Manzoni","pollutant":"NO2","date":"2025-10-12T00:00:00.000","value":13.7165217391,"Ore_Disponibili":23,"lat":41.0818,"lon":14.3349,"date_only":"2025-10-12T00:00:00.000"},{"station":"IT1486A","station_name":"Caserta CE51 Ist. Manzoni","pollutant":"O3","date":"2025-10-12T00:00:00.000","value":59.3475,"Ore_Disponibili":24,"lat":41.0818,"lon":14.3349,"date_only":"2025-10-12T00:00:00.000"},{"station":"IT1487A","station_name":"Caserta CE52 Sc. De Amicis","pollutant":"NO2","date":"2025-10-12T00:00:00.000","value":15.2782608696,"Ore_Disponibili":23,"lat":41.0085302,"lon":14.0787912,"date_only":"2025-10-12T00:00:00.000"},{"station":"IT1487A","station_name":"Caserta CE52 Sc. De Amicis","pollutant":"PM10","date":"2025-10-12T00:00:00.000","value":16.5,"Ore_Disponibili":24,"lat":41.0085302,"lon":14.0787912,"date_only":"2025-10-12T00:00:00.000"},{"station":"IT1487A","station_name":"Caserta CE52 Sc. De Amicis","pollutant":"PM2,5","date":"2025-10-12T00:00:00.000","value":1.1,"Ore_Disponibili":24,"lat":41.0085302,"lon":14.0787912,"date_only":"2025-10-12T00:00:00.000"},{"station":"IT1488A","station_name":"Maddaloni CE54 Sc. Settembrini","pollutant":"NO2","date":"2025-10-12T00:00:00.000","value":15.2495652174,"Ore_Disponibili":23,"lat":41.094,"lon":14.402,"date_only":"2025-10-12T00:00:00.000"},{"station":"IT1488A","station_name":"Maddaloni CE54 Sc. Settembrini","pollutant":"O3","date":"2025-10-12T00:00:00.000","value":49.2643478261,"Ore_Disponibili":23,"lat":41.094,"lon":14.402,"date_only":"2025-10-12T00:00:00.000"},{"station":"IT1488A","station_name":"Maddaloni CE54 Sc. Settembrini","pollutant":"PM10","date":"2025-10-12T00:00:00.000","value":14.50375,"Ore_Disponibili":24,"lat":41.094,"lon":14.402,"date_only":"2025-10-12T00:00:00.000"},{"station":"IT1488A","station_name":"Maddaloni CE54 Sc. Settembrini","pollutant":"PM2,5","date":"2025-10-12T00:00:00.000","value":7.3125,"Ore_Disponibili":24,"lat":41.094,"lon":14.402,"date_only":"2025-10-12T00:00:00.000"},{"station":"IT1491A","station_name":"Napoli NA07 Ferrovia \u00b0","pollutant":"NO2","date":"2025-10-12T00:00:00.000","value":48.73125,"Ore_Disponibili":24,"lat":40.8277815,"lon":14.3989433,"date_only":"2025-10-12T00:00:00.000"},{"station":"IT1491A","station_name":"Napoli NA07 Ferrovia \u00b0","pollutant":"PM10","date":"2025-10-12T00:00:00.000","value":21.6608695652,"Ore_Disponibili":23,"lat":40.8277815,"lon":14.3989433,"date_only":"2025-10-12T00:00:00.000"},{"station":"IT1491A","station_name":"Napoli NA07 Ferrovia \u00b0","pollutant":"PM2,5","date":"2025-10-12T00:00:00.000","value":17.38,"Ore_Disponibili":20,"lat":40.8277815,"lon":14.3989433,"date_only":"2025-10-12T00:00:00.000"},{"station":"IT1493A","station_name":"Napoli NA09 Via Argine","pollutant":"NO2","date":"2025-10-12T00:00:00.000","value":35.12,"Ore_Disponibili":24,"lat":40.8560636,"lon":14.3234622,"date_only":"2025-10-12T00:00:00.000"},{"station":"IT1493A","station_name":"Napoli NA09 Via Argine","pollutant":"PM10","date":"2025-10-12T00:00:00.000","value":19.6791666667,"Ore_Disponibili":24,"lat":40.8560636,"lon":14.3234622,"date_only":"2025-10-12T00:00:00.000"},{"station":"IT1493A","station_name":"Napoli NA09 Via Argine","pollutant":"PM2,5","date":"2025-10-12T00:00:00.000","value":11.2125,"Ore_Disponibili":24,"lat":40.8560636,"lon":14.3234622,"date_only":"2025-10-12T00:00:00.000"},{"station":"IT1495A","station_name":"Napoli NA08 Osp. N. Pellegrini","pollutant":"NO2","date":"2025-10-12T00:00:00.000","value":26.2625,"Ore_Disponibili":24,"lat":40.8535,"lon":14.235,"date_only":"2025-10-12T00:00:00.000"},{"station":"IT1495A","station_name":"Napoli NA08 Osp. N. Pellegrini","pollutant":"PM10","date":"2025-10-12T00:00:00.000","value":25.6,"Ore_Disponibili":24,"lat":40.8535,"lon":14.235,"date_only":"2025-10-12T00:00:00.000"},{"station":"IT1496A","station_name":"Napoli NA02 Osp. Santobono \u00b0","pollutant":"NO2","date":"2025-10-12T00:00:00.000","value":39.1854166667,"Ore_Disponibili":24,"lat":40.8554,"lon":14.2231,"date_only":"2025-10-12T00:00:00.000"},{"station":"IT1496A","station_name":"Napoli NA02 Osp. Santobono \u00b0","pollutant":"PM10","date":"2025-10-12T00:00:00.000","value":11.5833333333,"Ore_Disponibili":24,"lat":40.8554,"lon":14.2231,"date_only":"2025-10-12T00:00:00.000"},{"station":"IT1496A","station_name":"Napoli NA02 Osp. Santobono \u00b0","pollutant":"PM2,5","date":"2025-10-12T00:00:00.000","value":6.50875,"Ore_Disponibili":24,"lat":40.8554,"lon":14.2231,"date_only":"2025-10-12T00:00:00.000"},{"station":"IT1497A","station_name":"Napoli NA01 Oss. Astronomico","pollutant":"NO2","date":"2025-10-12T00:00:00.000","value":21.6470833333,"Ore_Disponibili":24,"lat":40.853,"lon":14.305,"date_only":"2025-10-12T00:00:00.000"},{"station":"IT1497A","station_name":"Napoli NA01 Oss. Astronomico","pollutant":"O3","date":"2025-10-12T00:00:00.000","value":61.7165217391,"Ore_Disponibili":23,"lat":40.853,"lon":14.305,"date_only":"2025-10-12T00:00:00.000"},{"station":"IT1497A","station_name":"Napoli NA01 Oss. Astronomico","pollutant":"PM10","date":"2025-10-12T00:00:00.000","value":14.0254166667,"Ore_Disponibili":24,"lat":40.853,"lon":14.305,"date_only":"2025-10-12T00:00:00.000"},{"station":"IT1497A","station_name":"Napoli NA01 Oss. Astronomico","pollutant":"PM2,5","date":"2025-10-12T00:00:00.000","value":9.3820833333,"Ore_Disponibili":24,"lat":40.853,"lon":14.305,"date_only":"2025-10-12T00:00:00.000"},{"station":"IT1504A","station_name":"Salerno SA22 Osp. Via Vernieri","pollutant":"PM10","date":"2025-10-12T00:00:00.000","value":13.5818181818,"Ore_Disponibili":22,"lat":40.682,"lon":14.766,"date_only":"2025-10-12T00:00:00.000"},{"station":"IT1504A","station_name":"Salerno SA22 Osp. Via Vernieri","pollutant":"PM2,5","date":"2025-10-12T00:00:00.000","value":11.225,"Ore_Disponibili":20,"lat":40.682,"lon":14.766,"date_only":"2025-10-12T00:00:00.000"},{"station":"IT2210A","station_name":"Solofra Zona Industriale","pollutant":"NO2","date":"2025-10-12T00:00:00.000","value":3.862173913,"Ore_Disponibili":23,"lat":41.058,"lon":14.808,"date_only":"2025-10-12T00:00:00.000"},{"station":"IT2210A","station_name":"Solofra Zona Industriale","pollutant":"PM10","date":"2025-10-12T00:00:00.000","value":11.2166666667,"Ore_Disponibili":24,"lat":41.058,"lon":14.808,"date_only":"2025-10-12T00:00:00.000"},{"station":"IT2210A","station_name":"Solofra Zona Industriale","pollutant":"PM2,5","date":"2025-10-12T00:00:00.000","value":7.94125,"Ore_Disponibili":24,"lat":41.058,"lon":14.808,"date_only":"2025-10-12T00:00:00.000"},{"station":"IT2211A","station_name":"Acerra Zona Industriale","pollutant":"NO2","date":"2025-10-12T00:00:00.000","value":32.4795652174,"Ore_Disponibili":23,"lat":40.9847962,"lon":14.3679606,"date_only":"2025-10-12T00:00:00.000"},{"station":"IT2211A","station_name":"Acerra Zona Industriale","pollutant":"PM10","date":"2025-10-12T00:00:00.000","value":14.7,"Ore_Disponibili":24,"lat":40.9847962,"lon":14.3679606,"date_only":"2025-10-12T00:00:00.000"},{"station":"IT2211A","station_name":"Acerra Zona Industriale","pollutant":"PM2,5","date":"2025-10-12T00:00:00.000","value":4.7,"Ore_Disponibili":24,"lat":40.9847962,"lon":14.3679606,"date_only":"2025-10-12T00:00:00.000"},{"station":"IT2212A","station_name":"S. Vitaliano Scuola Marconi","pollutant":"NO2","date":"2025-10-12T00:00:00.000","value":36.9165217391,"Ore_Disponibili":23,"lat":40.896,"lon":14.46,"date_only":"2025-10-12T00:00:00.000"},{"station":"IT2212A","station_name":"S. Vitaliano Scuola Marconi","pollutant":"O3","date":"2025-10-12T00:00:00.000","value":43.0645454545,"Ore_Disponibili":22,"lat":40.896,"lon":14.46,"date_only":"2025-10-12T00:00:00.000"},{"station":"IT2212A","station_name":"S. Vitaliano Scuola Marconi","pollutant":"PM10","date":"2025-10-12T00:00:00.000","value":18.1925,"Ore_Disponibili":24,"lat":40.896,"lon":14.46,"date_only":"2025-10-12T00:00:00.000"},{"station":"IT2212A","station_name":"S. Vitaliano Scuola Marconi","pollutant":"PM2,5","date":"2025-10-12T00:00:00.000","value":10.5620833333,"Ore_Disponibili":24,"lat":40.896,"lon":14.46,"date_only":"2025-10-12T00:00:00.000"},{"station":"IT2213A","station_name":"Cava dei Tirreni Stadio","pollutant":"NO2","date":"2025-10-12T00:00:00.000","value":12.6330434783,"Ore_Disponibili":23,"lat":40.7125,"lon":14.638,"date_only":"2025-10-12T00:00:00.000"},{"station":"IT2213A","station_name":"Cava dei Tirreni Stadio","pollutant":"O3","date":"2025-10-12T00:00:00.000","value":62.8426086957,"Ore_Disponibili":23,"lat":40.7125,"lon":14.638,"date_only":"2025-10-12T00:00:00.000"},{"station":"IT2213A","station_name":"Cava dei Tirreni Stadio","pollutant":"PM10","date":"2025-10-12T00:00:00.000","value":12.1283333333,"Ore_Disponibili":24,"lat":40.7125,"lon":14.638,"date_only":"2025-10-12T00:00:00.000"},{"station":"IT2213A","station_name":"Cava dei Tirreni Stadio","pollutant":"PM2,5","date":"2025-10-12T00:00:00.000","value":8.07,"Ore_Disponibili":24,"lat":40.7125,"lon":14.638,"date_only":"2025-10-12T00:00:00.000"},{"station":"IT2214A","station_name":"Nocera Inferiore Sc. Solimena","pollutant":"NO2","date":"2025-10-12T00:00:00.000","value":21.1733333333,"Ore_Disponibili":21,"lat":40.7473393,"lon":14.6410145,"date_only":"2025-10-12T00:00:00.000"},{"station":"IT2214A","station_name":"Nocera Inferiore Sc. Solimena","pollutant":"PM10","date":"2025-10-12T00:00:00.000","value":11.28125,"Ore_Disponibili":24,"lat":40.7473393,"lon":14.6410145,"date_only":"2025-10-12T00:00:00.000"},{"station":"IT2214A","station_name":"Nocera Inferiore Sc. Solimena","pollutant":"PM2,5","date":"2025-10-12T00:00:00.000","value":7.0383333333,"Ore_Disponibili":24,"lat":40.7473393,"lon":14.6410145,"date_only":"2025-10-12T00:00:00.000"},{"station":"IT2215A","station_name":"Benevento Zona Industriale \u00b0","pollutant":"NO2","date":"2025-10-12T00:00:00.000","value":6.1713636364,"Ore_Disponibili":22,"lat":41.2293368,"lon":14.4782074,"date_only":"2025-10-12T00:00:00.000"},{"station":"IT2215A","station_name":"Benevento Zona Industriale \u00b0","pollutant":"O3","date":"2025-10-12T00:00:00.000","value":40.4573913043,"Ore_Disponibili":23,"lat":41.2293368,"lon":14.4782074,"date_only":"2025-10-12T00:00:00.000"},{"station":"IT2215A","station_name":"Benevento Zona Industriale \u00b0","pollutant":"PM10","date":"2025-10-12T00:00:00.000","value":13.53125,"Ore_Disponibili":24,"lat":41.2293368,"lon":14.4782074,"date_only":"2025-10-12T00:00:00.000"},{"station":"IT2215A","station_name":"Benevento Zona Industriale \u00b0","pollutant":"PM2,5","date":"2025-10-12T00:00:00.000","value":9.1333333333,"Ore_Disponibili":24,"lat":41.2293368,"lon":14.4782074,"date_only":"2025-10-12T00:00:00.000"},{"station":"IT2216A","station_name":"Casoria Scuola Palizzi","pollutant":"NO2","date":"2025-10-12T00:00:00.000","value":25.0463157895,"Ore_Disponibili":19,"lat":40.904,"lon":14.289,"date_only":"2025-10-12T00:00:00.000"},{"station":"IT2216A","station_name":"Casoria Scuola Palizzi","pollutant":"O3","date":"2025-10-12T00:00:00.000","value":50.847826087,"Ore_Disponibili":23,"lat":40.904,"lon":14.289,"date_only":"2025-10-12T00:00:00.000"},{"station":"IT2216A","station_name":"Casoria Scuola Palizzi","pollutant":"PM10","date":"2025-10-12T00:00:00.000","value":23.3691666667,"Ore_Disponibili":24,"lat":40.904,"lon":14.289,"date_only":"2025-10-12T00:00:00.000"},{"station":"IT2216A","station_name":"Casoria Scuola Palizzi","pollutant":"PM2,5","date":"2025-10-12T00:00:00.000","value":11.45875,"Ore_Disponibili":24,"lat":40.904,"lon":14.289,"date_only":"2025-10-12T00:00:00.000"},{"station":"IT2217A","station_name":"Torre Annunziata Sc. Pascoli","pollutant":"NO2","date":"2025-10-12T00:00:00.000","value":19.1468421053,"Ore_Disponibili":19,"lat":40.7469754,"lon":14.4608234,"date_only":"2025-10-12T00:00:00.000"},{"station":"IT2217A","station_name":"Torre Annunziata Sc. Pascoli","pollutant":"O3","date":"2025-10-12T00:00:00.000","value":56.3469565217,"Ore_Disponibili":23,"lat":40.7469754,"lon":14.4608234,"date_only":"2025-10-12T00:00:00.000"},{"station":"IT2218A","station_name":"San Felice a Cancello C. Scolast.","pollutant":"NO2","date":"2025-10-12T00:00:00.000","value":11.8143478261,"Ore_Disponibili":23,"lat":41.015,"lon":14.287,"date_only":"2025-10-12T00:00:00.000"},{"station":"IT2218A","station_name":"San Felice a Cancello C. Scolast.","pollutant":"O3","date":"2025-10-12T00:00:00.000","value":63.5452173913,"Ore_Disponibili":23,"lat":41.015,"lon":14.287,"date_only":"2025-10-12T00:00:00.000"},{"station":"IT2218A","station_name":"San Felice a Cancello C. Scolast.","pollutant":"PM10","date":"2025-10-12T00:00:00.000","value":17.01,"Ore_Disponibili":24,"lat":41.015,"lon":14.287,"date_only":"2025-10-12T00:00:00.000"},{"station":"IT2218A","station_name":"San Felice a Cancello C. Scolast.","pollutant":"PM2,5","date":"2025-10-12T00:00:00.000","value":6.8733333333,"Ore_Disponibili":24,"lat":41.015,"lon":14.287,"date_only":"2025-10-12T00:00:00.000"},{"station":"IT2219A","station_name":"Acerra Scuola Caporale","pollutant":"NO2","date":"2025-10-12T00:00:00.000","value":23.5666666667,"Ore_Disponibili":21,"lat":40.9071,"lon":14.3429,"date_only":"2025-10-12T00:00:00.000"},{"station":"IT2219A","station_name":"Acerra Scuola Caporale","pollutant":"PM10","date":"2025-10-12T00:00:00.000","value":20.5704166667,"Ore_Disponibili":24,"lat":40.9071,"lon":14.3429,"date_only":"2025-10-12T00:00:00.000"},{"station":"IT2219A","station_name":"Acerra Scuola Caporale","pollutant":"PM2,5","date":"2025-10-12T00:00:00.000","value":10.4829166667,"Ore_Disponibili":24,"lat":40.9071,"lon":14.3429,"date_only":"2025-10-12T00:00:00.000"},{"station":"IT2221A","station_name":"Napoli via Epomeo *\u00b0","pollutant":"NO2","date":"2025-10-12T00:00:00.000","value":27.0391666667,"Ore_Disponibili":24,"lat":40.7205434,"lon":13.8987737,"date_only":"2025-10-12T00:00:00.000"},{"station":"IT2221A","station_name":"Napoli via Epomeo *\u00b0","pollutant":"O3","date":"2025-10-12T00:00:00.000","value":37.1141666667,"Ore_Disponibili":24,"lat":40.7205434,"lon":13.8987737,"date_only":"2025-10-12T00:00:00.000"},{"station":"IT2221A","station_name":"Napoli via Epomeo *\u00b0","pollutant":"PM10","date":"2025-10-12T00:00:00.000","value":17.8429166667,"Ore_Disponibili":24,"lat":40.7205434,"lon":13.8987737,"date_only":"2025-10-12T00:00:00.000"},{"station":"IT2221A","station_name":"Napoli via Epomeo *\u00b0","pollutant":"PM2,5","date":"2025-10-12T00:00:00.000","value":10.21375,"Ore_Disponibili":24,"lat":40.7205434,"lon":13.8987737,"date_only":"2025-10-12T00:00:00.000"},{"station":"IT2223A","station_name":"Volla Via Filichito *\u00b0","pollutant":"NO2","date":"2025-10-12T00:00:00.000","value":37.0570833333,"Ore_Disponibili":24,"lat":40.8824226,"lon":14.3478545,"date_only":"2025-10-12T00:00:00.000"},{"station":"IT2223A","station_name":"Volla Via Filichito *\u00b0","pollutant":"O3","date":"2025-10-12T00:00:00.000","value":28.9773913043,"Ore_Disponibili":23,"lat":40.8824226,"lon":14.3478545,"date_only":"2025-10-12T00:00:00.000"},{"station":"IT2223A","station_name":"Volla Via Filichito *\u00b0","pollutant":"PM10","date":"2025-10-12T00:00:00.000","value":17.7258333333,"Ore_Disponibili":24,"lat":40.8824226,"lon":14.3478545,"date_only":"2025-10-12T00:00:00.000"},{"station":"IT2223A","station_name":"Volla Via Filichito *\u00b0","pollutant":"PM2,5","date":"2025-10-12T00:00:00.000","value":10.9816666667,"Ore_Disponibili":24,"lat":40.8824226,"lon":14.3478545,"date_only":"2025-10-12T00:00:00.000"},{"station":"IT2226A","station_name":"Pomigliano d'Arco Area Asi","pollutant":"NO2","date":"2025-10-12T00:00:00.000","value":32.3260869565,"Ore_Disponibili":23,"lat":40.412,"lon":15.341,"date_only":"2025-10-12T00:00:00.000"},{"station":"IT2226A","station_name":"Pomigliano d'Arco Area Asi","pollutant":"PM10","date":"2025-10-12T00:00:00.000","value":14.4458333333,"Ore_Disponibili":24,"lat":40.412,"lon":15.341,"date_only":"2025-10-12T00:00:00.000"},{"station":"IT2226A","station_name":"Pomigliano d'Arco Area Asi","pollutant":"PM2,5","date":"2025-10-12T00:00:00.000","value":9.3291666667,"Ore_Disponibili":24,"lat":40.412,"lon":15.341,"date_only":"2025-10-12T00:00:00.000"},{"station":"IT2227A","station_name":"Avellino Scuola Alighieri","pollutant":"NO2","date":"2025-10-12T00:00:00.000","value":22.7375,"Ore_Disponibili":24,"lat":40.9190395,"lon":14.784947,"date_only":"2025-10-12T00:00:00.000"},{"station":"IT2227A","station_name":"Avellino Scuola Alighieri","pollutant":"PM10","date":"2025-10-12T00:00:00.000","value":9.3554166667,"Ore_Disponibili":24,"lat":40.9190395,"lon":14.784947,"date_only":"2025-10-12T00:00:00.000"},{"station":"IT2227A","station_name":"Avellino Scuola Alighieri","pollutant":"PM2,5","date":"2025-10-12T00:00:00.000","value":7.27125,"Ore_Disponibili":24,"lat":40.9190395,"lon":14.784947,"date_only":"2025-10-12T00:00:00.000"},{"station":"IT2228A","station_name":"Benevento Campo Sportivo","pollutant":"NO2","date":"2025-10-12T00:00:00.000","value":13.7775,"Ore_Disponibili":24,"lat":41.2315276,"lon":14.5332703,"date_only":"2025-10-12T00:00:00.000"},{"station":"IT2228A","station_name":"Benevento Campo Sportivo","pollutant":"O3","date":"2025-10-12T00:00:00.000","value":33.9166666667,"Ore_Disponibili":24,"lat":41.2315276,"lon":14.5332703,"date_only":"2025-10-12T00:00:00.000"},{"station":"IT2228A","station_name":"Benevento Campo Sportivo","pollutant":"PM10","date":"2025-10-12T00:00:00.000","value":15.7658333333,"Ore_Disponibili":24,"lat":41.2315276,"lon":14.5332703,"date_only":"2025-10-12T00:00:00.000"},{"station":"IT2228A","station_name":"Benevento Campo Sportivo","pollutant":"PM2,5","date":"2025-10-12T00:00:00.000","value":11.55875,"Ore_Disponibili":24,"lat":41.2315276,"lon":14.5332703,"date_only":"2025-10-12T00:00:00.000"},{"station":"IT2268A","station_name":"Battipaglia Parco Fiume","pollutant":"NO2","date":"2025-10-12T00:00:00.000","value":8.6991304348,"Ore_Disponibili":23,"lat":40.6167,"lon":14.9833,"date_only":"2025-10-12T00:00:00.000"},{"station":"IT2268A","station_name":"Battipaglia Parco Fiume","pollutant":"O3","date":"2025-10-12T00:00:00.000","value":56.1565217391,"Ore_Disponibili":23,"lat":40.6167,"lon":14.9833,"date_only":"2025-10-12T00:00:00.000"},{"station":"IT2268A","station_name":"Battipaglia Parco Fiume","pollutant":"PM10","date":"2025-10-12T00:00:00.000","value":10.3,"Ore_Disponibili":24,"lat":40.6167,"lon":14.9833,"date_only":"2025-10-12T00:00:00.000"},{"station":"IT2268A","station_name":"Battipaglia Parco Fiume","pollutant":"PM2,5","date":"2025-10-12T00:00:00.000","value":5.8,"Ore_Disponibili":24,"lat":40.6167,"lon":14.9833,"date_only":"2025-10-12T00:00:00.000"},{"station":"IT2270A","station_name":"Portici Parco Reggia","pollutant":"NO2","date":"2025-10-12T00:00:00.000","value":26.3813043478,"Ore_Disponibili":23,"lat":40.813588,"lon":14.3476526,"date_only":"2025-10-12T00:00:00.000"},{"station":"IT2270A","station_name":"Portici Parco Reggia","pollutant":"O3","date":"2025-10-12T00:00:00.000","value":45.9533333333,"Ore_Disponibili":24,"lat":40.813588,"lon":14.3476526,"date_only":"2025-10-12T00:00:00.000"},{"station":"IT2270A","station_name":"Portici Parco Reggia","pollutant":"PM10","date":"2025-10-12T00:00:00.000","value":9.8295833333,"Ore_Disponibili":24,"lat":40.813588,"lon":14.3476526,"date_only":"2025-10-12T00:00:00.000"},{"station":"IT2270A","station_name":"Portici Parco Reggia","pollutant":"PM2,5","date":"2025-10-12T00:00:00.000","value":6.0104166667,"Ore_Disponibili":24,"lat":40.813588,"lon":14.3476526,"date_only":"2025-10-12T00:00:00.000"},{"station":"IT2271A","station_name":"Aversa Scuola Cirillo \u00b0","pollutant":"NO2","date":"2025-10-12T00:00:00.000","value":31.234375,"Ore_Disponibili":16,"lat":40.9758352,"lon":14.2117669,"date_only":"2025-10-12T00:00:00.000"},{"station":"IT2271A","station_name":"Aversa Scuola Cirillo \u00b0","pollutant":"PM10","date":"2025-10-12T00:00:00.000","value":16.2775,"Ore_Disponibili":24,"lat":40.9758352,"lon":14.2117669,"date_only":"2025-10-12T00:00:00.000"},{"station":"IT2271A","station_name":"Aversa Scuola Cirillo \u00b0","pollutant":"PM2,5","date":"2025-10-12T00:00:00.000","value":8.8666666667,"Ore_Disponibili":24,"lat":40.9758352,"lon":14.2117669,"date_only":"2025-10-12T00:00:00.000"},{"station":"IT2272A","station_name":"Pozzuoli Zona Villa Avellino","pollutant":"NO2","date":"2025-10-12T00:00:00.000","value":22.2169565217,"Ore_Disponibili":23,"lat":40.834,"lon":14.119,"date_only":"2025-10-12T00:00:00.000"},{"station":"IT2272A","station_name":"Pozzuoli Zona Villa Avellino","pollutant":"O3","date":"2025-10-12T00:00:00.000","value":36.5691666667,"Ore_Disponibili":24,"lat":40.834,"lon":14.119,"date_only":"2025-10-12T00:00:00.000"},{"station":"IT2272A","station_name":"Pozzuoli Zona Villa Avellino","pollutant":"PM10","date":"2025-10-12T00:00:00.000","value":10.6308333333,"Ore_Disponibili":24,"lat":40.834,"lon":14.119,"date_only":"2025-10-12T00:00:00.000"},{"station":"IT2272A","station_name":"Pozzuoli Zona Villa Avellino","pollutant":"PM2,5","date":"2025-10-12T00:00:00.000","value":6.0766666667,"Ore_Disponibili":24,"lat":40.834,"lon":14.119,"date_only":"2025-10-12T00:00:00.000"},{"station":"IT2273A","station_name":"Polla Area Tritovagliatore","pollutant":"NO2","date":"2025-10-12T00:00:00.000","value":15.747826087,"Ore_Disponibili":23,"lat":40.412,"lon":15.341,"date_only":"2025-10-12T00:00:00.000"},{"station":"IT2273A","station_name":"Polla Area Tritovagliatore","pollutant":"PM10","date":"2025-10-12T00:00:00.000","value":5.9845833333,"Ore_Disponibili":24,"lat":40.412,"lon":15.341,"date_only":"2025-10-12T00:00:00.000"},{"station":"IT2273A","station_name":"Polla Area Tritovagliatore","pollutant":"PM2,5","date":"2025-10-12T00:00:00.000","value":4.0720833333,"Ore_Disponibili":24,"lat":40.412,"lon":15.341,"date_only":"2025-10-12T00:00:00.000"},{"station":"IT2276A","station_name":"Ariano Irpino Stadio","pollutant":"NO2","date":"2025-10-12T00:00:00.000","value":2.9252173913,"Ore_Disponibili":23,"lat":41.1555975,"lon":15.0967062,"date_only":"2025-10-12T00:00:00.000"},{"station":"IT2276A","station_name":"Ariano Irpino Stadio","pollutant":"O3","date":"2025-10-12T00:00:00.000","value":82.3339130435,"Ore_Disponibili":23,"lat":41.1555975,"lon":15.0967062,"date_only":"2025-10-12T00:00:00.000"},{"station":"IT2277A","station_name":"Napoli Parco Virgiliano","pollutant":"NO2","date":"2025-10-12T00:00:00.000","value":10.7822727273,"Ore_Disponibili":22,"lat":40.7984999,"lon":14.1790765,"date_only":"2025-10-12T00:00:00.000"},{"station":"IT2277A","station_name":"Napoli Parco Virgiliano","pollutant":"O3","date":"2025-10-12T00:00:00.000","value":78.2616666667,"Ore_Disponibili":24,"lat":40.7984999,"lon":14.1790765,"date_only":"2025-10-12T00:00:00.000"},{"station":"IT2277A","station_name":"Napoli Parco Virgiliano","pollutant":"PM10","date":"2025-10-12T00:00:00.000","value":7.1,"Ore_Disponibili":24,"lat":40.7984999,"lon":14.1790765,"date_only":"2025-10-12T00:00:00.000"},{"station":"IT2277A","station_name":"Napoli Parco Virgiliano","pollutant":"PM2,5","date":"2025-10-12T00:00:00.000","value":5.1,"Ore_Disponibili":24,"lat":40.7984999,"lon":14.1790765,"date_only":"2025-10-12T00:00:00.000"},{"station":"IT2283A","station_name":"Ottati Alburni","pollutant":"NO2","date":"2025-10-12T00:00:00.000","value":1.9265217391,"Ore_Disponibili":23,"lat":40.306,"lon":15.277,"date_only":"2025-10-12T00:00:00.000"},{"station":"IT2283A","station_name":"Ottati Alburni","pollutant":"O3","date":"2025-10-12T00:00:00.000","value":69.6069565217,"Ore_Disponibili":23,"lat":40.306,"lon":15.277,"date_only":"2025-10-12T00:00:00.000"},{"station":"IT2283A","station_name":"Ottati Alburni","pollutant":"PM10","date":"2025-10-12T00:00:00.000","value":3.4,"Ore_Disponibili":24,"lat":40.306,"lon":15.277,"date_only":"2025-10-12T00:00:00.000"},{"station":"IT2283A","station_name":"Ottati Alburni","pollutant":"PM2,5","date":"2025-10-12T00:00:00.000","value":0.0,"Ore_Disponibili":24,"lat":40.306,"lon":15.277,"date_only":"2025-10-12T00:00:00.000"},{"station":"LM01","station_name":"Laboratorio Mobile LM01","pollutant":"NO2","date":"2025-10-12T00:00:00.000","value":50.479,"Ore_Disponibili":20,"lat":40.916943,"lon":14.780833,"date_only":"2025-10-12T00:00:00.000"},{"station":"LM01","station_name":"Laboratorio Mobile LM01","pollutant":"O3","date":"2025-10-12T00:00:00.000","value":51.4472727273,"Ore_Disponibili":22,"lat":40.916943,"lon":14.780833,"date_only":"2025-10-12T00:00:00.000"},{"station":"LM01","station_name":"Laboratorio Mobile LM01","pollutant":"PM10","date":"2025-10-12T00:00:00.000","value":16.2333333333,"Ore_Disponibili":24,"lat":40.916943,"lon":14.780833,"date_only":"2025-10-12T00:00:00.000"},{"station":"LM01","station_name":"Laboratorio Mobile LM01","pollutant":"PM2,5","date":"2025-10-12T00:00:00.000","value":11.6166666667,"Ore_Disponibili":24,"lat":40.916943,"lon":14.780833,"date_only":"2025-10-12T00:00:00.000"},{"station":"LM03","station_name":"Laboratorio Mobile LM03","pollutant":"NO2","date":"2025-10-12T00:00:00.000","value":10.1434782609,"Ore_Disponibili":23,"lat":40.805622,"lon":14.173979,"date_only":"2025-10-12T00:00:00.000"},{"station":"LM03","station_name":"Laboratorio Mobile LM03","pollutant":"O3","date":"2025-10-12T00:00:00.000","value":64.2504347826,"Ore_Disponibili":23,"lat":40.805622,"lon":14.173979,"date_only":"2025-10-12T00:00:00.000"},{"station":"LM03","station_name":"Laboratorio Mobile LM03","pollutant":"PM10","date":"2025-10-12T00:00:00.000","value":9.9304166667,"Ore_Disponibili":24,"lat":40.805622,"lon":14.173979,"date_only":"2025-10-12T00:00:00.000"},{"station":"LM03","station_name":"Laboratorio Mobile LM03","pollutant":"PM2,5","date":"2025-10-12T00:00:00.000","value":5.6675,"Ore_Disponibili":24,"lat":40.805622,"lon":14.173979,"date_only":"2025-10-12T00:00:00.000"},{"station":"MMA61","station_name":"Laboratorio Mobile MMA","pollutant":"NO2","date":"2025-10-12T00:00:00.000","value":35.887826087,"Ore_Disponibili":23,"lat":null,"lon":null,"date_only":"2025-10-12T00:00:00.000"},{"station":"MMA61","station_name":"Laboratorio Mobile MMA","pollutant":"O3","date":"2025-10-12T00:00:00.000","value":46.26,"Ore_Disponibili":23,"lat":null,"lon":null,"date_only":"2025-10-12T00:00:00.000"},{"station":"MMA61","station_name":"Laboratorio Mobile MMA","pollutant":"PM10","date":"2025-10-12T00:00:00.000","value":12.96125,"Ore_Disponibili":24,"lat":null,"lon":null,"date_only":"2025-10-12T00:00:00.000"},{"station":"MMA61","station_name":"Laboratorio Mobile MMA","pollutant":"PM2,5","date":"2025-10-12T00:00:00.000","value":8.5429166667,"Ore_Disponibili":24,"lat":null,"lon":null,"date_only":"2025-10-12T00:00:00.000"},{"station":"MMB62","station_name":"Laboratorio Mobile MMB","pollutant":"NO2","date":"2025-10-12T00:00:00.000","value":33.1869565217,"Ore_Disponibili":23,"lat":40.805622,"lon":14.173979,"date_only":"2025-10-12T00:00:00.000"},{"station":"MMB62","station_name":"Laboratorio Mobile MMB","pollutant":"O3","date":"2025-10-12T00:00:00.000","value":40.012173913,"Ore_Disponibili":23,"lat":40.805622,"lon":14.173979,"date_only":"2025-10-12T00:00:00.000"},{"station":"MMB62","station_name":"Laboratorio Mobile MMB","pollutant":"PM10","date":"2025-10-12T00:00:00.000","value":16.67875,"Ore_Disponibili":24,"lat":40.805622,"lon":14.173979,"date_only":"2025-10-12T00:00:00.000"},{"station":"MMB62","station_name":"Laboratorio Mobile MMB","pollutant":"PM2,5","date":"2025-10-12T00:00:00.000","value":10.8045833333,"Ore_Disponibili":24,"lat":40.805622,"lon":14.173979,"date_only":"2025-10-12T00:00:00.000"},{"station":"STIR01","station_name":"Pianodardine STIR","pollutant":"NO2","date":"2025-10-12T00:00:00.000","value":14.257826087,"Ore_Disponibili":23,"lat":40.9436148,"lon":14.8298173,"date_only":"2025-10-12T00:00:00.000"},{"station":"STIR01","station_name":"Pianodardine STIR","pollutant":"O3","date":"2025-10-12T00:00:00.000","value":36.04,"Ore_Disponibili":23,"lat":40.9436148,"lon":14.8298173,"date_only":"2025-10-12T00:00:00.000"},{"station":"STIR01","station_name":"Pianodardine STIR","pollutant":"PM10","date":"2025-10-12T00:00:00.000","value":15.0,"Ore_Disponibili":24,"lat":40.9436148,"lon":14.8298173,"date_only":"2025-10-12T00:00:00.000"},{"station":"STIR01","station_name":"Pianodardine STIR","pollutant":"PM2,5","date":"2025-10-12T00:00:00.000","value":7.3,"Ore_Disponibili":24,"lat":40.9436148,"lon":14.8298173,"date_only":"2025-10-12T00:00:00.000"},{"station":"STIR03","station_name":"Casalduni STIR","pollutant":"O3","date":"2025-10-12T00:00:00.000","value":63.4113043478,"Ore_Disponibili":23,"lat":41.2595,"lon":14.6949,"date_only":"2025-10-12T00:00:00.000"},{"station":"STIR05","station_name":"Caivano STIR","pollutant":"NO2","date":"2025-10-12T00:00:00.000","value":17.5517391304,"Ore_Disponibili":23,"lat":40.9965849,"lon":14.2944939,"date_only":"2025-10-12T00:00:00.000"},{"station":"STIR05","station_name":"Caivano STIR","pollutant":"O3","date":"2025-10-12T00:00:00.000","value":62.432173913,"Ore_Disponibili":23,"lat":40.9965849,"lon":14.2944939,"date_only":"2025-10-12T00:00:00.000"},{"station":"STIR05","station_name":"Caivano STIR","pollutant":"PM10","date":"2025-10-12T00:00:00.000","value":10.8,"Ore_Disponibili":24,"lat":40.9965849,"lon":14.2944939,"date_only":"2025-10-12T00:00:00.000"},{"station":"STIR05","station_name":"Caivano STIR","pollutant":"PM2,5","date":"2025-10-12T00:00:00.000","value":5.4,"Ore_Disponibili":24,"lat":40.9965849,"lon":14.2944939,"date_only":"2025-10-12T00:00:00.000"},{"station":"STIR07","station_name":"Battipaglia STIR","pollutant":"NO2","date":"2025-10-12T00:00:00.000","value":8.7586956522,"Ore_Disponibili":23,"lat":40.6167,"lon":14.9833,"date_only":"2025-10-12T00:00:00.000"},{"station":"STIR07","station_name":"Battipaglia STIR","pollutant":"PM10","date":"2025-10-12T00:00:00.000","value":8.7,"Ore_Disponibili":24,"lat":40.6167,"lon":14.9833,"date_only":"2025-10-12T00:00:00.000"},{"station":"STIR07","station_name":"Battipaglia STIR","pollutant":"PM2,5","date":"2025-10-12T00:00:00.000","value":5.7,"Ore_Disponibili":24,"lat":40.6167,"lon":14.9833,"date_only":"2025-10-12T00:00:00.000"},{"station":"STIR10","station_name":"Tufino STIR","pollutant":"O3","date":"2025-10-12T00:00:00.000","value":52.7243478261,"Ore_Disponibili":23,"lat":40.944411,"lon":14.5808578,"date_only":"2025-10-12T00:00:00.000"},{"station":"STIR10","station_name":"Tufino STIR","pollutant":"PM10","date":"2025-10-12T00:00:00.000","value":33.9,"Ore_Disponibili":24,"lat":40.944411,"lon":14.5808578,"date_only":"2025-10-12T00:00:00.000"},{"station":"STIR10","station_name":"Tufino STIR","pollutant":"PM2,5","date":"2025-10-12T00:00:00.000","value":8.7,"Ore_Disponibili":24,"lat":40.944411,"lon":14.5808578,"date_only":"2025-10-12T00:00:00.000"},{"station":"STIR23","station_name":"Giugliano STIR","pollutant":"NO2","date":"2025-10-12T00:00:00.000","value":16.9172727273,"Ore_Disponibili":11,"lat":40.9385072,"lon":14.1080969,"date_only":"2025-10-12T00:00:00.000"},{"station":"STIR23","station_name":"Giugliano STIR","pollutant":"O3","date":"2025-10-12T00:00:00.000","value":63.0530434783,"Ore_Disponibili":23,"lat":40.9385072,"lon":14.1080969,"date_only":"2025-10-12T00:00:00.000"},{"station":"STIR23","station_name":"Giugliano STIR","pollutant":"PM10","date":"2025-10-12T00:00:00.000","value":13.9,"Ore_Disponibili":24,"lat":40.9385072,"lon":14.1080969,"date_only":"2025-10-12T00:00:00.000"},{"station":"STIR23","station_name":"Giugliano STIR","pollutant":"PM2,5","date":"2025-10-12T00:00:00.000","value":8.7,"Ore_Disponibili":24,"lat":40.9385072,"lon":14.1080969,"date_only":"2025-10-12T00:00:00.000"},{"station":"STIR30","station_name":"Discarica Maruzzella","pollutant":"PM10","date":"2025-10-12T00:00:00.000","value":15.0,"Ore_Disponibili":24,"lat":41.05389,"lon":14.23389,"date_only":"2025-10-12T00:00:00.000"},{"station":"STIR30","station_name":"Discarica Maruzzella","pollutant":"PM2,5","date":"2025-10-12T00:00:00.000","value":5.1,"Ore_Disponibili":24,"lat":41.05389,"lon":14.23389,"date_only":"2025-10-12T00:00:00.000"},{"station":"STIR38","station_name":"Acerra Scuola Capasso","pollutant":"O3","date":"2025-10-12T00:00:00.000","value":52.0356521739,"Ore_Disponibili":23,"lat":40.9071,"lon":14.3429,"date_only":"2025-10-12T00:00:00.000"},{"station":"STIR38","station_name":"Acerra Scuola Capasso","pollutant":"PM10","date":"2025-10-12T00:00:00.000","value":9.6,"Ore_Disponibili":24,"lat":40.9071,"lon":14.3429,"date_only":"2025-10-12T00:00:00.000"},{"station":"STIR38","station_name":"Acerra Scuola Capasso","pollutant":"PM2,5","date":"2025-10-12T00:00:00.000","value":7.3,"Ore_Disponibili":24,"lat":40.9071,"lon":14.3429,"date_only":"2025-10-12T00:00:00.000"}]