[{"station":"IT0898A","station_name":"NA06 MUSEO NAZIONALE","pollutant":"NO2","date":"2025-02-21T00:00:00.000","value":57.4869565217,"Ore_Disponibili":23,"lat":40.8536064,"lon":14.25115,"date_only":"2025-02-21T00:00:00.000"},{"station":"IT0898A","station_name":"NA06 MUSEO NAZIONALE","pollutant":"PM10","date":"2025-02-21T00:00:00.000","value":30.7583333333,"Ore_Disponibili":24,"lat":40.8536064,"lon":14.25115,"date_only":"2025-02-21T00:00:00.000"},{"station":"IT0898A","station_name":"NA06 MUSEO NAZIONALE","pollutant":"PM2,5","date":"2025-02-21T00:00:00.000","value":20.8541666667,"Ore_Disponibili":24,"lat":40.8536064,"lon":14.25115,"date_only":"2025-02-21T00:00:00.000"},{"station":"IT0934A","station_name":"BN32 Via Mustilli","pollutant":"NO2","date":"2025-02-21T00:00:00.000","value":26.9260869565,"Ore_Disponibili":23,"lat":41.7572524,"lon":12.3201661,"date_only":"2025-02-21T00:00:00.000"},{"station":"IT0934A","station_name":"BN32 Via Mustilli","pollutant":"PM10","date":"2025-02-21T00:00:00.000","value":33.8666666667,"Ore_Disponibili":24,"lat":41.7572524,"lon":12.3201661,"date_only":"2025-02-21T00:00:00.000"},{"station":"IT0934A","station_name":"BN32 Via Mustilli","pollutant":"PM2,5","date":"2025-02-21T00:00:00.000","value":23.5333333333,"Ore_Disponibili":24,"lat":41.7572524,"lon":12.3201661,"date_only":"2025-02-21T00:00:00.000"},{"station":"IT0936A","station_name":"AV41 SCUOLA V CIRCOLO","pollutant":"NO2","date":"2025-02-21T00:00:00.000","value":26.1086956522,"Ore_Disponibili":23,"lat":43.8951992,"lon":11.3222381,"date_only":"2025-02-21T00:00:00.000"},{"station":"IT0936A","station_name":"AV41 SCUOLA V CIRCOLO","pollutant":"O3","date":"2025-02-21T00:00:00.000","value":50.8913043478,"Ore_Disponibili":23,"lat":43.8951992,"lon":11.3222381,"date_only":"2025-02-21T00:00:00.000"},{"station":"IT0936A","station_name":"AV41 SCUOLA V CIRCOLO","pollutant":"PM10","date":"2025-02-21T00:00:00.000","value":21.8333333333,"Ore_Disponibili":24,"lat":43.8951992,"lon":11.3222381,"date_only":"2025-02-21T00:00:00.000"},{"station":"IT0936A","station_name":"AV41 SCUOLA V CIRCOLO","pollutant":"PM2,5","date":"2025-02-21T00:00:00.000","value":18.7166666667,"Ore_Disponibili":24,"lat":43.8951992,"lon":11.3222381,"date_only":"2025-02-21T00:00:00.000"},{"station":"IT1041A","station_name":"SA23 SCUOLA OSVALDO CONTI","pollutant":"NO2","date":"2025-02-21T00:00:00.000","value":31.2,"Ore_Disponibili":23,"lat":41.058,"lon":14.808,"date_only":"2025-02-21T00:00:00.000"},{"station":"IT1041A","station_name":"SA23 SCUOLA OSVALDO CONTI","pollutant":"O3","date":"2025-02-21T00:00:00.000","value":47.3913043478,"Ore_Disponibili":23,"lat":41.058,"lon":14.808,"date_only":"2025-02-21T00:00:00.000"},{"station":"IT1041A","station_name":"SA23 SCUOLA OSVALDO CONTI","pollutant":"PM2,5","date":"2025-02-21T00:00:00.000","value":8.3,"Ore_Disponibili":24,"lat":41.058,"lon":14.808,"date_only":"2025-02-21T00:00:00.000"},{"station":"IT1486A","station_name":"CE51 ISTITUTO MANZONI","pollutant":"NO2","date":"2025-02-21T00:00:00.000","value":20.4913043478,"Ore_Disponibili":23,"lat":41.0818,"lon":14.3349,"date_only":"2025-02-21T00:00:00.000"},{"station":"IT1486A","station_name":"CE51 ISTITUTO MANZONI","pollutant":"O3","date":"2025-02-21T00:00:00.000","value":59.8590909091,"Ore_Disponibili":22,"lat":41.0818,"lon":14.3349,"date_only":"2025-02-21T00:00:00.000"},{"station":"IT1486A","station_name":"CE51 ISTITUTO MANZONI","pollutant":"PM10","date":"2025-02-21T00:00:00.000","value":18.5833333333,"Ore_Disponibili":24,"lat":41.0818,"lon":14.3349,"date_only":"2025-02-21T00:00:00.000"},{"station":"IT1486A","station_name":"CE51 ISTITUTO MANZONI","pollutant":"PM2,5","date":"2025-02-21T00:00:00.000","value":13.5791666667,"Ore_Disponibili":24,"lat":41.0818,"lon":14.3349,"date_only":"2025-02-21T00:00:00.000"},{"station":"IT1487A","station_name":"CE52 SCUOLA DE AMICIS","pollutant":"NO2","date":"2025-02-21T00:00:00.000","value":31.2652173913,"Ore_Disponibili":23,"lat":45.4166851,"lon":11.8748262,"date_only":"2025-02-21T00:00:00.000"},{"station":"IT1487A","station_name":"CE52 SCUOLA DE AMICIS","pollutant":"PM10","date":"2025-02-21T00:00:00.000","value":24.8,"Ore_Disponibili":24,"lat":45.4166851,"lon":11.8748262,"date_only":"2025-02-21T00:00:00.000"},{"station":"IT1487A","station_name":"CE52 SCUOLA DE AMICIS","pollutant":"PM2,5","date":"2025-02-21T00:00:00.000","value":11.6,"Ore_Disponibili":24,"lat":45.4166851,"lon":11.8748262,"date_only":"2025-02-21T00:00:00.000"},{"station":"IT1488A","station_name":"CE54 SCUOLA SETTEMBRINI","pollutant":"NO2","date":"2025-02-21T00:00:00.000","value":22.6956521739,"Ore_Disponibili":23,"lat":40.7402509,"lon":14.6724943,"date_only":"2025-02-21T00:00:00.000"},{"station":"IT1488A","station_name":"CE54 SCUOLA SETTEMBRINI","pollutant":"O3","date":"2025-02-21T00:00:00.000","value":47.2565217391,"Ore_Disponibili":23,"lat":40.7402509,"lon":14.6724943,"date_only":"2025-02-21T00:00:00.000"},{"station":"IT1488A","station_name":"CE54 SCUOLA SETTEMBRINI","pollutant":"PM10","date":"2025-02-21T00:00:00.000","value":26.3041666667,"Ore_Disponibili":24,"lat":40.7402509,"lon":14.6724943,"date_only":"2025-02-21T00:00:00.000"},{"station":"IT1488A","station_name":"CE54 SCUOLA SETTEMBRINI","pollutant":"PM2,5","date":"2025-02-21T00:00:00.000","value":17.8541666667,"Ore_Disponibili":24,"lat":40.7402509,"lon":14.6724943,"date_only":"2025-02-21T00:00:00.000"},{"station":"IT1491A","station_name":"NA07 ENTE FERROVIE","pollutant":"NO2","date":"2025-02-21T00:00:00.000","value":51.4055555556,"Ore_Disponibili":18,"lat":45.6541955,"lon":13.7741392,"date_only":"2025-02-21T00:00:00.000"},{"station":"IT1491A","station_name":"NA07 ENTE FERROVIE","pollutant":"PM10","date":"2025-02-21T00:00:00.000","value":32.3666666667,"Ore_Disponibili":24,"lat":45.6541955,"lon":13.7741392,"date_only":"2025-02-21T00:00:00.000"},{"station":"IT1491A","station_name":"NA07 ENTE FERROVIE","pollutant":"PM2,5","date":"2025-02-21T00:00:00.000","value":20.4916666667,"Ore_Disponibili":24,"lat":45.6541955,"lon":13.7741392,"date_only":"2025-02-21T00:00:00.000"},{"station":"IT1493A","station_name":"NA09 I.T.I.S. ARGINE","pollutant":"NO2","date":"2025-02-21T00:00:00.000","value":46.5304347826,"Ore_Disponibili":23,"lat":44.7377462,"lon":11.6477031,"date_only":"2025-02-21T00:00:00.000"},{"station":"IT1493A","station_name":"NA09 I.T.I.S. ARGINE","pollutant":"PM10","date":"2025-02-21T00:00:00.000","value":41.3708333333,"Ore_Disponibili":24,"lat":44.7377462,"lon":11.6477031,"date_only":"2025-02-21T00:00:00.000"},{"station":"IT1493A","station_name":"NA09 I.T.I.S. ARGINE","pollutant":"PM2,5","date":"2025-02-21T00:00:00.000","value":29.8625,"Ore_Disponibili":24,"lat":44.7377462,"lon":11.6477031,"date_only":"2025-02-21T00:00:00.000"},{"station":"IT1495A","station_name":"NA08 OSPEDALE NUOVO PELLEGRINI","pollutant":"NO2","date":"2025-02-21T00:00:00.000","value":50.3043478261,"Ore_Disponibili":23,"lat":40.8535,"lon":14.235,"date_only":"2025-02-21T00:00:00.000"},{"station":"IT1495A","station_name":"NA08 OSPEDALE NUOVO PELLEGRINI","pollutant":"PM10","date":"2025-02-21T00:00:00.000","value":58.0,"Ore_Disponibili":24,"lat":40.8535,"lon":14.235,"date_only":"2025-02-21T00:00:00.000"},{"station":"IT1496A","station_name":"NA02 OSPEDALE SANTOBONO","pollutant":"NO2","date":"2025-02-21T00:00:00.000","value":45.6043478261,"Ore_Disponibili":23,"lat":40.8615516,"lon":14.2278503,"date_only":"2025-02-21T00:00:00.000"},{"station":"IT1496A","station_name":"NA02 OSPEDALE SANTOBONO","pollutant":"PM10","date":"2025-02-21T00:00:00.000","value":23.7958333333,"Ore_Disponibili":24,"lat":40.8615516,"lon":14.2278503,"date_only":"2025-02-21T00:00:00.000"},{"station":"IT1496A","station_name":"NA02 OSPEDALE SANTOBONO","pollutant":"PM2,5","date":"2025-02-21T00:00:00.000","value":13.8958333333,"Ore_Disponibili":24,"lat":40.8615516,"lon":14.2278503,"date_only":"2025-02-21T00:00:00.000"},{"station":"IT1497A","station_name":"NA01 OSSERVATORIO ASTRONOMICO","pollutant":"NO2","date":"2025-02-21T00:00:00.000","value":33.6333333333,"Ore_Disponibili":24,"lat":46.0863714,"lon":13.3165669,"date_only":"2025-02-21T00:00:00.000"},{"station":"IT1497A","station_name":"NA01 OSSERVATORIO ASTRONOMICO","pollutant":"O3","date":"2025-02-21T00:00:00.000","value":57.047826087,"Ore_Disponibili":23,"lat":46.0863714,"lon":13.3165669,"date_only":"2025-02-21T00:00:00.000"},{"station":"IT1497A","station_name":"NA01 OSSERVATORIO ASTRONOMICO","pollutant":"PM10","date":"2025-02-21T00:00:00.000","value":20.7708333333,"Ore_Disponibili":24,"lat":46.0863714,"lon":13.3165669,"date_only":"2025-02-21T00:00:00.000"},{"station":"IT1497A","station_name":"NA01 OSSERVATORIO ASTRONOMICO","pollutant":"PM2,5","date":"2025-02-21T00:00:00.000","value":14.0125,"Ore_Disponibili":24,"lat":46.0863714,"lon":13.3165669,"date_only":"2025-02-21T00:00:00.000"},{"station":"IT1504A","station_name":"SA22 Ospedale via Vernieri","pollutant":"NO2","date":"2025-02-21T00:00:00.000","value":35.0260869565,"Ore_Disponibili":23,"lat":40.682,"lon":14.766,"date_only":"2025-02-21T00:00:00.000"},{"station":"IT1504A","station_name":"SA22 Ospedale via Vernieri","pollutant":"PM10","date":"2025-02-21T00:00:00.000","value":27.9,"Ore_Disponibili":24,"lat":40.682,"lon":14.766,"date_only":"2025-02-21T00:00:00.000"},{"station":"IT1504A","station_name":"SA22 Ospedale via Vernieri","pollutant":"PM2,5","date":"2025-02-21T00:00:00.000","value":18.0708333333,"Ore_Disponibili":24,"lat":40.682,"lon":14.766,"date_only":"2025-02-21T00:00:00.000"},{"station":"IT2210A","station_name":"SOLOFRA ZONA INDUSTRIALE","pollutant":"NO2","date":"2025-02-21T00:00:00.000","value":9.8086956522,"Ore_Disponibili":23,"lat":41.058,"lon":14.808,"date_only":"2025-02-21T00:00:00.000"},{"station":"IT2210A","station_name":"SOLOFRA ZONA INDUSTRIALE","pollutant":"PM10","date":"2025-02-21T00:00:00.000","value":19.0375,"Ore_Disponibili":24,"lat":41.058,"lon":14.808,"date_only":"2025-02-21T00:00:00.000"},{"station":"IT2210A","station_name":"SOLOFRA ZONA INDUSTRIALE","pollutant":"PM2,5","date":"2025-02-21T00:00:00.000","value":15.9125,"Ore_Disponibili":24,"lat":41.058,"lon":14.808,"date_only":"2025-02-21T00:00:00.000"},{"station":"IT2211A","station_name":"ACERRA ZONA INDUSTRIALE","pollutant":"NO2","date":"2025-02-21T00:00:00.000","value":43.5217391304,"Ore_Disponibili":23,"lat":40.9847962,"lon":14.3679606,"date_only":"2025-02-21T00:00:00.000"},{"station":"IT2211A","station_name":"ACERRA ZONA INDUSTRIALE","pollutant":"PM10","date":"2025-02-21T00:00:00.000","value":53.9,"Ore_Disponibili":24,"lat":40.9847962,"lon":14.3679606,"date_only":"2025-02-21T00:00:00.000"},{"station":"IT2211A","station_name":"ACERRA ZONA INDUSTRIALE","pollutant":"PM2,5","date":"2025-02-21T00:00:00.000","value":25.4,"Ore_Disponibili":24,"lat":40.9847962,"lon":14.3679606,"date_only":"2025-02-21T00:00:00.000"},{"station":"IT2212A","station_name":"San Vitaliano Scuola Elementare Marconi","pollutant":"NO2","date":"2025-02-21T00:00:00.000","value":85.9043478261,"Ore_Disponibili":23,"lat":40.896,"lon":14.46,"date_only":"2025-02-21T00:00:00.000"},{"station":"IT2212A","station_name":"San Vitaliano Scuola Elementare Marconi","pollutant":"O3","date":"2025-02-21T00:00:00.000","value":38.4347826087,"Ore_Disponibili":23,"lat":40.896,"lon":14.46,"date_only":"2025-02-21T00:00:00.000"},{"station":"IT2212A","station_name":"San Vitaliano Scuola Elementare Marconi","pollutant":"PM10","date":"2025-02-21T00:00:00.000","value":51.9,"Ore_Disponibili":24,"lat":40.896,"lon":14.46,"date_only":"2025-02-21T00:00:00.000"},{"station":"IT2212A","station_name":"San Vitaliano Scuola Elementare Marconi","pollutant":"PM2,5","date":"2025-02-21T00:00:00.000","value":42.6583333333,"Ore_Disponibili":24,"lat":40.896,"lon":14.46,"date_only":"2025-02-21T00:00:00.000"},{"station":"IT2213A","station_name":"CAVA DEI TIRRENI - STADIO","pollutant":"NO2","date":"2025-02-21T00:00:00.000","value":26.5347826087,"Ore_Disponibili":23,"lat":44.4937761,"lon":11.3101851,"date_only":"2025-02-21T00:00:00.000"},{"station":"IT2213A","station_name":"CAVA DEI TIRRENI - STADIO","pollutant":"O3","date":"2025-02-21T00:00:00.000","value":59.3565217391,"Ore_Disponibili":23,"lat":44.4937761,"lon":11.3101851,"date_only":"2025-02-21T00:00:00.000"},{"station":"IT2213A","station_name":"CAVA DEI TIRRENI - STADIO","pollutant":"PM10","date":"2025-02-21T00:00:00.000","value":35.6208333333,"Ore_Disponibili":24,"lat":44.4937761,"lon":11.3101851,"date_only":"2025-02-21T00:00:00.000"},{"station":"IT2213A","station_name":"CAVA DEI TIRRENI - STADIO","pollutant":"PM2,5","date":"2025-02-21T00:00:00.000","value":30.7375,"Ore_Disponibili":24,"lat":44.4937761,"lon":11.3101851,"date_only":"2025-02-21T00:00:00.000"},{"station":"IT2214A","station_name":"Nocera Inferiore scuola Solimene","pollutant":"NO2","date":"2025-02-21T00:00:00.000","value":29.6347826087,"Ore_Disponibili":23,"lat":40.7445,"lon":14.734,"date_only":"2025-02-21T00:00:00.000"},{"station":"IT2214A","station_name":"Nocera Inferiore scuola Solimene","pollutant":"PM10","date":"2025-02-21T00:00:00.000","value":24.65,"Ore_Disponibili":24,"lat":40.7445,"lon":14.734,"date_only":"2025-02-21T00:00:00.000"},{"station":"IT2214A","station_name":"Nocera Inferiore scuola Solimene","pollutant":"PM2,5","date":"2025-02-21T00:00:00.000","value":19.875,"Ore_Disponibili":24,"lat":40.7445,"lon":14.734,"date_only":"2025-02-21T00:00:00.000"},{"station":"IT2215A","station_name":"BENEVENTO ZONA INDUSTRIALE","pollutant":"NO2","date":"2025-02-21T00:00:00.000","value":10.1125,"Ore_Disponibili":24,"lat":41.2293368,"lon":14.4782074,"date_only":"2025-02-21T00:00:00.000"},{"station":"IT2215A","station_name":"BENEVENTO ZONA INDUSTRIALE","pollutant":"O3","date":"2025-02-21T00:00:00.000","value":13.3384615385,"Ore_Disponibili":13,"lat":41.2293368,"lon":14.4782074,"date_only":"2025-02-21T00:00:00.000"},{"station":"IT2215A","station_name":"BENEVENTO ZONA INDUSTRIALE","pollutant":"PM10","date":"2025-02-21T00:00:00.000","value":17.3041666667,"Ore_Disponibili":24,"lat":41.2293368,"lon":14.4782074,"date_only":"2025-02-21T00:00:00.000"},{"station":"IT2215A","station_name":"BENEVENTO ZONA INDUSTRIALE","pollutant":"PM2,5","date":"2025-02-21T00:00:00.000","value":11.9708333333,"Ore_Disponibili":24,"lat":41.2293368,"lon":14.4782074,"date_only":"2025-02-21T00:00:00.000"},{"station":"IT2216A","station_name":"Casoria Scuola Palizzi (CAM)","pollutant":"NO2","date":"2025-02-21T00:00:00.000","value":41.915,"Ore_Disponibili":20,"lat":40.904,"lon":14.289,"date_only":"2025-02-21T00:00:00.000"},{"station":"IT2216A","station_name":"Casoria Scuola Palizzi (CAM)","pollutant":"O3","date":"2025-02-21T00:00:00.000","value":41.0318181818,"Ore_Disponibili":22,"lat":40.904,"lon":14.289,"date_only":"2025-02-21T00:00:00.000"},{"station":"IT2216A","station_name":"Casoria Scuola Palizzi (CAM)","pollutant":"PM10","date":"2025-02-21T00:00:00.000","value":36.9416666667,"Ore_Disponibili":24,"lat":40.904,"lon":14.289,"date_only":"2025-02-21T00:00:00.000"},{"station":"IT2216A","station_name":"Casoria Scuola Palizzi (CAM)","pollutant":"PM2,5","date":"2025-02-21T00:00:00.000","value":28.1375,"Ore_Disponibili":24,"lat":40.904,"lon":14.289,"date_only":"2025-02-21T00:00:00.000"},{"station":"IT2217A","station_name":"Torre Annunziata Scuola Media Pascoli","pollutant":"NO2","date":"2025-02-21T00:00:00.000","value":26.5565217391,"Ore_Disponibili":23,"lat":40.831,"lon":14.426,"date_only":"2025-02-21T00:00:00.000"},{"station":"IT2217A","station_name":"Torre Annunziata Scuola Media Pascoli","pollutant":"O3","date":"2025-02-21T00:00:00.000","value":64.3434782609,"Ore_Disponibili":23,"lat":40.831,"lon":14.426,"date_only":"2025-02-21T00:00:00.000"},{"station":"IT2218A","station_name":"San Felice a Cancello Complesso scolastico","pollutant":"NO2","date":"2025-02-21T00:00:00.000","value":17.6958333333,"Ore_Disponibili":24,"lat":41.015,"lon":14.287,"date_only":"2025-02-21T00:00:00.000"},{"station":"IT2218A","station_name":"San Felice a Cancello Complesso scolastico","pollutant":"O3","date":"2025-02-21T00:00:00.000","value":53.7956521739,"Ore_Disponibili":23,"lat":41.015,"lon":14.287,"date_only":"2025-02-21T00:00:00.000"},{"station":"IT2218A","station_name":"San Felice a Cancello Complesso scolastico","pollutant":"PM10","date":"2025-02-21T00:00:00.000","value":24.0583333333,"Ore_Disponibili":24,"lat":41.015,"lon":14.287,"date_only":"2025-02-21T00:00:00.000"},{"station":"IT2218A","station_name":"San Felice a Cancello Complesso scolastico","pollutant":"PM2,5","date":"2025-02-21T00:00:00.000","value":17.6791666667,"Ore_Disponibili":24,"lat":41.015,"lon":14.287,"date_only":"2025-02-21T00:00:00.000"},{"station":"IT2219A","station_name":"Acerra scuola Caporale","pollutant":"NO2","date":"2025-02-21T00:00:00.000","value":38.6,"Ore_Disponibili":23,"lat":40.9169,"lon":14.3425,"date_only":"2025-02-21T00:00:00.000"},{"station":"IT2219A","station_name":"Acerra scuola Caporale","pollutant":"PM10","date":"2025-02-21T00:00:00.000","value":42.4666666667,"Ore_Disponibili":24,"lat":40.9169,"lon":14.3425,"date_only":"2025-02-21T00:00:00.000"},{"station":"IT2219A","station_name":"Acerra scuola Caporale","pollutant":"PM2,5","date":"2025-02-21T00:00:00.000","value":28.0458333333,"Ore_Disponibili":24,"lat":40.9169,"lon":14.3425,"date_only":"2025-02-21T00:00:00.000"},{"station":"IT2221A","station_name":"Napoli via Epomeo","pollutant":"NO2","date":"2025-02-21T00:00:00.000","value":28.6739130435,"Ore_Disponibili":23,"lat":40.7205434,"lon":13.8987737,"date_only":"2025-02-21T00:00:00.000"},{"station":"IT2221A","station_name":"Napoli via Epomeo","pollutant":"O3","date":"2025-02-21T00:00:00.000","value":21.0652173913,"Ore_Disponibili":23,"lat":40.7205434,"lon":13.8987737,"date_only":"2025-02-21T00:00:00.000"},{"station":"IT2221A","station_name":"Napoli via Epomeo","pollutant":"PM10","date":"2025-02-21T00:00:00.000","value":21.2416666667,"Ore_Disponibili":24,"lat":40.7205434,"lon":13.8987737,"date_only":"2025-02-21T00:00:00.000"},{"station":"IT2221A","station_name":"Napoli via Epomeo","pollutant":"PM2,5","date":"2025-02-21T00:00:00.000","value":12.6041666667,"Ore_Disponibili":24,"lat":40.7205434,"lon":13.8987737,"date_only":"2025-02-21T00:00:00.000"},{"station":"IT2223A","station_name":"Volla via Filichito","pollutant":"NO2","date":"2025-02-21T00:00:00.000","value":47.5416666667,"Ore_Disponibili":24,"lat":40.8824226,"lon":14.3478545,"date_only":"2025-02-21T00:00:00.000"},{"station":"IT2223A","station_name":"Volla via Filichito","pollutant":"O3","date":"2025-02-21T00:00:00.000","value":28.9818181818,"Ore_Disponibili":22,"lat":40.8824226,"lon":14.3478545,"date_only":"2025-02-21T00:00:00.000"},{"station":"IT2223A","station_name":"Volla via Filichito","pollutant":"PM10","date":"2025-02-21T00:00:00.000","value":34.5541666667,"Ore_Disponibili":24,"lat":40.8824226,"lon":14.3478545,"date_only":"2025-02-21T00:00:00.000"},{"station":"IT2223A","station_name":"Volla via Filichito","pollutant":"PM2,5","date":"2025-02-21T00:00:00.000","value":24.3708333333,"Ore_Disponibili":24,"lat":40.8824226,"lon":14.3478545,"date_only":"2025-02-21T00:00:00.000"},{"station":"IT2226A","station_name":"Pomigliano d'Arco Area ASI","pollutant":"NO2","date":"2025-02-21T00:00:00.000","value":53.8869565217,"Ore_Disponibili":23,"lat":40.9075,"lon":14.393,"date_only":"2025-02-21T00:00:00.000"},{"station":"IT2226A","station_name":"Pomigliano d'Arco Area ASI","pollutant":"PM10","date":"2025-02-21T00:00:00.000","value":29.2625,"Ore_Disponibili":24,"lat":40.9075,"lon":14.393,"date_only":"2025-02-21T00:00:00.000"},{"station":"IT2226A","station_name":"Pomigliano d'Arco Area ASI","pollutant":"PM2,5","date":"2025-02-21T00:00:00.000","value":18.6291666667,"Ore_Disponibili":24,"lat":40.9075,"lon":14.393,"date_only":"2025-02-21T00:00:00.000"},{"station":"IT2227A","station_name":"AVELLINO - SCUOLA ALIGHIERI","pollutant":"NO2","date":"2025-02-21T00:00:00.000","value":40.7833333333,"Ore_Disponibili":24,"lat":40.9190395,"lon":14.784947,"date_only":"2025-02-21T00:00:00.000"},{"station":"IT2227A","station_name":"AVELLINO - SCUOLA ALIGHIERI","pollutant":"PM10","date":"2025-02-21T00:00:00.000","value":14.3583333333,"Ore_Disponibili":24,"lat":40.9190395,"lon":14.784947,"date_only":"2025-02-21T00:00:00.000"},{"station":"IT2227A","station_name":"AVELLINO - SCUOLA ALIGHIERI","pollutant":"PM2,5","date":"2025-02-21T00:00:00.000","value":12.1041666667,"Ore_Disponibili":24,"lat":40.9190395,"lon":14.784947,"date_only":"2025-02-21T00:00:00.000"},{"station":"IT2228A","station_name":"BENEVENTO CAMPO SPORTIVO","pollutant":"NO2","date":"2025-02-21T00:00:00.000","value":17.6083333333,"Ore_Disponibili":24,"lat":41.2315276,"lon":14.5332703,"date_only":"2025-02-21T00:00:00.000"},{"station":"IT2228A","station_name":"BENEVENTO CAMPO SPORTIVO","pollutant":"O3","date":"2025-02-21T00:00:00.000","value":36.9956521739,"Ore_Disponibili":23,"lat":41.2315276,"lon":14.5332703,"date_only":"2025-02-21T00:00:00.000"},{"station":"IT2228A","station_name":"BENEVENTO CAMPO SPORTIVO","pollutant":"PM10","date":"2025-02-21T00:00:00.000","value":18.8916666667,"Ore_Disponibili":24,"lat":41.2315276,"lon":14.5332703,"date_only":"2025-02-21T00:00:00.000"},{"station":"IT2228A","station_name":"BENEVENTO CAMPO SPORTIVO","pollutant":"PM2,5","date":"2025-02-21T00:00:00.000","value":15.35,"Ore_Disponibili":24,"lat":41.2315276,"lon":14.5332703,"date_only":"2025-02-21T00:00:00.000"},{"station":"IT2268A","station_name":"BATTIPAGLIA - PARCO FIUME","pollutant":"NO2","date":"2025-02-21T00:00:00.000","value":19.647826087,"Ore_Disponibili":23,"lat":44.3859682,"lon":7.5509829,"date_only":"2025-02-21T00:00:00.000"},{"station":"IT2268A","station_name":"BATTIPAGLIA - PARCO FIUME","pollutant":"O3","date":"2025-02-21T00:00:00.000","value":60.2652173913,"Ore_Disponibili":23,"lat":44.3859682,"lon":7.5509829,"date_only":"2025-02-21T00:00:00.000"},{"station":"IT2268A","station_name":"BATTIPAGLIA - PARCO FIUME","pollutant":"PM10","date":"2025-02-21T00:00:00.000","value":17.6,"Ore_Disponibili":24,"lat":44.3859682,"lon":7.5509829,"date_only":"2025-02-21T00:00:00.000"},{"station":"IT2268A","station_name":"BATTIPAGLIA - PARCO FIUME","pollutant":"PM2,5","date":"2025-02-21T00:00:00.000","value":5.9,"Ore_Disponibili":24,"lat":44.3859682,"lon":7.5509829,"date_only":"2025-02-21T00:00:00.000"},{"station":"IT2270A","station_name":"Portici parco Reggia","pollutant":"NO2","date":"2025-02-21T00:00:00.000","value":38.0086956522,"Ore_Disponibili":23,"lat":40.813588,"lon":14.3476526,"date_only":"2025-02-21T00:00:00.000"},{"station":"IT2270A","station_name":"Portici parco Reggia","pollutant":"O3","date":"2025-02-21T00:00:00.000","value":30.3608695652,"Ore_Disponibili":23,"lat":40.813588,"lon":14.3476526,"date_only":"2025-02-21T00:00:00.000"},{"station":"IT2270A","station_name":"Portici parco Reggia","pollutant":"PM10","date":"2025-02-21T00:00:00.000","value":28.2958333333,"Ore_Disponibili":24,"lat":40.813588,"lon":14.3476526,"date_only":"2025-02-21T00:00:00.000"},{"station":"IT2270A","station_name":"Portici parco Reggia","pollutant":"PM2,5","date":"2025-02-21T00:00:00.000","value":22.4916666667,"Ore_Disponibili":24,"lat":40.813588,"lon":14.3476526,"date_only":"2025-02-21T00:00:00.000"},{"station":"IT2271A","station_name":"Aversa scuola Cirillo","pollutant":"NO2","date":"2025-02-21T00:00:00.000","value":39.152173913,"Ore_Disponibili":23,"lat":40.9758352,"lon":14.2117669,"date_only":"2025-02-21T00:00:00.000"},{"station":"IT2271A","station_name":"Aversa scuola Cirillo","pollutant":"PM10","date":"2025-02-21T00:00:00.000","value":37.0791666667,"Ore_Disponibili":24,"lat":40.9758352,"lon":14.2117669,"date_only":"2025-02-21T00:00:00.000"},{"station":"IT2271A","station_name":"Aversa scuola Cirillo","pollutant":"PM2,5","date":"2025-02-21T00:00:00.000","value":27.3541666667,"Ore_Disponibili":24,"lat":40.9758352,"lon":14.2117669,"date_only":"2025-02-21T00:00:00.000"},{"station":"IT2272A","station_name":"Pozzuoli ex Villa Avellino","pollutant":"NO2","date":"2025-02-21T00:00:00.000","value":27.5708333333,"Ore_Disponibili":24,"lat":40.834,"lon":14.119,"date_only":"2025-02-21T00:00:00.000"},{"station":"IT2272A","station_name":"Pozzuoli ex Villa Avellino","pollutant":"O3","date":"2025-02-21T00:00:00.000","value":42.5666666667,"Ore_Disponibili":24,"lat":40.834,"lon":14.119,"date_only":"2025-02-21T00:00:00.000"},{"station":"IT2272A","station_name":"Pozzuoli ex Villa Avellino","pollutant":"PM10","date":"2025-02-21T00:00:00.000","value":19.5166666667,"Ore_Disponibili":24,"lat":40.834,"lon":14.119,"date_only":"2025-02-21T00:00:00.000"},{"station":"IT2272A","station_name":"Pozzuoli ex Villa Avellino","pollutant":"PM2,5","date":"2025-02-21T00:00:00.000","value":14.7,"Ore_Disponibili":24,"lat":40.834,"lon":14.119,"date_only":"2025-02-21T00:00:00.000"},{"station":"IT2273A","station_name":"Polla Area tritovagliatore","pollutant":"NO2","date":"2025-02-21T00:00:00.000","value":30.7304347826,"Ore_Disponibili":23,"lat":40.412,"lon":15.341,"date_only":"2025-02-21T00:00:00.000"},{"station":"IT2273A","station_name":"Polla Area tritovagliatore","pollutant":"PM10","date":"2025-02-21T00:00:00.000","value":9.6458333333,"Ore_Disponibili":24,"lat":40.412,"lon":15.341,"date_only":"2025-02-21T00:00:00.000"},{"station":"IT2273A","station_name":"Polla Area tritovagliatore","pollutant":"PM2,5","date":"2025-02-21T00:00:00.000","value":6.95,"Ore_Disponibili":24,"lat":40.412,"lon":15.341,"date_only":"2025-02-21T00:00:00.000"},{"station":"IT2276A","station_name":"Ariano Irpino Villa Comunale","pollutant":"NO2","date":"2025-02-21T00:00:00.000","value":1.9416666667,"Ore_Disponibili":24,"lat":41.1549432,"lon":15.0951624,"date_only":"2025-02-21T00:00:00.000"},{"station":"IT2276A","station_name":"Ariano Irpino Villa Comunale","pollutant":"O3","date":"2025-02-21T00:00:00.000","value":90.0304347826,"Ore_Disponibili":23,"lat":41.1549432,"lon":15.0951624,"date_only":"2025-02-21T00:00:00.000"},{"station":"IT2277A","station_name":"Napoli parco Virgiliano","pollutant":"NO2","date":"2025-02-21T00:00:00.000","value":23.3782608696,"Ore_Disponibili":23,"lat":40.7984999,"lon":14.1790765,"date_only":"2025-02-21T00:00:00.000"},{"station":"IT2277A","station_name":"Napoli parco Virgiliano","pollutant":"O3","date":"2025-02-21T00:00:00.000","value":69.6125,"Ore_Disponibili":24,"lat":40.7984999,"lon":14.1790765,"date_only":"2025-02-21T00:00:00.000"},{"station":"IT2277A","station_name":"Napoli parco Virgiliano","pollutant":"PM10","date":"2025-02-21T00:00:00.000","value":19.8,"Ore_Disponibili":24,"lat":40.7984999,"lon":14.1790765,"date_only":"2025-02-21T00:00:00.000"},{"station":"IT2277A","station_name":"Napoli parco Virgiliano","pollutant":"PM2,5","date":"2025-02-21T00:00:00.000","value":9.5,"Ore_Disponibili":24,"lat":40.7984999,"lon":14.1790765,"date_only":"2025-02-21T00:00:00.000"},{"station":"IT2283A","station_name":"OTTATI - ALBURNI","pollutant":"NO2","date":"2025-02-21T00:00:00.000","value":0.2222222222,"Ore_Disponibili":9,"lat":40.560311,"lon":15.303957,"date_only":"2025-02-21T00:00:00.000"},{"station":"IT2283A","station_name":"OTTATI - ALBURNI","pollutant":"O3","date":"2025-02-21T00:00:00.000","value":79.76,"Ore_Disponibili":20,"lat":40.560311,"lon":15.303957,"date_only":"2025-02-21T00:00:00.000"},{"station":"IT2283A","station_name":"OTTATI - ALBURNI","pollutant":"PM10","date":"2025-02-21T00:00:00.000","value":23.3,"Ore_Disponibili":24,"lat":40.560311,"lon":15.303957,"date_only":"2025-02-21T00:00:00.000"},{"station":"IT2283A","station_name":"OTTATI - ALBURNI","pollutant":"PM2,5","date":"2025-02-21T00:00:00.000","value":6.5,"Ore_Disponibili":24,"lat":40.560311,"lon":15.303957,"date_only":"2025-02-21T00:00:00.000"}]