[{"station":"IT0898A","station_name":"NA06 MUSEO NAZIONALE","pollutant":"CO","date":"2025-09-10T00:00:00.000","value":0.7391304348,"Ore_Disponibili":23,"lat":40.8536064,"lon":14.25115,"date_only":"2025-09-10T00:00:00.000"},{"station":"IT0898A","station_name":"NA06 MUSEO NAZIONALE","pollutant":"NO2","date":"2025-09-10T00:00:00.000","value":35.4434782609,"Ore_Disponibili":23,"lat":40.8536064,"lon":14.25115,"date_only":"2025-09-10T00:00:00.000"},{"station":"IT0898A","station_name":"NA06 MUSEO NAZIONALE","pollutant":"PM10","date":"2025-09-10T00:00:00.000","value":38.5125,"Ore_Disponibili":24,"lat":40.8536064,"lon":14.25115,"date_only":"2025-09-10T00:00:00.000"},{"station":"IT0898A","station_name":"NA06 MUSEO NAZIONALE","pollutant":"PM2,5","date":"2025-09-10T00:00:00.000","value":17.8875,"Ore_Disponibili":24,"lat":40.8536064,"lon":14.25115,"date_only":"2025-09-10T00:00:00.000"},{"station":"IT0934A","station_name":"BN32 Via Mustilli","pollutant":"NO2","date":"2025-09-10T00:00:00.000","value":17.247826087,"Ore_Disponibili":23,"lat":41.7572524,"lon":12.3201661,"date_only":"2025-09-10T00:00:00.000"},{"station":"IT0934A","station_name":"BN32 Via Mustilli","pollutant":"PM10","date":"2025-09-10T00:00:00.000","value":25.6666666667,"Ore_Disponibili":24,"lat":41.7572524,"lon":12.3201661,"date_only":"2025-09-10T00:00:00.000"},{"station":"IT0934A","station_name":"BN32 Via Mustilli","pollutant":"PM2,5","date":"2025-09-10T00:00:00.000","value":8.8875,"Ore_Disponibili":24,"lat":41.7572524,"lon":12.3201661,"date_only":"2025-09-10T00:00:00.000"},{"station":"IT0936A","station_name":"AV41 SCUOLA V CIRCOLO","pollutant":"NO2","date":"2025-09-10T00:00:00.000","value":5.7,"Ore_Disponibili":23,"lat":43.8951992,"lon":11.3222381,"date_only":"2025-09-10T00:00:00.000"},{"station":"IT0936A","station_name":"AV41 SCUOLA V CIRCOLO","pollutant":"O3","date":"2025-09-10T00:00:00.000","value":72.8434782609,"Ore_Disponibili":23,"lat":43.8951992,"lon":11.3222381,"date_only":"2025-09-10T00:00:00.000"},{"station":"IT0936A","station_name":"AV41 SCUOLA V CIRCOLO","pollutant":"PM10","date":"2025-09-10T00:00:00.000","value":27.0958333333,"Ore_Disponibili":24,"lat":43.8951992,"lon":11.3222381,"date_only":"2025-09-10T00:00:00.000"},{"station":"IT0936A","station_name":"AV41 SCUOLA V CIRCOLO","pollutant":"PM2,5","date":"2025-09-10T00:00:00.000","value":11.0541666667,"Ore_Disponibili":24,"lat":43.8951992,"lon":11.3222381,"date_only":"2025-09-10T00:00:00.000"},{"station":"IT1041A","station_name":"SA23 SCUOLA OSVALDO CONTI","pollutant":"NO2","date":"2025-09-10T00:00:00.000","value":31.7375,"Ore_Disponibili":24,"lat":41.058,"lon":14.808,"date_only":"2025-09-10T00:00:00.000"},{"station":"IT1041A","station_name":"SA23 SCUOLA OSVALDO CONTI","pollutant":"O3","date":"2025-09-10T00:00:00.000","value":28.3043478261,"Ore_Disponibili":23,"lat":41.058,"lon":14.808,"date_only":"2025-09-10T00:00:00.000"},{"station":"IT1041A","station_name":"SA23 SCUOLA OSVALDO CONTI","pollutant":"PM2,5","date":"2025-09-10T00:00:00.000","value":27.5,"Ore_Disponibili":24,"lat":41.058,"lon":14.808,"date_only":"2025-09-10T00:00:00.000"},{"station":"IT1486A","station_name":"CE51 ISTITUTO MANZONI","pollutant":"NO2","date":"2025-09-10T00:00:00.000","value":20.6739130435,"Ore_Disponibili":23,"lat":41.0818,"lon":14.3349,"date_only":"2025-09-10T00:00:00.000"},{"station":"IT1486A","station_name":"CE51 ISTITUTO MANZONI","pollutant":"O3","date":"2025-09-10T00:00:00.000","value":40.55,"Ore_Disponibili":22,"lat":41.0818,"lon":14.3349,"date_only":"2025-09-10T00:00:00.000"},{"station":"IT1486A","station_name":"CE51 ISTITUTO MANZONI","pollutant":"PM10","date":"2025-09-10T00:00:00.000","value":29.1375,"Ore_Disponibili":8,"lat":41.0818,"lon":14.3349,"date_only":"2025-09-10T00:00:00.000"},{"station":"IT1486A","station_name":"CE51 ISTITUTO MANZONI","pollutant":"PM2,5","date":"2025-09-10T00:00:00.000","value":10.6222222222,"Ore_Disponibili":18,"lat":41.0818,"lon":14.3349,"date_only":"2025-09-10T00:00:00.000"},{"station":"IT1487A","station_name":"CE52 SCUOLA DE AMICIS","pollutant":"CO","date":"2025-09-10T00:00:00.000","value":0.6173913043,"Ore_Disponibili":23,"lat":45.4166851,"lon":11.8748262,"date_only":"2025-09-10T00:00:00.000"},{"station":"IT1487A","station_name":"CE52 SCUOLA DE AMICIS","pollutant":"NO2","date":"2025-09-10T00:00:00.000","value":22.7565217391,"Ore_Disponibili":23,"lat":45.4166851,"lon":11.8748262,"date_only":"2025-09-10T00:00:00.000"},{"station":"IT1487A","station_name":"CE52 SCUOLA DE AMICIS","pollutant":"PM10","date":"2025-09-10T00:00:00.000","value":49.6,"Ore_Disponibili":24,"lat":45.4166851,"lon":11.8748262,"date_only":"2025-09-10T00:00:00.000"},{"station":"IT1487A","station_name":"CE52 SCUOLA DE AMICIS","pollutant":"PM2,5","date":"2025-09-10T00:00:00.000","value":10.6,"Ore_Disponibili":24,"lat":45.4166851,"lon":11.8748262,"date_only":"2025-09-10T00:00:00.000"},{"station":"IT1488A","station_name":"CE54 SCUOLA SETTEMBRINI","pollutant":"NO2","date":"2025-09-10T00:00:00.000","value":31.4956521739,"Ore_Disponibili":23,"lat":40.7402509,"lon":14.6724943,"date_only":"2025-09-10T00:00:00.000"},{"station":"IT1488A","station_name":"CE54 SCUOLA SETTEMBRINI","pollutant":"O3","date":"2025-09-10T00:00:00.000","value":26.247826087,"Ore_Disponibili":23,"lat":40.7402509,"lon":14.6724943,"date_only":"2025-09-10T00:00:00.000"},{"station":"IT1488A","station_name":"CE54 SCUOLA SETTEMBRINI","pollutant":"PM10","date":"2025-09-10T00:00:00.000","value":50.25,"Ore_Disponibili":24,"lat":40.7402509,"lon":14.6724943,"date_only":"2025-09-10T00:00:00.000"},{"station":"IT1488A","station_name":"CE54 SCUOLA SETTEMBRINI","pollutant":"PM2,5","date":"2025-09-10T00:00:00.000","value":18.6166666667,"Ore_Disponibili":24,"lat":40.7402509,"lon":14.6724943,"date_only":"2025-09-10T00:00:00.000"},{"station":"IT1491A","station_name":"NA07 ENTE FERROVIE","pollutant":"CO","date":"2025-09-10T00:00:00.000","value":0.4173913043,"Ore_Disponibili":23,"lat":45.6541955,"lon":13.7741392,"date_only":"2025-09-10T00:00:00.000"},{"station":"IT1491A","station_name":"NA07 ENTE FERROVIE","pollutant":"NO2","date":"2025-09-10T00:00:00.000","value":52.7086956522,"Ore_Disponibili":23,"lat":45.6541955,"lon":13.7741392,"date_only":"2025-09-10T00:00:00.000"},{"station":"IT1491A","station_name":"NA07 ENTE FERROVIE","pollutant":"PM10","date":"2025-09-10T00:00:00.000","value":35.1791666667,"Ore_Disponibili":24,"lat":45.6541955,"lon":13.7741392,"date_only":"2025-09-10T00:00:00.000"},{"station":"IT1491A","station_name":"NA07 ENTE FERROVIE","pollutant":"PM2,5","date":"2025-09-10T00:00:00.000","value":14.625,"Ore_Disponibili":24,"lat":45.6541955,"lon":13.7741392,"date_only":"2025-09-10T00:00:00.000"},{"station":"IT1493A","station_name":"NA09 I.T.I.S. ARGINE","pollutant":"CO","date":"2025-09-10T00:00:00.000","value":0.3260869565,"Ore_Disponibili":23,"lat":44.7377462,"lon":11.6477031,"date_only":"2025-09-10T00:00:00.000"},{"station":"IT1493A","station_name":"NA09 I.T.I.S. ARGINE","pollutant":"NO2","date":"2025-09-10T00:00:00.000","value":31.1130434783,"Ore_Disponibili":23,"lat":44.7377462,"lon":11.6477031,"date_only":"2025-09-10T00:00:00.000"},{"station":"IT1493A","station_name":"NA09 I.T.I.S. ARGINE","pollutant":"PM10","date":"2025-09-10T00:00:00.000","value":31.7083333333,"Ore_Disponibili":24,"lat":44.7377462,"lon":11.6477031,"date_only":"2025-09-10T00:00:00.000"},{"station":"IT1493A","station_name":"NA09 I.T.I.S. ARGINE","pollutant":"PM2,5","date":"2025-09-10T00:00:00.000","value":16.1166666667,"Ore_Disponibili":24,"lat":44.7377462,"lon":11.6477031,"date_only":"2025-09-10T00:00:00.000"},{"station":"IT1496A","station_name":"NA02 OSPEDALE SANTOBONO","pollutant":"NO2","date":"2025-09-10T00:00:00.000","value":26.852173913,"Ore_Disponibili":23,"lat":40.8615516,"lon":14.2278503,"date_only":"2025-09-10T00:00:00.000"},{"station":"IT1496A","station_name":"NA02 OSPEDALE SANTOBONO","pollutant":"PM10","date":"2025-09-10T00:00:00.000","value":22.2375,"Ore_Disponibili":24,"lat":40.8615516,"lon":14.2278503,"date_only":"2025-09-10T00:00:00.000"},{"station":"IT1496A","station_name":"NA02 OSPEDALE SANTOBONO","pollutant":"PM2,5","date":"2025-09-10T00:00:00.000","value":10.0458333333,"Ore_Disponibili":24,"lat":40.8615516,"lon":14.2278503,"date_only":"2025-09-10T00:00:00.000"},{"station":"IT1497A","station_name":"NA01 OSSERVATORIO ASTRONOMICO","pollutant":"CO","date":"2025-09-10T00:00:00.000","value":0.3565217391,"Ore_Disponibili":23,"lat":46.0863714,"lon":13.3165669,"date_only":"2025-09-10T00:00:00.000"},{"station":"IT1497A","station_name":"NA01 OSSERVATORIO ASTRONOMICO","pollutant":"NO2","date":"2025-09-10T00:00:00.000","value":16.3125,"Ore_Disponibili":24,"lat":46.0863714,"lon":13.3165669,"date_only":"2025-09-10T00:00:00.000"},{"station":"IT1497A","station_name":"NA01 OSSERVATORIO ASTRONOMICO","pollutant":"O3","date":"2025-09-10T00:00:00.000","value":66.0347826087,"Ore_Disponibili":23,"lat":46.0863714,"lon":13.3165669,"date_only":"2025-09-10T00:00:00.000"},{"station":"IT1497A","station_name":"NA01 OSSERVATORIO ASTRONOMICO","pollutant":"PM10","date":"2025-09-10T00:00:00.000","value":22.3208333333,"Ore_Disponibili":24,"lat":46.0863714,"lon":13.3165669,"date_only":"2025-09-10T00:00:00.000"},{"station":"IT1497A","station_name":"NA01 OSSERVATORIO ASTRONOMICO","pollutant":"PM2,5","date":"2025-09-10T00:00:00.000","value":10.0666666667,"Ore_Disponibili":24,"lat":46.0863714,"lon":13.3165669,"date_only":"2025-09-10T00:00:00.000"},{"station":"IT1504A","station_name":"SA22 Ospedale via Vernieri","pollutant":"CO","date":"2025-09-10T00:00:00.000","value":0.7869565217,"Ore_Disponibili":23,"lat":40.682,"lon":14.766,"date_only":"2025-09-10T00:00:00.000"},{"station":"IT1504A","station_name":"SA22 Ospedale via Vernieri","pollutant":"NO2","date":"2025-09-10T00:00:00.000","value":25.6652173913,"Ore_Disponibili":23,"lat":40.682,"lon":14.766,"date_only":"2025-09-10T00:00:00.000"},{"station":"IT1504A","station_name":"SA22 Ospedale via Vernieri","pollutant":"PM10","date":"2025-09-10T00:00:00.000","value":28.9666666667,"Ore_Disponibili":24,"lat":40.682,"lon":14.766,"date_only":"2025-09-10T00:00:00.000"},{"station":"IT1504A","station_name":"SA22 Ospedale via Vernieri","pollutant":"PM2,5","date":"2025-09-10T00:00:00.000","value":13.2041666667,"Ore_Disponibili":24,"lat":40.682,"lon":14.766,"date_only":"2025-09-10T00:00:00.000"},{"station":"IT2210A","station_name":"SOLOFRA ZONA INDUSTRIALE","pollutant":"CO","date":"2025-09-10T00:00:00.000","value":0.3166666667,"Ore_Disponibili":12,"lat":41.058,"lon":14.808,"date_only":"2025-09-10T00:00:00.000"},{"station":"IT2210A","station_name":"SOLOFRA ZONA INDUSTRIALE","pollutant":"NO2","date":"2025-09-10T00:00:00.000","value":7.0764705882,"Ore_Disponibili":17,"lat":41.058,"lon":14.808,"date_only":"2025-09-10T00:00:00.000"},{"station":"IT2210A","station_name":"SOLOFRA ZONA INDUSTRIALE","pollutant":"PM10","date":"2025-09-10T00:00:00.000","value":34.1083333333,"Ore_Disponibili":24,"lat":41.058,"lon":14.808,"date_only":"2025-09-10T00:00:00.000"},{"station":"IT2210A","station_name":"SOLOFRA ZONA INDUSTRIALE","pollutant":"PM2,5","date":"2025-09-10T00:00:00.000","value":15.825,"Ore_Disponibili":24,"lat":41.058,"lon":14.808,"date_only":"2025-09-10T00:00:00.000"},{"station":"IT2211A","station_name":"ACERRA ZONA INDUSTRIALE","pollutant":"CO","date":"2025-09-10T00:00:00.000","value":0.347826087,"Ore_Disponibili":23,"lat":40.9847962,"lon":14.3679606,"date_only":"2025-09-10T00:00:00.000"},{"station":"IT2211A","station_name":"ACERRA ZONA INDUSTRIALE","pollutant":"NO2","date":"2025-09-10T00:00:00.000","value":31.3869565217,"Ore_Disponibili":23,"lat":40.9847962,"lon":14.3679606,"date_only":"2025-09-10T00:00:00.000"},{"station":"IT2211A","station_name":"ACERRA ZONA INDUSTRIALE","pollutant":"PM10","date":"2025-09-10T00:00:00.000","value":43.9,"Ore_Disponibili":24,"lat":40.9847962,"lon":14.3679606,"date_only":"2025-09-10T00:00:00.000"},{"station":"IT2211A","station_name":"ACERRA ZONA INDUSTRIALE","pollutant":"PM2,5","date":"2025-09-10T00:00:00.000","value":9.6,"Ore_Disponibili":24,"lat":40.9847962,"lon":14.3679606,"date_only":"2025-09-10T00:00:00.000"},{"station":"IT2212A","station_name":"San Vitaliano Scuola Elementare Marconi","pollutant":"NO2","date":"2025-09-10T00:00:00.000","value":38.4347826087,"Ore_Disponibili":23,"lat":40.896,"lon":14.46,"date_only":"2025-09-10T00:00:00.000"},{"station":"IT2212A","station_name":"San Vitaliano Scuola Elementare Marconi","pollutant":"O3","date":"2025-09-10T00:00:00.000","value":41.9391304348,"Ore_Disponibili":23,"lat":40.896,"lon":14.46,"date_only":"2025-09-10T00:00:00.000"},{"station":"IT2212A","station_name":"San Vitaliano Scuola Elementare Marconi","pollutant":"PM10","date":"2025-09-10T00:00:00.000","value":37.0333333333,"Ore_Disponibili":24,"lat":40.896,"lon":14.46,"date_only":"2025-09-10T00:00:00.000"},{"station":"IT2212A","station_name":"San Vitaliano Scuola Elementare Marconi","pollutant":"PM2,5","date":"2025-09-10T00:00:00.000","value":15.4125,"Ore_Disponibili":24,"lat":40.896,"lon":14.46,"date_only":"2025-09-10T00:00:00.000"},{"station":"IT2213A","station_name":"CAVA DEI TIRRENI - STADIO","pollutant":"CO","date":"2025-09-10T00:00:00.000","value":0.552173913,"Ore_Disponibili":23,"lat":44.4937761,"lon":11.3101851,"date_only":"2025-09-10T00:00:00.000"},{"station":"IT2213A","station_name":"CAVA DEI TIRRENI - STADIO","pollutant":"NO2","date":"2025-09-10T00:00:00.000","value":14.2,"Ore_Disponibili":23,"lat":44.4937761,"lon":11.3101851,"date_only":"2025-09-10T00:00:00.000"},{"station":"IT2213A","station_name":"CAVA DEI TIRRENI - STADIO","pollutant":"O3","date":"2025-09-10T00:00:00.000","value":64.8913043478,"Ore_Disponibili":23,"lat":44.4937761,"lon":11.3101851,"date_only":"2025-09-10T00:00:00.000"},{"station":"IT2213A","station_name":"CAVA DEI TIRRENI - STADIO","pollutant":"PM10","date":"2025-09-10T00:00:00.000","value":25.3625,"Ore_Disponibili":24,"lat":44.4937761,"lon":11.3101851,"date_only":"2025-09-10T00:00:00.000"},{"station":"IT2213A","station_name":"CAVA DEI TIRRENI - STADIO","pollutant":"PM2,5","date":"2025-09-10T00:00:00.000","value":11.7041666667,"Ore_Disponibili":24,"lat":44.4937761,"lon":11.3101851,"date_only":"2025-09-10T00:00:00.000"},{"station":"IT2214A","station_name":"Nocera Inferiore scuola Solimene","pollutant":"CO","date":"2025-09-10T00:00:00.000","value":0.2652173913,"Ore_Disponibili":23,"lat":40.7445,"lon":14.734,"date_only":"2025-09-10T00:00:00.000"},{"station":"IT2214A","station_name":"Nocera Inferiore scuola Solimene","pollutant":"NO2","date":"2025-09-10T00:00:00.000","value":22.147826087,"Ore_Disponibili":23,"lat":40.7445,"lon":14.734,"date_only":"2025-09-10T00:00:00.000"},{"station":"IT2214A","station_name":"Nocera Inferiore scuola Solimene","pollutant":"PM10","date":"2025-09-10T00:00:00.000","value":31.9375,"Ore_Disponibili":24,"lat":40.7445,"lon":14.734,"date_only":"2025-09-10T00:00:00.000"},{"station":"IT2214A","station_name":"Nocera Inferiore scuola Solimene","pollutant":"PM2,5","date":"2025-09-10T00:00:00.000","value":13.725,"Ore_Disponibili":24,"lat":40.7445,"lon":14.734,"date_only":"2025-09-10T00:00:00.000"},{"station":"IT2215A","station_name":"BENEVENTO ZONA INDUSTRIALE","pollutant":"NO2","date":"2025-09-10T00:00:00.000","value":9.2956521739,"Ore_Disponibili":23,"lat":41.2293368,"lon":14.4782074,"date_only":"2025-09-10T00:00:00.000"},{"station":"IT2215A","station_name":"BENEVENTO ZONA INDUSTRIALE","pollutant":"O3","date":"2025-09-10T00:00:00.000","value":41.0695652174,"Ore_Disponibili":23,"lat":41.2293368,"lon":14.4782074,"date_only":"2025-09-10T00:00:00.000"},{"station":"IT2215A","station_name":"BENEVENTO ZONA INDUSTRIALE","pollutant":"PM10","date":"2025-09-10T00:00:00.000","value":28.4958333333,"Ore_Disponibili":24,"lat":41.2293368,"lon":14.4782074,"date_only":"2025-09-10T00:00:00.000"},{"station":"IT2215A","station_name":"BENEVENTO ZONA INDUSTRIALE","pollutant":"PM2,5","date":"2025-09-10T00:00:00.000","value":13.2083333333,"Ore_Disponibili":24,"lat":41.2293368,"lon":14.4782074,"date_only":"2025-09-10T00:00:00.000"},{"station":"IT2216A","station_name":"Casoria Scuola Palizzi (CAM)","pollutant":"NO2","date":"2025-09-10T00:00:00.000","value":14.1869565217,"Ore_Disponibili":23,"lat":40.904,"lon":14.289,"date_only":"2025-09-10T00:00:00.000"},{"station":"IT2216A","station_name":"Casoria Scuola Palizzi (CAM)","pollutant":"O3","date":"2025-09-10T00:00:00.000","value":36.5130434783,"Ore_Disponibili":23,"lat":40.904,"lon":14.289,"date_only":"2025-09-10T00:00:00.000"},{"station":"IT2216A","station_name":"Casoria Scuola Palizzi (CAM)","pollutant":"PM10","date":"2025-09-10T00:00:00.000","value":58.8625,"Ore_Disponibili":24,"lat":40.904,"lon":14.289,"date_only":"2025-09-10T00:00:00.000"},{"station":"IT2216A","station_name":"Casoria Scuola Palizzi (CAM)","pollutant":"PM2,5","date":"2025-09-10T00:00:00.000","value":23.6375,"Ore_Disponibili":24,"lat":40.904,"lon":14.289,"date_only":"2025-09-10T00:00:00.000"},{"station":"IT2217A","station_name":"Torre Annunziata Scuola Media Pascoli","pollutant":"NO2","date":"2025-09-10T00:00:00.000","value":11.7739130435,"Ore_Disponibili":23,"lat":40.831,"lon":14.426,"date_only":"2025-09-10T00:00:00.000"},{"station":"IT2217A","station_name":"Torre Annunziata Scuola Media Pascoli","pollutant":"O3","date":"2025-09-10T00:00:00.000","value":60.1434782609,"Ore_Disponibili":23,"lat":40.831,"lon":14.426,"date_only":"2025-09-10T00:00:00.000"},{"station":"IT2218A","station_name":"San Felice a Cancello Complesso scolastico","pollutant":"CO","date":"2025-09-10T00:00:00.000","value":0.1541666667,"Ore_Disponibili":24,"lat":41.015,"lon":14.287,"date_only":"2025-09-10T00:00:00.000"},{"station":"IT2218A","station_name":"San Felice a Cancello Complesso scolastico","pollutant":"NO2","date":"2025-09-10T00:00:00.000","value":16.9130434783,"Ore_Disponibili":23,"lat":41.015,"lon":14.287,"date_only":"2025-09-10T00:00:00.000"},{"station":"IT2218A","station_name":"San Felice a Cancello Complesso scolastico","pollutant":"O3","date":"2025-09-10T00:00:00.000","value":43.352173913,"Ore_Disponibili":23,"lat":41.015,"lon":14.287,"date_only":"2025-09-10T00:00:00.000"},{"station":"IT2218A","station_name":"San Felice a Cancello Complesso scolastico","pollutant":"PM10","date":"2025-09-10T00:00:00.000","value":40.4375,"Ore_Disponibili":24,"lat":41.015,"lon":14.287,"date_only":"2025-09-10T00:00:00.000"},{"station":"IT2218A","station_name":"San Felice a Cancello Complesso scolastico","pollutant":"PM2,5","date":"2025-09-10T00:00:00.000","value":15.9958333333,"Ore_Disponibili":24,"lat":41.015,"lon":14.287,"date_only":"2025-09-10T00:00:00.000"},{"station":"IT2219A","station_name":"Acerra scuola Caporale","pollutant":"CO","date":"2025-09-10T00:00:00.000","value":0.7347826087,"Ore_Disponibili":23,"lat":40.9169,"lon":14.3425,"date_only":"2025-09-10T00:00:00.000"},{"station":"IT2219A","station_name":"Acerra scuola Caporale","pollutant":"NO2","date":"2025-09-10T00:00:00.000","value":22.2454545455,"Ore_Disponibili":22,"lat":40.9169,"lon":14.3425,"date_only":"2025-09-10T00:00:00.000"},{"station":"IT2219A","station_name":"Acerra scuola Caporale","pollutant":"PM10","date":"2025-09-10T00:00:00.000","value":42.5125,"Ore_Disponibili":24,"lat":40.9169,"lon":14.3425,"date_only":"2025-09-10T00:00:00.000"},{"station":"IT2219A","station_name":"Acerra scuola Caporale","pollutant":"PM2,5","date":"2025-09-10T00:00:00.000","value":16.8833333333,"Ore_Disponibili":24,"lat":40.9169,"lon":14.3425,"date_only":"2025-09-10T00:00:00.000"},{"station":"IT2221A","station_name":"Napoli via Epomeo","pollutant":"CO","date":"2025-09-10T00:00:00.000","value":0.3652173913,"Ore_Disponibili":23,"lat":40.7205434,"lon":13.8987737,"date_only":"2025-09-10T00:00:00.000"},{"station":"IT2221A","station_name":"Napoli via Epomeo","pollutant":"NO2","date":"2025-09-10T00:00:00.000","value":15.2565217391,"Ore_Disponibili":23,"lat":40.7205434,"lon":13.8987737,"date_only":"2025-09-10T00:00:00.000"},{"station":"IT2221A","station_name":"Napoli via Epomeo","pollutant":"O3","date":"2025-09-10T00:00:00.000","value":32.2956521739,"Ore_Disponibili":23,"lat":40.7205434,"lon":13.8987737,"date_only":"2025-09-10T00:00:00.000"},{"station":"IT2221A","station_name":"Napoli via Epomeo","pollutant":"PM10","date":"2025-09-10T00:00:00.000","value":27.0125,"Ore_Disponibili":24,"lat":40.7205434,"lon":13.8987737,"date_only":"2025-09-10T00:00:00.000"},{"station":"IT2221A","station_name":"Napoli via Epomeo","pollutant":"PM2,5","date":"2025-09-10T00:00:00.000","value":10.9625,"Ore_Disponibili":24,"lat":40.7205434,"lon":13.8987737,"date_only":"2025-09-10T00:00:00.000"},{"station":"IT2223A","station_name":"Volla via Filichito","pollutant":"CO","date":"2025-09-10T00:00:00.000","value":0.4913043478,"Ore_Disponibili":23,"lat":40.8824226,"lon":14.3478545,"date_only":"2025-09-10T00:00:00.000"},{"station":"IT2223A","station_name":"Volla via Filichito","pollutant":"NO2","date":"2025-09-10T00:00:00.000","value":24.9541666667,"Ore_Disponibili":24,"lat":40.8824226,"lon":14.3478545,"date_only":"2025-09-10T00:00:00.000"},{"station":"IT2223A","station_name":"Volla via Filichito","pollutant":"O3","date":"2025-09-10T00:00:00.000","value":15.8913043478,"Ore_Disponibili":23,"lat":40.8824226,"lon":14.3478545,"date_only":"2025-09-10T00:00:00.000"},{"station":"IT2223A","station_name":"Volla via Filichito","pollutant":"PM10","date":"2025-09-10T00:00:00.000","value":31.025,"Ore_Disponibili":24,"lat":40.8824226,"lon":14.3478545,"date_only":"2025-09-10T00:00:00.000"},{"station":"IT2223A","station_name":"Volla via Filichito","pollutant":"PM2,5","date":"2025-09-10T00:00:00.000","value":14.8791666667,"Ore_Disponibili":24,"lat":40.8824226,"lon":14.3478545,"date_only":"2025-09-10T00:00:00.000"},{"station":"IT2226A","station_name":"Pomigliano d'Arco Area ASI","pollutant":"CO","date":"2025-09-10T00:00:00.000","value":0.4130434783,"Ore_Disponibili":23,"lat":40.9075,"lon":14.393,"date_only":"2025-09-10T00:00:00.000"},{"station":"IT2226A","station_name":"Pomigliano d'Arco Area ASI","pollutant":"NO2","date":"2025-09-10T00:00:00.000","value":30.1652173913,"Ore_Disponibili":23,"lat":40.9075,"lon":14.393,"date_only":"2025-09-10T00:00:00.000"},{"station":"IT2226A","station_name":"Pomigliano d'Arco Area ASI","pollutant":"PM10","date":"2025-09-10T00:00:00.000","value":31.3375,"Ore_Disponibili":24,"lat":40.9075,"lon":14.393,"date_only":"2025-09-10T00:00:00.000"},{"station":"IT2226A","station_name":"Pomigliano d'Arco Area ASI","pollutant":"PM2,5","date":"2025-09-10T00:00:00.000","value":11.15,"Ore_Disponibili":24,"lat":40.9075,"lon":14.393,"date_only":"2025-09-10T00:00:00.000"},{"station":"IT2227A","station_name":"AVELLINO - SCUOLA ALIGHIERI","pollutant":"CO","date":"2025-09-10T00:00:00.000","value":0.3565217391,"Ore_Disponibili":23,"lat":40.9190395,"lon":14.784947,"date_only":"2025-09-10T00:00:00.000"},{"station":"IT2227A","station_name":"AVELLINO - SCUOLA ALIGHIERI","pollutant":"NO2","date":"2025-09-10T00:00:00.000","value":10.1083333333,"Ore_Disponibili":24,"lat":40.9190395,"lon":14.784947,"date_only":"2025-09-10T00:00:00.000"},{"station":"IT2227A","station_name":"AVELLINO - SCUOLA ALIGHIERI","pollutant":"PM10","date":"2025-09-10T00:00:00.000","value":18.975,"Ore_Disponibili":24,"lat":40.9190395,"lon":14.784947,"date_only":"2025-09-10T00:00:00.000"},{"station":"IT2227A","station_name":"AVELLINO - SCUOLA ALIGHIERI","pollutant":"PM2,5","date":"2025-09-10T00:00:00.000","value":6.8791666667,"Ore_Disponibili":24,"lat":40.9190395,"lon":14.784947,"date_only":"2025-09-10T00:00:00.000"},{"station":"IT2228A","station_name":"BENEVENTO CAMPO SPORTIVO","pollutant":"NO2","date":"2025-09-10T00:00:00.000","value":14.0833333333,"Ore_Disponibili":24,"lat":41.2315276,"lon":14.5332703,"date_only":"2025-09-10T00:00:00.000"},{"station":"IT2228A","station_name":"BENEVENTO CAMPO SPORTIVO","pollutant":"O3","date":"2025-09-10T00:00:00.000","value":39.5772727273,"Ore_Disponibili":22,"lat":41.2315276,"lon":14.5332703,"date_only":"2025-09-10T00:00:00.000"},{"station":"IT2228A","station_name":"BENEVENTO CAMPO SPORTIVO","pollutant":"PM10","date":"2025-09-10T00:00:00.000","value":31.0333333333,"Ore_Disponibili":24,"lat":41.2315276,"lon":14.5332703,"date_only":"2025-09-10T00:00:00.000"},{"station":"IT2228A","station_name":"BENEVENTO CAMPO SPORTIVO","pollutant":"PM2,5","date":"2025-09-10T00:00:00.000","value":14.6583333333,"Ore_Disponibili":24,"lat":41.2315276,"lon":14.5332703,"date_only":"2025-09-10T00:00:00.000"},{"station":"IT2268A","station_name":"BATTIPAGLIA - PARCO FIUME","pollutant":"NO2","date":"2025-09-10T00:00:00.000","value":20.2181818182,"Ore_Disponibili":22,"lat":44.3859682,"lon":7.5509829,"date_only":"2025-09-10T00:00:00.000"},{"station":"IT2268A","station_name":"BATTIPAGLIA - PARCO FIUME","pollutant":"O3","date":"2025-09-10T00:00:00.000","value":47.1086956522,"Ore_Disponibili":23,"lat":44.3859682,"lon":7.5509829,"date_only":"2025-09-10T00:00:00.000"},{"station":"IT2268A","station_name":"BATTIPAGLIA - PARCO FIUME","pollutant":"PM10","date":"2025-09-10T00:00:00.000","value":32.9,"Ore_Disponibili":24,"lat":44.3859682,"lon":7.5509829,"date_only":"2025-09-10T00:00:00.000"},{"station":"IT2268A","station_name":"BATTIPAGLIA - PARCO FIUME","pollutant":"PM2,5","date":"2025-09-10T00:00:00.000","value":9.0,"Ore_Disponibili":24,"lat":44.3859682,"lon":7.5509829,"date_only":"2025-09-10T00:00:00.000"},{"station":"IT2270A","station_name":"Portici parco Reggia","pollutant":"NO2","date":"2025-09-10T00:00:00.000","value":13.3318181818,"Ore_Disponibili":22,"lat":40.813588,"lon":14.3476526,"date_only":"2025-09-10T00:00:00.000"},{"station":"IT2270A","station_name":"Portici parco Reggia","pollutant":"O3","date":"2025-09-10T00:00:00.000","value":46.1636363636,"Ore_Disponibili":22,"lat":40.813588,"lon":14.3476526,"date_only":"2025-09-10T00:00:00.000"},{"station":"IT2270A","station_name":"Portici parco Reggia","pollutant":"PM10","date":"2025-09-10T00:00:00.000","value":31.4347826087,"Ore_Disponibili":23,"lat":40.813588,"lon":14.3476526,"date_only":"2025-09-10T00:00:00.000"},{"station":"IT2270A","station_name":"Portici parco Reggia","pollutant":"PM2,5","date":"2025-09-10T00:00:00.000","value":12.3869565217,"Ore_Disponibili":23,"lat":40.813588,"lon":14.3476526,"date_only":"2025-09-10T00:00:00.000"},{"station":"IT2271A","station_name":"Aversa scuola Cirillo","pollutant":"CO","date":"2025-09-10T00:00:00.000","value":0.5695652174,"Ore_Disponibili":23,"lat":40.9758352,"lon":14.2117669,"date_only":"2025-09-10T00:00:00.000"},{"station":"IT2271A","station_name":"Aversa scuola Cirillo","pollutant":"NO2","date":"2025-09-10T00:00:00.000","value":26.9086956522,"Ore_Disponibili":23,"lat":40.9758352,"lon":14.2117669,"date_only":"2025-09-10T00:00:00.000"},{"station":"IT2271A","station_name":"Aversa scuola Cirillo","pollutant":"PM10","date":"2025-09-10T00:00:00.000","value":55.3,"Ore_Disponibili":24,"lat":40.9758352,"lon":14.2117669,"date_only":"2025-09-10T00:00:00.000"},{"station":"IT2271A","station_name":"Aversa scuola Cirillo","pollutant":"PM2,5","date":"2025-09-10T00:00:00.000","value":17.9333333333,"Ore_Disponibili":24,"lat":40.9758352,"lon":14.2117669,"date_only":"2025-09-10T00:00:00.000"},{"station":"IT2272A","station_name":"Pozzuoli ex Villa Avellino","pollutant":"NO2","date":"2025-09-10T00:00:00.000","value":9.6652173913,"Ore_Disponibili":23,"lat":40.834,"lon":14.119,"date_only":"2025-09-10T00:00:00.000"},{"station":"IT2272A","station_name":"Pozzuoli ex Villa Avellino","pollutant":"O3","date":"2025-09-10T00:00:00.000","value":51.875,"Ore_Disponibili":24,"lat":40.834,"lon":14.119,"date_only":"2025-09-10T00:00:00.000"},{"station":"IT2272A","station_name":"Pozzuoli ex Villa Avellino","pollutant":"PM10","date":"2025-09-10T00:00:00.000","value":25.7125,"Ore_Disponibili":24,"lat":40.834,"lon":14.119,"date_only":"2025-09-10T00:00:00.000"},{"station":"IT2272A","station_name":"Pozzuoli ex Villa Avellino","pollutant":"PM2,5","date":"2025-09-10T00:00:00.000","value":10.4666666667,"Ore_Disponibili":24,"lat":40.834,"lon":14.119,"date_only":"2025-09-10T00:00:00.000"},{"station":"IT2273A","station_name":"Polla Area tritovagliatore","pollutant":"CO","date":"2025-09-10T00:00:00.000","value":0.2045454545,"Ore_Disponibili":22,"lat":40.412,"lon":15.341,"date_only":"2025-09-10T00:00:00.000"},{"station":"IT2273A","station_name":"Polla Area tritovagliatore","pollutant":"NO2","date":"2025-09-10T00:00:00.000","value":19.5409090909,"Ore_Disponibili":22,"lat":40.412,"lon":15.341,"date_only":"2025-09-10T00:00:00.000"},{"station":"IT2273A","station_name":"Polla Area tritovagliatore","pollutant":"PM10","date":"2025-09-10T00:00:00.000","value":31.4739130435,"Ore_Disponibili":23,"lat":40.412,"lon":15.341,"date_only":"2025-09-10T00:00:00.000"},{"station":"IT2273A","station_name":"Polla Area tritovagliatore","pollutant":"PM2,5","date":"2025-09-10T00:00:00.000","value":10.952173913,"Ore_Disponibili":23,"lat":40.412,"lon":15.341,"date_only":"2025-09-10T00:00:00.000"},{"station":"IT2276A","station_name":"Ariano Irpino Villa Comunale","pollutant":"CO","date":"2025-09-10T00:00:00.000","value":0.3695652174,"Ore_Disponibili":23,"lat":41.1549432,"lon":15.0951624,"date_only":"2025-09-10T00:00:00.000"},{"station":"IT2276A","station_name":"Ariano Irpino Villa Comunale","pollutant":"NO2","date":"2025-09-10T00:00:00.000","value":3.6833333333,"Ore_Disponibili":24,"lat":41.1549432,"lon":15.0951624,"date_only":"2025-09-10T00:00:00.000"},{"station":"IT2276A","station_name":"Ariano Irpino Villa Comunale","pollutant":"O3","date":"2025-09-10T00:00:00.000","value":87.4,"Ore_Disponibili":22,"lat":41.1549432,"lon":15.0951624,"date_only":"2025-09-10T00:00:00.000"},{"station":"IT2277A","station_name":"Napoli parco Virgiliano","pollutant":"CO","date":"2025-09-10T00:00:00.000","value":0.25,"Ore_Disponibili":24,"lat":40.7984999,"lon":14.1790765,"date_only":"2025-09-10T00:00:00.000"},{"station":"IT2277A","station_name":"Napoli parco Virgiliano","pollutant":"NO2","date":"2025-09-10T00:00:00.000","value":8.547826087,"Ore_Disponibili":23,"lat":40.7984999,"lon":14.1790765,"date_only":"2025-09-10T00:00:00.000"},{"station":"IT2277A","station_name":"Napoli parco Virgiliano","pollutant":"O3","date":"2025-09-10T00:00:00.000","value":80.8666666667,"Ore_Disponibili":24,"lat":40.7984999,"lon":14.1790765,"date_only":"2025-09-10T00:00:00.000"},{"station":"IT2277A","station_name":"Napoli parco Virgiliano","pollutant":"PM10","date":"2025-09-10T00:00:00.000","value":12.4,"Ore_Disponibili":24,"lat":40.7984999,"lon":14.1790765,"date_only":"2025-09-10T00:00:00.000"},{"station":"IT2277A","station_name":"Napoli parco Virgiliano","pollutant":"PM2,5","date":"2025-09-10T00:00:00.000","value":8.6,"Ore_Disponibili":24,"lat":40.7984999,"lon":14.1790765,"date_only":"2025-09-10T00:00:00.000"},{"station":"IT2283A","station_name":"OTTATI - ALBURNI","pollutant":"NO2","date":"2025-09-10T00:00:00.000","value":2.7347826087,"Ore_Disponibili":23,"lat":40.560311,"lon":15.303957,"date_only":"2025-09-10T00:00:00.000"},{"station":"IT2283A","station_name":"OTTATI - ALBURNI","pollutant":"O3","date":"2025-09-10T00:00:00.000","value":83.1608695652,"Ore_Disponibili":23,"lat":40.560311,"lon":15.303957,"date_only":"2025-09-10T00:00:00.000"}]