[{"station":"EDI01","station_name":"Presenzano Vic. Monastero \u00b0*","pollutant":"NO2","date":"2025-10-11T00:00:00.000","value":6.5473478261,"Ore_Disponibili":23,"lat":41.239,"lon":14.232,"date_only":"2025-10-11T00:00:00.000"},{"station":"EDI01","station_name":"Presenzano Vic. Monastero \u00b0*","pollutant":"O3","date":"2025-10-11T00:00:00.000","value":50.5790909091,"Ore_Disponibili":22,"lat":41.239,"lon":14.232,"date_only":"2025-10-11T00:00:00.000"},{"station":"EDI01","station_name":"Presenzano Vic. Monastero \u00b0*","pollutant":"PM10","date":"2025-10-11T00:00:00.000","value":6.0833333333,"Ore_Disponibili":24,"lat":41.239,"lon":14.232,"date_only":"2025-10-11T00:00:00.000"},{"station":"EDI01","station_name":"Presenzano Vic. Monastero \u00b0*","pollutant":"PM2,5","date":"2025-10-11T00:00:00.000","value":4.1304347826,"Ore_Disponibili":23,"lat":41.239,"lon":14.232,"date_only":"2025-10-11T00:00:00.000"},{"station":"EDI02","station_name":"Pratella Loc. Mastrati \u00b0*","pollutant":"NO2","date":"2025-10-11T00:00:00.000","value":2.48525,"Ore_Disponibili":24,"lat":41.461,"lon":14.641,"date_only":"2025-10-11T00:00:00.000"},{"station":"EDI02","station_name":"Pratella Loc. Mastrati \u00b0*","pollutant":"O3","date":"2025-10-11T00:00:00.000","value":60.3113043478,"Ore_Disponibili":23,"lat":41.461,"lon":14.641,"date_only":"2025-10-11T00:00:00.000"},{"station":"EDI02","station_name":"Pratella Loc. Mastrati \u00b0*","pollutant":"PM10","date":"2025-10-11T00:00:00.000","value":8.2083333333,"Ore_Disponibili":24,"lat":41.461,"lon":14.641,"date_only":"2025-10-11T00:00:00.000"},{"station":"EDI02","station_name":"Pratella Loc. Mastrati \u00b0*","pollutant":"PM2,5","date":"2025-10-11T00:00:00.000","value":6.7916666667,"Ore_Disponibili":24,"lat":41.461,"lon":14.641,"date_only":"2025-10-11T00:00:00.000"},{"station":"IT0898A","station_name":"Napoli NA06 Museo Nazionale","pollutant":"NO2","date":"2025-10-11T00:00:00.000","value":30.445,"Ore_Disponibili":24,"lat":40.8536064,"lon":14.25115,"date_only":"2025-10-11T00:00:00.000"},{"station":"IT0898A","station_name":"Napoli NA06 Museo Nazionale","pollutant":"PM10","date":"2025-10-11T00:00:00.000","value":20.6913043478,"Ore_Disponibili":23,"lat":40.8536064,"lon":14.25115,"date_only":"2025-10-11T00:00:00.000"},{"station":"IT0898A","station_name":"Napoli NA06 Museo Nazionale","pollutant":"PM2,5","date":"2025-10-11T00:00:00.000","value":12.1272727273,"Ore_Disponibili":22,"lat":40.8536064,"lon":14.25115,"date_only":"2025-10-11T00:00:00.000"},{"station":"IT0934A","station_name":"Benevento BN32 Via Mustilli","pollutant":"NO2","date":"2025-10-11T00:00:00.000","value":21.3758333333,"Ore_Disponibili":24,"lat":41.1317868,"lon":14.7885516,"date_only":"2025-10-11T00:00:00.000"},{"station":"IT0934A","station_name":"Benevento BN32 Via Mustilli","pollutant":"PM10","date":"2025-10-11T00:00:00.000","value":16.4958333333,"Ore_Disponibili":24,"lat":41.1317868,"lon":14.7885516,"date_only":"2025-10-11T00:00:00.000"},{"station":"IT0934A","station_name":"Benevento BN32 Via Mustilli","pollutant":"PM2,5","date":"2025-10-11T00:00:00.000","value":10.1227272727,"Ore_Disponibili":22,"lat":41.1317868,"lon":14.7885516,"date_only":"2025-10-11T00:00:00.000"},{"station":"IT0936A","station_name":"Avellino AV41 Sc. V Circolo \u00b0","pollutant":"NO2","date":"2025-10-11T00:00:00.000","value":8.6620833333,"Ore_Disponibili":24,"lat":40.9152,"lon":14.7955,"date_only":"2025-10-11T00:00:00.000"},{"station":"IT0936A","station_name":"Avellino AV41 Sc. V Circolo \u00b0","pollutant":"O3","date":"2025-10-11T00:00:00.000","value":56.515,"Ore_Disponibili":24,"lat":40.9152,"lon":14.7955,"date_only":"2025-10-11T00:00:00.000"},{"station":"IT0936A","station_name":"Avellino AV41 Sc. V Circolo \u00b0","pollutant":"PM10","date":"2025-10-11T00:00:00.000","value":9.835,"Ore_Disponibili":24,"lat":40.9152,"lon":14.7955,"date_only":"2025-10-11T00:00:00.000"},{"station":"IT0936A","station_name":"Avellino AV41 Sc. V Circolo \u00b0","pollutant":"PM2,5","date":"2025-10-11T00:00:00.000","value":7.2208333333,"Ore_Disponibili":24,"lat":40.9152,"lon":14.7955,"date_only":"2025-10-11T00:00:00.000"},{"station":"IT1041A","station_name":"Salerno SA23 Scuola Conti \u00b0","pollutant":"NO2","date":"2025-10-11T00:00:00.000","value":16.6425,"Ore_Disponibili":24,"lat":40.675,"lon":14.768,"date_only":"2025-10-11T00:00:00.000"},{"station":"IT1041A","station_name":"Salerno SA23 Scuola Conti \u00b0","pollutant":"PM2,5","date":"2025-10-11T00:00:00.000","value":1.6,"Ore_Disponibili":24,"lat":40.675,"lon":14.768,"date_only":"2025-10-11T00:00:00.000"},{"station":"IT1486A","station_name":"Caserta CE51 Ist. Manzoni","pollutant":"NO2","date":"2025-10-11T00:00:00.000","value":12.582173913,"Ore_Disponibili":23,"lat":41.0818,"lon":14.3349,"date_only":"2025-10-11T00:00:00.000"},{"station":"IT1486A","station_name":"Caserta CE51 Ist. Manzoni","pollutant":"O3","date":"2025-10-11T00:00:00.000","value":57.4158333333,"Ore_Disponibili":24,"lat":41.0818,"lon":14.3349,"date_only":"2025-10-11T00:00:00.000"},{"station":"IT1487A","station_name":"Caserta CE52 Sc. De Amicis","pollutant":"NO2","date":"2025-10-11T00:00:00.000","value":11.7017391304,"Ore_Disponibili":23,"lat":41.0085302,"lon":14.0787912,"date_only":"2025-10-11T00:00:00.000"},{"station":"IT1487A","station_name":"Caserta CE52 Sc. De Amicis","pollutant":"PM10","date":"2025-10-11T00:00:00.000","value":22.1,"Ore_Disponibili":24,"lat":41.0085302,"lon":14.0787912,"date_only":"2025-10-11T00:00:00.000"},{"station":"IT1487A","station_name":"Caserta CE52 Sc. De Amicis","pollutant":"PM2,5","date":"2025-10-11T00:00:00.000","value":4.0,"Ore_Disponibili":24,"lat":41.0085302,"lon":14.0787912,"date_only":"2025-10-11T00:00:00.000"},{"station":"IT1488A","station_name":"Maddaloni CE54 Sc. Settembrini","pollutant":"NO2","date":"2025-10-11T00:00:00.000","value":15.2573913043,"Ore_Disponibili":23,"lat":41.094,"lon":14.402,"date_only":"2025-10-11T00:00:00.000"},{"station":"IT1488A","station_name":"Maddaloni CE54 Sc. Settembrini","pollutant":"O3","date":"2025-10-11T00:00:00.000","value":48.292173913,"Ore_Disponibili":23,"lat":41.094,"lon":14.402,"date_only":"2025-10-11T00:00:00.000"},{"station":"IT1488A","station_name":"Maddaloni CE54 Sc. Settembrini","pollutant":"PM10","date":"2025-10-11T00:00:00.000","value":11.3816666667,"Ore_Disponibili":24,"lat":41.094,"lon":14.402,"date_only":"2025-10-11T00:00:00.000"},{"station":"IT1488A","station_name":"Maddaloni CE54 Sc. Settembrini","pollutant":"PM2,5","date":"2025-10-11T00:00:00.000","value":5.5470833333,"Ore_Disponibili":24,"lat":41.094,"lon":14.402,"date_only":"2025-10-11T00:00:00.000"},{"station":"IT1491A","station_name":"Napoli NA07 Ferrovia \u00b0","pollutant":"NO2","date":"2025-10-11T00:00:00.000","value":25.74,"Ore_Disponibili":24,"lat":40.8277815,"lon":14.3989433,"date_only":"2025-10-11T00:00:00.000"},{"station":"IT1491A","station_name":"Napoli NA07 Ferrovia \u00b0","pollutant":"PM10","date":"2025-10-11T00:00:00.000","value":19.0565217391,"Ore_Disponibili":23,"lat":40.8277815,"lon":14.3989433,"date_only":"2025-10-11T00:00:00.000"},{"station":"IT1491A","station_name":"Napoli NA07 Ferrovia \u00b0","pollutant":"PM2,5","date":"2025-10-11T00:00:00.000","value":9.0681818182,"Ore_Disponibili":22,"lat":40.8277815,"lon":14.3989433,"date_only":"2025-10-11T00:00:00.000"},{"station":"IT1493A","station_name":"Napoli NA09 Via Argine","pollutant":"NO2","date":"2025-10-11T00:00:00.000","value":38.9135833333,"Ore_Disponibili":24,"lat":40.8560636,"lon":14.3234622,"date_only":"2025-10-11T00:00:00.000"},{"station":"IT1493A","station_name":"Napoli NA09 Via Argine","pollutant":"PM10","date":"2025-10-11T00:00:00.000","value":24.475,"Ore_Disponibili":24,"lat":40.8560636,"lon":14.3234622,"date_only":"2025-10-11T00:00:00.000"},{"station":"IT1493A","station_name":"Napoli NA09 Via Argine","pollutant":"PM2,5","date":"2025-10-11T00:00:00.000","value":13.8916666667,"Ore_Disponibili":24,"lat":40.8560636,"lon":14.3234622,"date_only":"2025-10-11T00:00:00.000"},{"station":"IT1495A","station_name":"Napoli NA08 Osp. N. Pellegrini","pollutant":"NO2","date":"2025-10-11T00:00:00.000","value":19.7545833333,"Ore_Disponibili":24,"lat":40.8535,"lon":14.235,"date_only":"2025-10-11T00:00:00.000"},{"station":"IT1495A","station_name":"Napoli NA08 Osp. N. Pellegrini","pollutant":"PM10","date":"2025-10-11T00:00:00.000","value":24.1,"Ore_Disponibili":24,"lat":40.8535,"lon":14.235,"date_only":"2025-10-11T00:00:00.000"},{"station":"IT1496A","station_name":"Napoli NA02 Osp. Santobono \u00b0","pollutant":"NO2","date":"2025-10-11T00:00:00.000","value":31.39375,"Ore_Disponibili":24,"lat":40.8554,"lon":14.2231,"date_only":"2025-10-11T00:00:00.000"},{"station":"IT1496A","station_name":"Napoli NA02 Osp. Santobono \u00b0","pollutant":"PM10","date":"2025-10-11T00:00:00.000","value":11.01,"Ore_Disponibili":24,"lat":40.8554,"lon":14.2231,"date_only":"2025-10-11T00:00:00.000"},{"station":"IT1496A","station_name":"Napoli NA02 Osp. Santobono \u00b0","pollutant":"PM2,5","date":"2025-10-11T00:00:00.000","value":4.5379166667,"Ore_Disponibili":24,"lat":40.8554,"lon":14.2231,"date_only":"2025-10-11T00:00:00.000"},{"station":"IT1497A","station_name":"Napoli NA01 Oss. Astronomico","pollutant":"NO2","date":"2025-10-11T00:00:00.000","value":11.3391666667,"Ore_Disponibili":24,"lat":40.853,"lon":14.305,"date_only":"2025-10-11T00:00:00.000"},{"station":"IT1497A","station_name":"Napoli NA01 Oss. Astronomico","pollutant":"O3","date":"2025-10-11T00:00:00.000","value":65.3052173913,"Ore_Disponibili":23,"lat":40.853,"lon":14.305,"date_only":"2025-10-11T00:00:00.000"},{"station":"IT1497A","station_name":"Napoli NA01 Oss. Astronomico","pollutant":"PM10","date":"2025-10-11T00:00:00.000","value":11.2233333333,"Ore_Disponibili":24,"lat":40.853,"lon":14.305,"date_only":"2025-10-11T00:00:00.000"},{"station":"IT1497A","station_name":"Napoli NA01 Oss. Astronomico","pollutant":"PM2,5","date":"2025-10-11T00:00:00.000","value":4.1633333333,"Ore_Disponibili":24,"lat":40.853,"lon":14.305,"date_only":"2025-10-11T00:00:00.000"},{"station":"IT1504A","station_name":"Salerno SA22 Osp. Via Vernieri","pollutant":"PM10","date":"2025-10-11T00:00:00.000","value":9.2636363636,"Ore_Disponibili":22,"lat":40.682,"lon":14.766,"date_only":"2025-10-11T00:00:00.000"},{"station":"IT1504A","station_name":"Salerno SA22 Osp. Via Vernieri","pollutant":"PM2,5","date":"2025-10-11T00:00:00.000","value":9.1,"Ore_Disponibili":19,"lat":40.682,"lon":14.766,"date_only":"2025-10-11T00:00:00.000"},{"station":"IT2210A","station_name":"Solofra Zona Industriale","pollutant":"NO2","date":"2025-10-11T00:00:00.000","value":2.7534782609,"Ore_Disponibili":23,"lat":41.058,"lon":14.808,"date_only":"2025-10-11T00:00:00.000"},{"station":"IT2210A","station_name":"Solofra Zona Industriale","pollutant":"PM10","date":"2025-10-11T00:00:00.000","value":8.44,"Ore_Disponibili":24,"lat":41.058,"lon":14.808,"date_only":"2025-10-11T00:00:00.000"},{"station":"IT2210A","station_name":"Solofra Zona Industriale","pollutant":"PM2,5","date":"2025-10-11T00:00:00.000","value":5.2545833333,"Ore_Disponibili":24,"lat":41.058,"lon":14.808,"date_only":"2025-10-11T00:00:00.000"},{"station":"IT2211A","station_name":"Acerra Zona Industriale","pollutant":"NO2","date":"2025-10-11T00:00:00.000","value":23.7030434783,"Ore_Disponibili":23,"lat":40.9847962,"lon":14.3679606,"date_only":"2025-10-11T00:00:00.000"},{"station":"IT2211A","station_name":"Acerra Zona Industriale","pollutant":"PM10","date":"2025-10-11T00:00:00.000","value":16.2,"Ore_Disponibili":24,"lat":40.9847962,"lon":14.3679606,"date_only":"2025-10-11T00:00:00.000"},{"station":"IT2211A","station_name":"Acerra Zona Industriale","pollutant":"PM2,5","date":"2025-10-11T00:00:00.000","value":5.8,"Ore_Disponibili":24,"lat":40.9847962,"lon":14.3679606,"date_only":"2025-10-11T00:00:00.000"},{"station":"IT2212A","station_name":"S. Vitaliano Scuola Marconi","pollutant":"NO2","date":"2025-10-11T00:00:00.000","value":28.8717391304,"Ore_Disponibili":23,"lat":40.896,"lon":14.46,"date_only":"2025-10-11T00:00:00.000"},{"station":"IT2212A","station_name":"S. Vitaliano Scuola Marconi","pollutant":"O3","date":"2025-10-11T00:00:00.000","value":49.5539130435,"Ore_Disponibili":23,"lat":40.896,"lon":14.46,"date_only":"2025-10-11T00:00:00.000"},{"station":"IT2212A","station_name":"S. Vitaliano Scuola Marconi","pollutant":"PM10","date":"2025-10-11T00:00:00.000","value":13.0879166667,"Ore_Disponibili":24,"lat":40.896,"lon":14.46,"date_only":"2025-10-11T00:00:00.000"},{"station":"IT2212A","station_name":"S. Vitaliano Scuola Marconi","pollutant":"PM2,5","date":"2025-10-11T00:00:00.000","value":5.7716666667,"Ore_Disponibili":24,"lat":40.896,"lon":14.46,"date_only":"2025-10-11T00:00:00.000"},{"station":"IT2213A","station_name":"Cava dei Tirreni Stadio","pollutant":"NO2","date":"2025-10-11T00:00:00.000","value":9.7204347826,"Ore_Disponibili":23,"lat":40.7125,"lon":14.638,"date_only":"2025-10-11T00:00:00.000"},{"station":"IT2213A","station_name":"Cava dei Tirreni Stadio","pollutant":"O3","date":"2025-10-11T00:00:00.000","value":64.34,"Ore_Disponibili":23,"lat":40.7125,"lon":14.638,"date_only":"2025-10-11T00:00:00.000"},{"station":"IT2213A","station_name":"Cava dei Tirreni Stadio","pollutant":"PM10","date":"2025-10-11T00:00:00.000","value":8.64125,"Ore_Disponibili":24,"lat":40.7125,"lon":14.638,"date_only":"2025-10-11T00:00:00.000"},{"station":"IT2213A","station_name":"Cava dei Tirreni Stadio","pollutant":"PM2,5","date":"2025-10-11T00:00:00.000","value":5.12,"Ore_Disponibili":24,"lat":40.7125,"lon":14.638,"date_only":"2025-10-11T00:00:00.000"},{"station":"IT2214A","station_name":"Nocera Inferiore Sc. Solimena","pollutant":"NO2","date":"2025-10-11T00:00:00.000","value":8.08,"Ore_Disponibili":23,"lat":40.7473393,"lon":14.6410145,"date_only":"2025-10-11T00:00:00.000"},{"station":"IT2214A","station_name":"Nocera Inferiore Sc. Solimena","pollutant":"PM10","date":"2025-10-11T00:00:00.000","value":7.1720833333,"Ore_Disponibili":24,"lat":40.7473393,"lon":14.6410145,"date_only":"2025-10-11T00:00:00.000"},{"station":"IT2214A","station_name":"Nocera Inferiore Sc. Solimena","pollutant":"PM2,5","date":"2025-10-11T00:00:00.000","value":3.9433333333,"Ore_Disponibili":24,"lat":40.7473393,"lon":14.6410145,"date_only":"2025-10-11T00:00:00.000"},{"station":"IT2215A","station_name":"Benevento Zona Industriale \u00b0","pollutant":"NO2","date":"2025-10-11T00:00:00.000","value":7.3277272727,"Ore_Disponibili":22,"lat":41.2293368,"lon":14.4782074,"date_only":"2025-10-11T00:00:00.000"},{"station":"IT2215A","station_name":"Benevento Zona Industriale \u00b0","pollutant":"O3","date":"2025-10-11T00:00:00.000","value":44.1747826087,"Ore_Disponibili":23,"lat":41.2293368,"lon":14.4782074,"date_only":"2025-10-11T00:00:00.000"},{"station":"IT2215A","station_name":"Benevento Zona Industriale \u00b0","pollutant":"PM10","date":"2025-10-11T00:00:00.000","value":17.2316666667,"Ore_Disponibili":24,"lat":41.2293368,"lon":14.4782074,"date_only":"2025-10-11T00:00:00.000"},{"station":"IT2215A","station_name":"Benevento Zona Industriale \u00b0","pollutant":"PM2,5","date":"2025-10-11T00:00:00.000","value":9.0595833333,"Ore_Disponibili":24,"lat":41.2293368,"lon":14.4782074,"date_only":"2025-10-11T00:00:00.000"},{"station":"IT2216A","station_name":"Casoria Scuola Palizzi","pollutant":"NO2","date":"2025-10-11T00:00:00.000","value":22.8291304348,"Ore_Disponibili":23,"lat":40.904,"lon":14.289,"date_only":"2025-10-11T00:00:00.000"},{"station":"IT2216A","station_name":"Casoria Scuola Palizzi","pollutant":"O3","date":"2025-10-11T00:00:00.000","value":44.2634782609,"Ore_Disponibili":23,"lat":40.904,"lon":14.289,"date_only":"2025-10-11T00:00:00.000"},{"station":"IT2216A","station_name":"Casoria Scuola Palizzi","pollutant":"PM10","date":"2025-10-11T00:00:00.000","value":24.9879166667,"Ore_Disponibili":24,"lat":40.904,"lon":14.289,"date_only":"2025-10-11T00:00:00.000"},{"station":"IT2216A","station_name":"Casoria Scuola Palizzi","pollutant":"PM2,5","date":"2025-10-11T00:00:00.000","value":10.365,"Ore_Disponibili":24,"lat":40.904,"lon":14.289,"date_only":"2025-10-11T00:00:00.000"},{"station":"IT2217A","station_name":"Torre Annunziata Sc. Pascoli","pollutant":"NO2","date":"2025-10-11T00:00:00.000","value":15.19,"Ore_Disponibili":17,"lat":40.7469754,"lon":14.4608234,"date_only":"2025-10-11T00:00:00.000"},{"station":"IT2217A","station_name":"Torre Annunziata Sc. Pascoli","pollutant":"O3","date":"2025-10-11T00:00:00.000","value":54.0591304348,"Ore_Disponibili":23,"lat":40.7469754,"lon":14.4608234,"date_only":"2025-10-11T00:00:00.000"},{"station":"IT2218A","station_name":"San Felice a Cancello C. Scolast.","pollutant":"NO2","date":"2025-10-11T00:00:00.000","value":2.6252173913,"Ore_Disponibili":23,"lat":41.015,"lon":14.287,"date_only":"2025-10-11T00:00:00.000"},{"station":"IT2218A","station_name":"San Felice a Cancello C. Scolast.","pollutant":"O3","date":"2025-10-11T00:00:00.000","value":74.7391304348,"Ore_Disponibili":23,"lat":41.015,"lon":14.287,"date_only":"2025-10-11T00:00:00.000"},{"station":"IT2218A","station_name":"San Felice a Cancello C. Scolast.","pollutant":"PM10","date":"2025-10-11T00:00:00.000","value":14.0954166667,"Ore_Disponibili":24,"lat":41.015,"lon":14.287,"date_only":"2025-10-11T00:00:00.000"},{"station":"IT2218A","station_name":"San Felice a Cancello C. Scolast.","pollutant":"PM2,5","date":"2025-10-11T00:00:00.000","value":4.5845833333,"Ore_Disponibili":24,"lat":41.015,"lon":14.287,"date_only":"2025-10-11T00:00:00.000"},{"station":"IT2219A","station_name":"Acerra Scuola Caporale","pollutant":"NO2","date":"2025-10-11T00:00:00.000","value":20.1539130435,"Ore_Disponibili":23,"lat":40.9071,"lon":14.3429,"date_only":"2025-10-11T00:00:00.000"},{"station":"IT2219A","station_name":"Acerra Scuola Caporale","pollutant":"PM10","date":"2025-10-11T00:00:00.000","value":23.6633333333,"Ore_Disponibili":24,"lat":40.9071,"lon":14.3429,"date_only":"2025-10-11T00:00:00.000"},{"station":"IT2219A","station_name":"Acerra Scuola Caporale","pollutant":"PM2,5","date":"2025-10-11T00:00:00.000","value":8.5733333333,"Ore_Disponibili":24,"lat":40.9071,"lon":14.3429,"date_only":"2025-10-11T00:00:00.000"},{"station":"IT2221A","station_name":"Napoli via Epomeo *\u00b0","pollutant":"NO2","date":"2025-10-11T00:00:00.000","value":19.5660869565,"Ore_Disponibili":23,"lat":40.7205434,"lon":13.8987737,"date_only":"2025-10-11T00:00:00.000"},{"station":"IT2221A","station_name":"Napoli via Epomeo *\u00b0","pollutant":"O3","date":"2025-10-11T00:00:00.000","value":43.2416666667,"Ore_Disponibili":24,"lat":40.7205434,"lon":13.8987737,"date_only":"2025-10-11T00:00:00.000"},{"station":"IT2221A","station_name":"Napoli via Epomeo *\u00b0","pollutant":"PM10","date":"2025-10-11T00:00:00.000","value":13.1333333333,"Ore_Disponibili":24,"lat":40.7205434,"lon":13.8987737,"date_only":"2025-10-11T00:00:00.000"},{"station":"IT2221A","station_name":"Napoli via Epomeo *\u00b0","pollutant":"PM2,5","date":"2025-10-11T00:00:00.000","value":5.88875,"Ore_Disponibili":24,"lat":40.7205434,"lon":13.8987737,"date_only":"2025-10-11T00:00:00.000"},{"station":"IT2223A","station_name":"Volla Via Filichito *\u00b0","pollutant":"NO2","date":"2025-10-11T00:00:00.000","value":32.97875,"Ore_Disponibili":24,"lat":40.8824226,"lon":14.3478545,"date_only":"2025-10-11T00:00:00.000"},{"station":"IT2223A","station_name":"Volla Via Filichito *\u00b0","pollutant":"O3","date":"2025-10-11T00:00:00.000","value":33.7116666667,"Ore_Disponibili":24,"lat":40.8824226,"lon":14.3478545,"date_only":"2025-10-11T00:00:00.000"},{"station":"IT2223A","station_name":"Volla Via Filichito *\u00b0","pollutant":"PM10","date":"2025-10-11T00:00:00.000","value":15.0041666667,"Ore_Disponibili":24,"lat":40.8824226,"lon":14.3478545,"date_only":"2025-10-11T00:00:00.000"},{"station":"IT2223A","station_name":"Volla Via Filichito *\u00b0","pollutant":"PM2,5","date":"2025-10-11T00:00:00.000","value":7.0954166667,"Ore_Disponibili":24,"lat":40.8824226,"lon":14.3478545,"date_only":"2025-10-11T00:00:00.000"},{"station":"IT2226A","station_name":"Pomigliano d'Arco Area Asi","pollutant":"NO2","date":"2025-10-11T00:00:00.000","value":26.8613043478,"Ore_Disponibili":23,"lat":40.412,"lon":15.341,"date_only":"2025-10-11T00:00:00.000"},{"station":"IT2226A","station_name":"Pomigliano d'Arco Area Asi","pollutant":"PM10","date":"2025-10-11T00:00:00.000","value":21.4291666667,"Ore_Disponibili":24,"lat":40.412,"lon":15.341,"date_only":"2025-10-11T00:00:00.000"},{"station":"IT2226A","station_name":"Pomigliano d'Arco Area Asi","pollutant":"PM2,5","date":"2025-10-11T00:00:00.000","value":12.0,"Ore_Disponibili":23,"lat":40.412,"lon":15.341,"date_only":"2025-10-11T00:00:00.000"},{"station":"IT2227A","station_name":"Avellino Scuola Alighieri","pollutant":"NO2","date":"2025-10-11T00:00:00.000","value":20.8745833333,"Ore_Disponibili":24,"lat":40.9190395,"lon":14.784947,"date_only":"2025-10-11T00:00:00.000"},{"station":"IT2227A","station_name":"Avellino Scuola Alighieri","pollutant":"PM10","date":"2025-10-11T00:00:00.000","value":6.2954166667,"Ore_Disponibili":24,"lat":40.9190395,"lon":14.784947,"date_only":"2025-10-11T00:00:00.000"},{"station":"IT2227A","station_name":"Avellino Scuola Alighieri","pollutant":"PM2,5","date":"2025-10-11T00:00:00.000","value":4.3504166667,"Ore_Disponibili":24,"lat":40.9190395,"lon":14.784947,"date_only":"2025-10-11T00:00:00.000"},{"station":"IT2228A","station_name":"Benevento Campo Sportivo","pollutant":"NO2","date":"2025-10-11T00:00:00.000","value":13.55125,"Ore_Disponibili":24,"lat":41.2315276,"lon":14.5332703,"date_only":"2025-10-11T00:00:00.000"},{"station":"IT2228A","station_name":"Benevento Campo Sportivo","pollutant":"O3","date":"2025-10-11T00:00:00.000","value":36.0113043478,"Ore_Disponibili":23,"lat":41.2315276,"lon":14.5332703,"date_only":"2025-10-11T00:00:00.000"},{"station":"IT2228A","station_name":"Benevento Campo Sportivo","pollutant":"PM10","date":"2025-10-11T00:00:00.000","value":14.6183333333,"Ore_Disponibili":24,"lat":41.2315276,"lon":14.5332703,"date_only":"2025-10-11T00:00:00.000"},{"station":"IT2228A","station_name":"Benevento Campo Sportivo","pollutant":"PM2,5","date":"2025-10-11T00:00:00.000","value":9.9470833333,"Ore_Disponibili":24,"lat":41.2315276,"lon":14.5332703,"date_only":"2025-10-11T00:00:00.000"},{"station":"IT2268A","station_name":"Battipaglia Parco Fiume","pollutant":"NO2","date":"2025-10-11T00:00:00.000","value":16.0382608696,"Ore_Disponibili":23,"lat":40.6167,"lon":14.9833,"date_only":"2025-10-11T00:00:00.000"},{"station":"IT2268A","station_name":"Battipaglia Parco Fiume","pollutant":"O3","date":"2025-10-11T00:00:00.000","value":46.0591304348,"Ore_Disponibili":23,"lat":40.6167,"lon":14.9833,"date_only":"2025-10-11T00:00:00.000"},{"station":"IT2268A","station_name":"Battipaglia Parco Fiume","pollutant":"PM10","date":"2025-10-11T00:00:00.000","value":9.3,"Ore_Disponibili":24,"lat":40.6167,"lon":14.9833,"date_only":"2025-10-11T00:00:00.000"},{"station":"IT2268A","station_name":"Battipaglia Parco Fiume","pollutant":"PM2,5","date":"2025-10-11T00:00:00.000","value":3.6,"Ore_Disponibili":24,"lat":40.6167,"lon":14.9833,"date_only":"2025-10-11T00:00:00.000"},{"station":"IT2270A","station_name":"Portici Parco Reggia","pollutant":"NO2","date":"2025-10-11T00:00:00.000","value":25.0982608696,"Ore_Disponibili":23,"lat":40.813588,"lon":14.3476526,"date_only":"2025-10-11T00:00:00.000"},{"station":"IT2270A","station_name":"Portici Parco Reggia","pollutant":"O3","date":"2025-10-11T00:00:00.000","value":41.7608333333,"Ore_Disponibili":24,"lat":40.813588,"lon":14.3476526,"date_only":"2025-10-11T00:00:00.000"},{"station":"IT2270A","station_name":"Portici Parco Reggia","pollutant":"PM10","date":"2025-10-11T00:00:00.000","value":10.77875,"Ore_Disponibili":24,"lat":40.813588,"lon":14.3476526,"date_only":"2025-10-11T00:00:00.000"},{"station":"IT2270A","station_name":"Portici Parco Reggia","pollutant":"PM2,5","date":"2025-10-11T00:00:00.000","value":5.74125,"Ore_Disponibili":24,"lat":40.813588,"lon":14.3476526,"date_only":"2025-10-11T00:00:00.000"},{"station":"IT2271A","station_name":"Aversa Scuola Cirillo \u00b0","pollutant":"NO2","date":"2025-10-11T00:00:00.000","value":21.0413636364,"Ore_Disponibili":22,"lat":40.9758352,"lon":14.2117669,"date_only":"2025-10-11T00:00:00.000"},{"station":"IT2271A","station_name":"Aversa Scuola Cirillo \u00b0","pollutant":"PM10","date":"2025-10-11T00:00:00.000","value":15.20125,"Ore_Disponibili":24,"lat":40.9758352,"lon":14.2117669,"date_only":"2025-10-11T00:00:00.000"},{"station":"IT2271A","station_name":"Aversa Scuola Cirillo \u00b0","pollutant":"PM2,5","date":"2025-10-11T00:00:00.000","value":6.9891666667,"Ore_Disponibili":24,"lat":40.9758352,"lon":14.2117669,"date_only":"2025-10-11T00:00:00.000"},{"station":"IT2272A","station_name":"Pozzuoli Zona Villa Avellino","pollutant":"NO2","date":"2025-10-11T00:00:00.000","value":23.0156521739,"Ore_Disponibili":23,"lat":40.834,"lon":14.119,"date_only":"2025-10-11T00:00:00.000"},{"station":"IT2272A","station_name":"Pozzuoli Zona Villa Avellino","pollutant":"O3","date":"2025-10-11T00:00:00.000","value":30.59,"Ore_Disponibili":24,"lat":40.834,"lon":14.119,"date_only":"2025-10-11T00:00:00.000"},{"station":"IT2272A","station_name":"Pozzuoli Zona Villa Avellino","pollutant":"PM10","date":"2025-10-11T00:00:00.000","value":10.9841666667,"Ore_Disponibili":24,"lat":40.834,"lon":14.119,"date_only":"2025-10-11T00:00:00.000"},{"station":"IT2272A","station_name":"Pozzuoli Zona Villa Avellino","pollutant":"PM2,5","date":"2025-10-11T00:00:00.000","value":4.8279166667,"Ore_Disponibili":24,"lat":40.834,"lon":14.119,"date_only":"2025-10-11T00:00:00.000"},{"station":"IT2273A","station_name":"Polla Area Tritovagliatore","pollutant":"NO2","date":"2025-10-11T00:00:00.000","value":20.8813043478,"Ore_Disponibili":23,"lat":40.412,"lon":15.341,"date_only":"2025-10-11T00:00:00.000"},{"station":"IT2273A","station_name":"Polla Area Tritovagliatore","pollutant":"PM10","date":"2025-10-11T00:00:00.000","value":8.45625,"Ore_Disponibili":24,"lat":40.412,"lon":15.341,"date_only":"2025-10-11T00:00:00.000"},{"station":"IT2273A","station_name":"Polla Area Tritovagliatore","pollutant":"PM2,5","date":"2025-10-11T00:00:00.000","value":5.4995833333,"Ore_Disponibili":24,"lat":40.412,"lon":15.341,"date_only":"2025-10-11T00:00:00.000"},{"station":"IT2276A","station_name":"Ariano Irpino Stadio","pollutant":"NO2","date":"2025-10-11T00:00:00.000","value":3.8439130435,"Ore_Disponibili":23,"lat":41.1555975,"lon":15.0967062,"date_only":"2025-10-11T00:00:00.000"},{"station":"IT2276A","station_name":"Ariano Irpino Stadio","pollutant":"O3","date":"2025-10-11T00:00:00.000","value":81.0791304348,"Ore_Disponibili":23,"lat":41.1555975,"lon":15.0967062,"date_only":"2025-10-11T00:00:00.000"},{"station":"IT2277A","station_name":"Napoli Parco Virgiliano","pollutant":"NO2","date":"2025-10-11T00:00:00.000","value":12.8234782609,"Ore_Disponibili":23,"lat":40.7984999,"lon":14.1790765,"date_only":"2025-10-11T00:00:00.000"},{"station":"IT2277A","station_name":"Napoli Parco Virgiliano","pollutant":"O3","date":"2025-10-11T00:00:00.000","value":72.0441666667,"Ore_Disponibili":24,"lat":40.7984999,"lon":14.1790765,"date_only":"2025-10-11T00:00:00.000"},{"station":"IT2277A","station_name":"Napoli Parco Virgiliano","pollutant":"PM10","date":"2025-10-11T00:00:00.000","value":5.1,"Ore_Disponibili":24,"lat":40.7984999,"lon":14.1790765,"date_only":"2025-10-11T00:00:00.000"},{"station":"IT2277A","station_name":"Napoli Parco Virgiliano","pollutant":"PM2,5","date":"2025-10-11T00:00:00.000","value":4.3,"Ore_Disponibili":24,"lat":40.7984999,"lon":14.1790765,"date_only":"2025-10-11T00:00:00.000"},{"station":"IT2283A","station_name":"Ottati Alburni","pollutant":"NO2","date":"2025-10-11T00:00:00.000","value":1.7330434783,"Ore_Disponibili":23,"lat":40.306,"lon":15.277,"date_only":"2025-10-11T00:00:00.000"},{"station":"IT2283A","station_name":"Ottati Alburni","pollutant":"O3","date":"2025-10-11T00:00:00.000","value":64.5930434783,"Ore_Disponibili":23,"lat":40.306,"lon":15.277,"date_only":"2025-10-11T00:00:00.000"},{"station":"IT2283A","station_name":"Ottati Alburni","pollutant":"PM10","date":"2025-10-11T00:00:00.000","value":0.0,"Ore_Disponibili":24,"lat":40.306,"lon":15.277,"date_only":"2025-10-11T00:00:00.000"},{"station":"IT2283A","station_name":"Ottati Alburni","pollutant":"PM2,5","date":"2025-10-11T00:00:00.000","value":0.0,"Ore_Disponibili":24,"lat":40.306,"lon":15.277,"date_only":"2025-10-11T00:00:00.000"},{"station":"LM01","station_name":"Laboratorio Mobile LM01","pollutant":"NO2","date":"2025-10-11T00:00:00.000","value":33.0876190476,"Ore_Disponibili":21,"lat":40.916943,"lon":14.780833,"date_only":"2025-10-11T00:00:00.000"},{"station":"LM01","station_name":"Laboratorio Mobile LM01","pollutant":"O3","date":"2025-10-11T00:00:00.000","value":53.7433333333,"Ore_Disponibili":24,"lat":40.916943,"lon":14.780833,"date_only":"2025-10-11T00:00:00.000"},{"station":"LM01","station_name":"Laboratorio Mobile LM01","pollutant":"PM10","date":"2025-10-11T00:00:00.000","value":15.2083333333,"Ore_Disponibili":24,"lat":40.916943,"lon":14.780833,"date_only":"2025-10-11T00:00:00.000"},{"station":"LM01","station_name":"Laboratorio Mobile LM01","pollutant":"PM2,5","date":"2025-10-11T00:00:00.000","value":10.6125,"Ore_Disponibili":24,"lat":40.916943,"lon":14.780833,"date_only":"2025-10-11T00:00:00.000"},{"station":"LM03","station_name":"Laboratorio Mobile LM03","pollutant":"NO2","date":"2025-10-11T00:00:00.000","value":10.3418181818,"Ore_Disponibili":22,"lat":40.805622,"lon":14.173979,"date_only":"2025-10-11T00:00:00.000"},{"station":"LM03","station_name":"Laboratorio Mobile LM03","pollutant":"O3","date":"2025-10-11T00:00:00.000","value":58.5854545455,"Ore_Disponibili":22,"lat":40.805622,"lon":14.173979,"date_only":"2025-10-11T00:00:00.000"},{"station":"LM03","station_name":"Laboratorio Mobile LM03","pollutant":"PM10","date":"2025-10-11T00:00:00.000","value":9.8283333333,"Ore_Disponibili":24,"lat":40.805622,"lon":14.173979,"date_only":"2025-10-11T00:00:00.000"},{"station":"LM03","station_name":"Laboratorio Mobile LM03","pollutant":"PM2,5","date":"2025-10-11T00:00:00.000","value":4.5441666667,"Ore_Disponibili":24,"lat":40.805622,"lon":14.173979,"date_only":"2025-10-11T00:00:00.000"},{"station":"MMA61","station_name":"Laboratorio Mobile MMA","pollutant":"NO2","date":"2025-10-11T00:00:00.000","value":24.2495652174,"Ore_Disponibili":23,"lat":null,"lon":null,"date_only":"2025-10-11T00:00:00.000"},{"station":"MMA61","station_name":"Laboratorio Mobile MMA","pollutant":"O3","date":"2025-10-11T00:00:00.000","value":53.5191304348,"Ore_Disponibili":23,"lat":null,"lon":null,"date_only":"2025-10-11T00:00:00.000"},{"station":"MMA61","station_name":"Laboratorio Mobile MMA","pollutant":"PM10","date":"2025-10-11T00:00:00.000","value":10.6175,"Ore_Disponibili":24,"lat":null,"lon":null,"date_only":"2025-10-11T00:00:00.000"},{"station":"MMA61","station_name":"Laboratorio Mobile MMA","pollutant":"PM2,5","date":"2025-10-11T00:00:00.000","value":5.5,"Ore_Disponibili":24,"lat":null,"lon":null,"date_only":"2025-10-11T00:00:00.000"},{"station":"MMB62","station_name":"Laboratorio Mobile MMB","pollutant":"NO2","date":"2025-10-11T00:00:00.000","value":13.47,"Ore_Disponibili":23,"lat":40.805622,"lon":14.173979,"date_only":"2025-10-11T00:00:00.000"},{"station":"MMB62","station_name":"Laboratorio Mobile MMB","pollutant":"O3","date":"2025-10-11T00:00:00.000","value":50.3591304348,"Ore_Disponibili":23,"lat":40.805622,"lon":14.173979,"date_only":"2025-10-11T00:00:00.000"},{"station":"MMB62","station_name":"Laboratorio Mobile MMB","pollutant":"PM10","date":"2025-10-11T00:00:00.000","value":12.3575,"Ore_Disponibili":24,"lat":40.805622,"lon":14.173979,"date_only":"2025-10-11T00:00:00.000"},{"station":"MMB62","station_name":"Laboratorio Mobile MMB","pollutant":"PM2,5","date":"2025-10-11T00:00:00.000","value":7.6104166667,"Ore_Disponibili":24,"lat":40.805622,"lon":14.173979,"date_only":"2025-10-11T00:00:00.000"},{"station":"STIR01","station_name":"Pianodardine STIR","pollutant":"NO2","date":"2025-10-11T00:00:00.000","value":16.7652173913,"Ore_Disponibili":23,"lat":40.9436148,"lon":14.8298173,"date_only":"2025-10-11T00:00:00.000"},{"station":"STIR01","station_name":"Pianodardine STIR","pollutant":"O3","date":"2025-10-11T00:00:00.000","value":32.8886956522,"Ore_Disponibili":23,"lat":40.9436148,"lon":14.8298173,"date_only":"2025-10-11T00:00:00.000"},{"station":"STIR01","station_name":"Pianodardine STIR","pollutant":"PM10","date":"2025-10-11T00:00:00.000","value":11.4,"Ore_Disponibili":24,"lat":40.9436148,"lon":14.8298173,"date_only":"2025-10-11T00:00:00.000"},{"station":"STIR01","station_name":"Pianodardine STIR","pollutant":"PM2,5","date":"2025-10-11T00:00:00.000","value":5.0,"Ore_Disponibili":24,"lat":40.9436148,"lon":14.8298173,"date_only":"2025-10-11T00:00:00.000"},{"station":"STIR03","station_name":"Casalduni STIR","pollutant":"O3","date":"2025-10-11T00:00:00.000","value":63.0286956522,"Ore_Disponibili":23,"lat":41.2595,"lon":14.6949,"date_only":"2025-10-11T00:00:00.000"},{"station":"STIR05","station_name":"Caivano STIR","pollutant":"NO2","date":"2025-10-11T00:00:00.000","value":12.7717391304,"Ore_Disponibili":23,"lat":40.9965849,"lon":14.2944939,"date_only":"2025-10-11T00:00:00.000"},{"station":"STIR05","station_name":"Caivano STIR","pollutant":"O3","date":"2025-10-11T00:00:00.000","value":64.9626086957,"Ore_Disponibili":23,"lat":40.9965849,"lon":14.2944939,"date_only":"2025-10-11T00:00:00.000"},{"station":"STIR05","station_name":"Caivano STIR","pollutant":"PM10","date":"2025-10-11T00:00:00.000","value":12.5,"Ore_Disponibili":24,"lat":40.9965849,"lon":14.2944939,"date_only":"2025-10-11T00:00:00.000"},{"station":"STIR05","station_name":"Caivano STIR","pollutant":"PM2,5","date":"2025-10-11T00:00:00.000","value":4.8,"Ore_Disponibili":24,"lat":40.9965849,"lon":14.2944939,"date_only":"2025-10-11T00:00:00.000"},{"station":"STIR07","station_name":"Battipaglia STIR","pollutant":"NO2","date":"2025-10-11T00:00:00.000","value":8.5991304348,"Ore_Disponibili":23,"lat":40.6167,"lon":14.9833,"date_only":"2025-10-11T00:00:00.000"},{"station":"STIR07","station_name":"Battipaglia STIR","pollutant":"PM10","date":"2025-10-11T00:00:00.000","value":13.6,"Ore_Disponibili":24,"lat":40.6167,"lon":14.9833,"date_only":"2025-10-11T00:00:00.000"},{"station":"STIR07","station_name":"Battipaglia STIR","pollutant":"PM2,5","date":"2025-10-11T00:00:00.000","value":7.0,"Ore_Disponibili":24,"lat":40.6167,"lon":14.9833,"date_only":"2025-10-11T00:00:00.000"},{"station":"STIR08","station_name":"S. Maria Capua V. STIR","pollutant":"NO2","date":"2025-10-11T00:00:00.000","value":19.9175,"Ore_Disponibili":12,"lat":41.048084,"lon":14.2385823,"date_only":"2025-10-11T00:00:00.000"},{"station":"STIR08","station_name":"S. Maria Capua V. STIR","pollutant":"O3","date":"2025-10-11T00:00:00.000","value":16.4290909091,"Ore_Disponibili":11,"lat":41.048084,"lon":14.2385823,"date_only":"2025-10-11T00:00:00.000"},{"station":"STIR10","station_name":"Tufino STIR","pollutant":"O3","date":"2025-10-11T00:00:00.000","value":62.4826086957,"Ore_Disponibili":23,"lat":40.944411,"lon":14.5808578,"date_only":"2025-10-11T00:00:00.000"},{"station":"STIR10","station_name":"Tufino STIR","pollutant":"PM10","date":"2025-10-11T00:00:00.000","value":6.9,"Ore_Disponibili":24,"lat":40.944411,"lon":14.5808578,"date_only":"2025-10-11T00:00:00.000"},{"station":"STIR10","station_name":"Tufino STIR","pollutant":"PM2,5","date":"2025-10-11T00:00:00.000","value":3.7,"Ore_Disponibili":24,"lat":40.944411,"lon":14.5808578,"date_only":"2025-10-11T00:00:00.000"},{"station":"STIR23","station_name":"Giugliano STIR","pollutant":"NO2","date":"2025-10-11T00:00:00.000","value":29.846875,"Ore_Disponibili":16,"lat":40.9385072,"lon":14.1080969,"date_only":"2025-10-11T00:00:00.000"},{"station":"STIR23","station_name":"Giugliano STIR","pollutant":"O3","date":"2025-10-11T00:00:00.000","value":49.5,"Ore_Disponibili":23,"lat":40.9385072,"lon":14.1080969,"date_only":"2025-10-11T00:00:00.000"},{"station":"STIR23","station_name":"Giugliano STIR","pollutant":"PM10","date":"2025-10-11T00:00:00.000","value":16.5,"Ore_Disponibili":24,"lat":40.9385072,"lon":14.1080969,"date_only":"2025-10-11T00:00:00.000"},{"station":"STIR23","station_name":"Giugliano STIR","pollutant":"PM2,5","date":"2025-10-11T00:00:00.000","value":7.1,"Ore_Disponibili":24,"lat":40.9385072,"lon":14.1080969,"date_only":"2025-10-11T00:00:00.000"},{"station":"STIR30","station_name":"Discarica Maruzzella","pollutant":"PM10","date":"2025-10-11T00:00:00.000","value":17.4,"Ore_Disponibili":24,"lat":41.05389,"lon":14.23389,"date_only":"2025-10-11T00:00:00.000"},{"station":"STIR30","station_name":"Discarica Maruzzella","pollutant":"PM2,5","date":"2025-10-11T00:00:00.000","value":0.4,"Ore_Disponibili":24,"lat":41.05389,"lon":14.23389,"date_only":"2025-10-11T00:00:00.000"},{"station":"STIR38","station_name":"Acerra Scuola Capasso","pollutant":"O3","date":"2025-10-11T00:00:00.000","value":43.7860869565,"Ore_Disponibili":23,"lat":40.9071,"lon":14.3429,"date_only":"2025-10-11T00:00:00.000"},{"station":"STIR38","station_name":"Acerra Scuola Capasso","pollutant":"PM10","date":"2025-10-11T00:00:00.000","value":14.6,"Ore_Disponibili":24,"lat":40.9071,"lon":14.3429,"date_only":"2025-10-11T00:00:00.000"},{"station":"STIR38","station_name":"Acerra Scuola Capasso","pollutant":"PM2,5","date":"2025-10-11T00:00:00.000","value":9.1,"Ore_Disponibili":24,"lat":40.9071,"lon":14.3429,"date_only":"2025-10-11T00:00:00.000"}]