[{"station":"IT0898A","station_name":"Napoli NA06 Museo Nazionale","pollutant":"CO","date":"2025-11-13T00:00:00.000","value":1.44625,"Ore_Disponibili":24,"lat":40.8536064,"lon":14.25115,"date_only":"2025-11-13T00:00:00.000"},{"station":"IT0898A","station_name":"Napoli NA06 Museo Nazionale","pollutant":"NO2","date":"2025-11-13T00:00:00.000","value":65.1104347826,"Ore_Disponibili":23,"lat":40.8536064,"lon":14.25115,"date_only":"2025-11-13T00:00:00.000"},{"station":"IT0898A","station_name":"Napoli NA06 Museo Nazionale","pollutant":"PM10","date":"2025-11-13T00:00:00.000","value":38.025,"Ore_Disponibili":24,"lat":40.8536064,"lon":14.25115,"date_only":"2025-11-13T00:00:00.000"},{"station":"IT0898A","station_name":"Napoli NA06 Museo Nazionale","pollutant":"PM2,5","date":"2025-11-13T00:00:00.000","value":30.4208333333,"Ore_Disponibili":24,"lat":40.8536064,"lon":14.25115,"date_only":"2025-11-13T00:00:00.000"},{"station":"IT0934A","station_name":"Benevento BN32 Via Mustilli","pollutant":"NO2","date":"2025-11-13T00:00:00.000","value":31.4875,"Ore_Disponibili":24,"lat":41.1317868,"lon":14.7885516,"date_only":"2025-11-13T00:00:00.000"},{"station":"IT0934A","station_name":"Benevento BN32 Via Mustilli","pollutant":"PM10","date":"2025-11-13T00:00:00.000","value":50.575,"Ore_Disponibili":24,"lat":41.1317868,"lon":14.7885516,"date_only":"2025-11-13T00:00:00.000"},{"station":"IT0934A","station_name":"Benevento BN32 Via Mustilli","pollutant":"PM2,5","date":"2025-11-13T00:00:00.000","value":38.1541666667,"Ore_Disponibili":24,"lat":41.1317868,"lon":14.7885516,"date_only":"2025-11-13T00:00:00.000"},{"station":"IT0936A","station_name":"Avellino AV41 Sc. V Circolo \u00b0","pollutant":"NO2","date":"2025-11-13T00:00:00.000","value":37.7420833333,"Ore_Disponibili":24,"lat":40.9152,"lon":14.7955,"date_only":"2025-11-13T00:00:00.000"},{"station":"IT0936A","station_name":"Avellino AV41 Sc. V Circolo \u00b0","pollutant":"O3","date":"2025-11-13T00:00:00.000","value":19.8283333333,"Ore_Disponibili":24,"lat":40.9152,"lon":14.7955,"date_only":"2025-11-13T00:00:00.000"},{"station":"IT0936A","station_name":"Avellino AV41 Sc. V Circolo \u00b0","pollutant":"PM10","date":"2025-11-13T00:00:00.000","value":50.8883333333,"Ore_Disponibili":24,"lat":40.9152,"lon":14.7955,"date_only":"2025-11-13T00:00:00.000"},{"station":"IT0936A","station_name":"Avellino AV41 Sc. V Circolo \u00b0","pollutant":"PM2,5","date":"2025-11-13T00:00:00.000","value":44.6158333333,"Ore_Disponibili":24,"lat":40.9152,"lon":14.7955,"date_only":"2025-11-13T00:00:00.000"},{"station":"IT1041A","station_name":"Salerno SA23 Scuola Conti \u00b0","pollutant":"NO2","date":"2025-11-13T00:00:00.000","value":46.98125,"Ore_Disponibili":24,"lat":40.675,"lon":14.768,"date_only":"2025-11-13T00:00:00.000"},{"station":"IT1041A","station_name":"Salerno SA23 Scuola Conti \u00b0","pollutant":"O3","date":"2025-11-13T00:00:00.000","value":25.2976470588,"Ore_Disponibili":17,"lat":40.675,"lon":14.768,"date_only":"2025-11-13T00:00:00.000"},{"station":"IT1041A","station_name":"Salerno SA23 Scuola Conti \u00b0","pollutant":"PM2,5","date":"2025-11-13T00:00:00.000","value":24.6,"Ore_Disponibili":24,"lat":40.675,"lon":14.768,"date_only":"2025-11-13T00:00:00.000"},{"station":"IT1486A","station_name":"Caserta CE51 Ist. Manzoni","pollutant":"NO2","date":"2025-11-13T00:00:00.000","value":31.1254166667,"Ore_Disponibili":24,"lat":41.0818,"lon":14.3349,"date_only":"2025-11-13T00:00:00.000"},{"station":"IT1486A","station_name":"Caserta CE51 Ist. Manzoni","pollutant":"O3","date":"2025-11-13T00:00:00.000","value":40.9908333333,"Ore_Disponibili":24,"lat":41.0818,"lon":14.3349,"date_only":"2025-11-13T00:00:00.000"},{"station":"IT1486A","station_name":"Caserta CE51 Ist. Manzoni","pollutant":"PM10","date":"2025-11-13T00:00:00.000","value":28.4272727273,"Ore_Disponibili":11,"lat":41.0818,"lon":14.3349,"date_only":"2025-11-13T00:00:00.000"},{"station":"IT1486A","station_name":"Caserta CE51 Ist. Manzoni","pollutant":"PM2,5","date":"2025-11-13T00:00:00.000","value":18.9090909091,"Ore_Disponibili":11,"lat":41.0818,"lon":14.3349,"date_only":"2025-11-13T00:00:00.000"},{"station":"IT1487A","station_name":"Caserta CE52 Sc. De Amicis","pollutant":"CO","date":"2025-11-13T00:00:00.000","value":0.5134782609,"Ore_Disponibili":23,"lat":41.0085302,"lon":14.0787912,"date_only":"2025-11-13T00:00:00.000"},{"station":"IT1487A","station_name":"Caserta CE52 Sc. De Amicis","pollutant":"NO2","date":"2025-11-13T00:00:00.000","value":23.3034782609,"Ore_Disponibili":23,"lat":41.0085302,"lon":14.0787912,"date_only":"2025-11-13T00:00:00.000"},{"station":"IT1487A","station_name":"Caserta CE52 Sc. De Amicis","pollutant":"PM10","date":"2025-11-13T00:00:00.000","value":39.4,"Ore_Disponibili":24,"lat":41.0085302,"lon":14.0787912,"date_only":"2025-11-13T00:00:00.000"},{"station":"IT1487A","station_name":"Caserta CE52 Sc. De Amicis","pollutant":"PM2,5","date":"2025-11-13T00:00:00.000","value":16.8,"Ore_Disponibili":24,"lat":41.0085302,"lon":14.0787912,"date_only":"2025-11-13T00:00:00.000"},{"station":"IT1488A","station_name":"Maddaloni CE54 Sc. Settembrini","pollutant":"NO2","date":"2025-11-13T00:00:00.000","value":39.8304347826,"Ore_Disponibili":23,"lat":41.094,"lon":14.402,"date_only":"2025-11-13T00:00:00.000"},{"station":"IT1488A","station_name":"Maddaloni CE54 Sc. Settembrini","pollutant":"O3","date":"2025-11-13T00:00:00.000","value":3.4488888889,"Ore_Disponibili":9,"lat":41.094,"lon":14.402,"date_only":"2025-11-13T00:00:00.000"},{"station":"IT1488A","station_name":"Maddaloni CE54 Sc. Settembrini","pollutant":"PM10","date":"2025-11-13T00:00:00.000","value":45.4604166667,"Ore_Disponibili":24,"lat":41.094,"lon":14.402,"date_only":"2025-11-13T00:00:00.000"},{"station":"IT1488A","station_name":"Maddaloni CE54 Sc. Settembrini","pollutant":"PM2,5","date":"2025-11-13T00:00:00.000","value":27.9004166667,"Ore_Disponibili":24,"lat":41.094,"lon":14.402,"date_only":"2025-11-13T00:00:00.000"},{"station":"IT1491A","station_name":"Napoli NA07 Ferrovia \u00b0","pollutant":"CO","date":"2025-11-13T00:00:00.000","value":1.2904166667,"Ore_Disponibili":24,"lat":40.8277815,"lon":14.3989433,"date_only":"2025-11-13T00:00:00.000"},{"station":"IT1491A","station_name":"Napoli NA07 Ferrovia \u00b0","pollutant":"NO2","date":"2025-11-13T00:00:00.000","value":64.0608333333,"Ore_Disponibili":24,"lat":40.8277815,"lon":14.3989433,"date_only":"2025-11-13T00:00:00.000"},{"station":"IT1491A","station_name":"Napoli NA07 Ferrovia \u00b0","pollutant":"PM10","date":"2025-11-13T00:00:00.000","value":41.8208333333,"Ore_Disponibili":24,"lat":40.8277815,"lon":14.3989433,"date_only":"2025-11-13T00:00:00.000"},{"station":"IT1491A","station_name":"Napoli NA07 Ferrovia \u00b0","pollutant":"PM2,5","date":"2025-11-13T00:00:00.000","value":28.8166666667,"Ore_Disponibili":24,"lat":40.8277815,"lon":14.3989433,"date_only":"2025-11-13T00:00:00.000"},{"station":"IT1493A","station_name":"Napoli NA09 Via Argine","pollutant":"CO","date":"2025-11-13T00:00:00.000","value":1.1520833333,"Ore_Disponibili":24,"lat":40.8560636,"lon":14.3234622,"date_only":"2025-11-13T00:00:00.000"},{"station":"IT1493A","station_name":"Napoli NA09 Via Argine","pollutant":"NO2","date":"2025-11-13T00:00:00.000","value":52.4925,"Ore_Disponibili":24,"lat":40.8560636,"lon":14.3234622,"date_only":"2025-11-13T00:00:00.000"},{"station":"IT1493A","station_name":"Napoli NA09 Via Argine","pollutant":"PM10","date":"2025-11-13T00:00:00.000","value":52.2916666667,"Ore_Disponibili":24,"lat":40.8560636,"lon":14.3234622,"date_only":"2025-11-13T00:00:00.000"},{"station":"IT1493A","station_name":"Napoli NA09 Via Argine","pollutant":"PM2,5","date":"2025-11-13T00:00:00.000","value":35.1833333333,"Ore_Disponibili":24,"lat":40.8560636,"lon":14.3234622,"date_only":"2025-11-13T00:00:00.000"},{"station":"IT1495A","station_name":"Napoli NA08 Osp. N. Pellegrini","pollutant":"NO2","date":"2025-11-13T00:00:00.000","value":57.8416666667,"Ore_Disponibili":24,"lat":40.8535,"lon":14.235,"date_only":"2025-11-13T00:00:00.000"},{"station":"IT1495A","station_name":"Napoli NA08 Osp. N. Pellegrini","pollutant":"PM10","date":"2025-11-13T00:00:00.000","value":20.3,"Ore_Disponibili":24,"lat":40.8535,"lon":14.235,"date_only":"2025-11-13T00:00:00.000"},{"station":"IT1496A","station_name":"Napoli NA02 Osp. Santobono \u00b0","pollutant":"NO2","date":"2025-11-13T00:00:00.000","value":64.94625,"Ore_Disponibili":24,"lat":40.8554,"lon":14.2231,"date_only":"2025-11-13T00:00:00.000"},{"station":"IT1496A","station_name":"Napoli NA02 Osp. Santobono \u00b0","pollutant":"PM10","date":"2025-11-13T00:00:00.000","value":25.475,"Ore_Disponibili":24,"lat":40.8554,"lon":14.2231,"date_only":"2025-11-13T00:00:00.000"},{"station":"IT1496A","station_name":"Napoli NA02 Osp. Santobono \u00b0","pollutant":"PM2,5","date":"2025-11-13T00:00:00.000","value":19.375,"Ore_Disponibili":24,"lat":40.8554,"lon":14.2231,"date_only":"2025-11-13T00:00:00.000"},{"station":"IT1497A","station_name":"Napoli NA01 Oss. Astronomico","pollutant":"CO","date":"2025-11-13T00:00:00.000","value":0.3695652174,"Ore_Disponibili":23,"lat":40.853,"lon":14.305,"date_only":"2025-11-13T00:00:00.000"},{"station":"IT1497A","station_name":"Napoli NA01 Oss. Astronomico","pollutant":"NO2","date":"2025-11-13T00:00:00.000","value":27.2204545455,"Ore_Disponibili":22,"lat":40.853,"lon":14.305,"date_only":"2025-11-13T00:00:00.000"},{"station":"IT1497A","station_name":"Napoli NA01 Oss. Astronomico","pollutant":"O3","date":"2025-11-13T00:00:00.000","value":59.947826087,"Ore_Disponibili":23,"lat":40.853,"lon":14.305,"date_only":"2025-11-13T00:00:00.000"},{"station":"IT1497A","station_name":"Napoli NA01 Oss. Astronomico","pollutant":"PM10","date":"2025-11-13T00:00:00.000","value":17.7691666667,"Ore_Disponibili":24,"lat":40.853,"lon":14.305,"date_only":"2025-11-13T00:00:00.000"},{"station":"IT1497A","station_name":"Napoli NA01 Oss. Astronomico","pollutant":"PM2,5","date":"2025-11-13T00:00:00.000","value":14.3233333333,"Ore_Disponibili":24,"lat":40.853,"lon":14.305,"date_only":"2025-11-13T00:00:00.000"},{"station":"IT1504A","station_name":"Salerno SA22 Osp. Via Vernieri","pollutant":"CO","date":"2025-11-13T00:00:00.000","value":0.71,"Ore_Disponibili":24,"lat":40.682,"lon":14.766,"date_only":"2025-11-13T00:00:00.000"},{"station":"IT1504A","station_name":"Salerno SA22 Osp. Via Vernieri","pollutant":"NO2","date":"2025-11-13T00:00:00.000","value":42.3175,"Ore_Disponibili":24,"lat":40.682,"lon":14.766,"date_only":"2025-11-13T00:00:00.000"},{"station":"IT1504A","station_name":"Salerno SA22 Osp. Via Vernieri","pollutant":"PM10","date":"2025-11-13T00:00:00.000","value":29.7217391304,"Ore_Disponibili":23,"lat":40.682,"lon":14.766,"date_only":"2025-11-13T00:00:00.000"},{"station":"IT1504A","station_name":"Salerno SA22 Osp. Via Vernieri","pollutant":"PM2,5","date":"2025-11-13T00:00:00.000","value":18.6863636364,"Ore_Disponibili":22,"lat":40.682,"lon":14.766,"date_only":"2025-11-13T00:00:00.000"},{"station":"IT2210A","station_name":"Solofra Zona Industriale","pollutant":"CO","date":"2025-11-13T00:00:00.000","value":0.8017391304,"Ore_Disponibili":23,"lat":41.058,"lon":14.808,"date_only":"2025-11-13T00:00:00.000"},{"station":"IT2210A","station_name":"Solofra Zona Industriale","pollutant":"NO2","date":"2025-11-13T00:00:00.000","value":18.262173913,"Ore_Disponibili":23,"lat":41.058,"lon":14.808,"date_only":"2025-11-13T00:00:00.000"},{"station":"IT2210A","station_name":"Solofra Zona Industriale","pollutant":"PM10","date":"2025-11-13T00:00:00.000","value":32.4091666667,"Ore_Disponibili":24,"lat":41.058,"lon":14.808,"date_only":"2025-11-13T00:00:00.000"},{"station":"IT2210A","station_name":"Solofra Zona Industriale","pollutant":"PM2,5","date":"2025-11-13T00:00:00.000","value":25.7429166667,"Ore_Disponibili":24,"lat":41.058,"lon":14.808,"date_only":"2025-11-13T00:00:00.000"},{"station":"IT2211A","station_name":"Acerra Zona Industriale","pollutant":"CO","date":"2025-11-13T00:00:00.000","value":0.6782608696,"Ore_Disponibili":23,"lat":40.9847962,"lon":14.3679606,"date_only":"2025-11-13T00:00:00.000"},{"station":"IT2211A","station_name":"Acerra Zona Industriale","pollutant":"NO2","date":"2025-11-13T00:00:00.000","value":50.2113043478,"Ore_Disponibili":23,"lat":40.9847962,"lon":14.3679606,"date_only":"2025-11-13T00:00:00.000"},{"station":"IT2211A","station_name":"Acerra Zona Industriale","pollutant":"PM10","date":"2025-11-13T00:00:00.000","value":84.3,"Ore_Disponibili":24,"lat":40.9847962,"lon":14.3679606,"date_only":"2025-11-13T00:00:00.000"},{"station":"IT2211A","station_name":"Acerra Zona Industriale","pollutant":"PM2,5","date":"2025-11-13T00:00:00.000","value":37.8,"Ore_Disponibili":24,"lat":40.9847962,"lon":14.3679606,"date_only":"2025-11-13T00:00:00.000"},{"station":"IT2212A","station_name":"S. Vitaliano Scuola Marconi","pollutant":"NO2","date":"2025-11-13T00:00:00.000","value":65.8060869565,"Ore_Disponibili":23,"lat":40.896,"lon":14.46,"date_only":"2025-11-13T00:00:00.000"},{"station":"IT2212A","station_name":"S. Vitaliano Scuola Marconi","pollutant":"O3","date":"2025-11-13T00:00:00.000","value":16.5482608696,"Ore_Disponibili":23,"lat":40.896,"lon":14.46,"date_only":"2025-11-13T00:00:00.000"},{"station":"IT2212A","station_name":"S. Vitaliano Scuola Marconi","pollutant":"PM10","date":"2025-11-13T00:00:00.000","value":62.1358333333,"Ore_Disponibili":24,"lat":40.896,"lon":14.46,"date_only":"2025-11-13T00:00:00.000"},{"station":"IT2212A","station_name":"S. Vitaliano Scuola Marconi","pollutant":"PM2,5","date":"2025-11-13T00:00:00.000","value":47.9725,"Ore_Disponibili":24,"lat":40.896,"lon":14.46,"date_only":"2025-11-13T00:00:00.000"},{"station":"IT2213A","station_name":"Cava dei Tirreni Stadio","pollutant":"CO","date":"2025-11-13T00:00:00.000","value":0.6195652174,"Ore_Disponibili":23,"lat":40.7125,"lon":14.638,"date_only":"2025-11-13T00:00:00.000"},{"station":"IT2213A","station_name":"Cava dei Tirreni Stadio","pollutant":"NO2","date":"2025-11-13T00:00:00.000","value":35.7391304348,"Ore_Disponibili":23,"lat":40.7125,"lon":14.638,"date_only":"2025-11-13T00:00:00.000"},{"station":"IT2213A","station_name":"Cava dei Tirreni Stadio","pollutant":"O3","date":"2025-11-13T00:00:00.000","value":36.4347826087,"Ore_Disponibili":23,"lat":40.7125,"lon":14.638,"date_only":"2025-11-13T00:00:00.000"},{"station":"IT2213A","station_name":"Cava dei Tirreni Stadio","pollutant":"PM10","date":"2025-11-13T00:00:00.000","value":28.51375,"Ore_Disponibili":24,"lat":40.7125,"lon":14.638,"date_only":"2025-11-13T00:00:00.000"},{"station":"IT2213A","station_name":"Cava dei Tirreni Stadio","pollutant":"PM2,5","date":"2025-11-13T00:00:00.000","value":23.15375,"Ore_Disponibili":24,"lat":40.7125,"lon":14.638,"date_only":"2025-11-13T00:00:00.000"},{"station":"IT2214A","station_name":"Nocera Inferiore Sc. Solimena","pollutant":"CO","date":"2025-11-13T00:00:00.000","value":0.6847826087,"Ore_Disponibili":23,"lat":40.7473393,"lon":14.6410145,"date_only":"2025-11-13T00:00:00.000"},{"station":"IT2214A","station_name":"Nocera Inferiore Sc. Solimena","pollutant":"NO2","date":"2025-11-13T00:00:00.000","value":47.9352173913,"Ore_Disponibili":23,"lat":40.7473393,"lon":14.6410145,"date_only":"2025-11-13T00:00:00.000"},{"station":"IT2214A","station_name":"Nocera Inferiore Sc. Solimena","pollutant":"PM10","date":"2025-11-13T00:00:00.000","value":45.3216666667,"Ore_Disponibili":24,"lat":40.7473393,"lon":14.6410145,"date_only":"2025-11-13T00:00:00.000"},{"station":"IT2214A","station_name":"Nocera Inferiore Sc. Solimena","pollutant":"PM2,5","date":"2025-11-13T00:00:00.000","value":32.4875,"Ore_Disponibili":24,"lat":40.7473393,"lon":14.6410145,"date_only":"2025-11-13T00:00:00.000"},{"station":"IT2215A","station_name":"Benevento Zona Industriale \u00b0","pollutant":"NO2","date":"2025-11-13T00:00:00.000","value":17.9675,"Ore_Disponibili":24,"lat":41.2293368,"lon":14.4782074,"date_only":"2025-11-13T00:00:00.000"},{"station":"IT2215A","station_name":"Benevento Zona Industriale \u00b0","pollutant":"O3","date":"2025-11-13T00:00:00.000","value":26.8417391304,"Ore_Disponibili":23,"lat":41.2293368,"lon":14.4782074,"date_only":"2025-11-13T00:00:00.000"},{"station":"IT2215A","station_name":"Benevento Zona Industriale \u00b0","pollutant":"PM10","date":"2025-11-13T00:00:00.000","value":35.8445833333,"Ore_Disponibili":24,"lat":41.2293368,"lon":14.4782074,"date_only":"2025-11-13T00:00:00.000"},{"station":"IT2215A","station_name":"Benevento Zona Industriale \u00b0","pollutant":"PM2,5","date":"2025-11-13T00:00:00.000","value":28.97,"Ore_Disponibili":24,"lat":41.2293368,"lon":14.4782074,"date_only":"2025-11-13T00:00:00.000"},{"station":"IT2216A","station_name":"Casoria Scuola Palizzi","pollutant":"NO2","date":"2025-11-13T00:00:00.000","value":58.6273913043,"Ore_Disponibili":23,"lat":40.904,"lon":14.289,"date_only":"2025-11-13T00:00:00.000"},{"station":"IT2216A","station_name":"Casoria Scuola Palizzi","pollutant":"O3","date":"2025-11-13T00:00:00.000","value":17.1808695652,"Ore_Disponibili":23,"lat":40.904,"lon":14.289,"date_only":"2025-11-13T00:00:00.000"},{"station":"IT2216A","station_name":"Casoria Scuola Palizzi","pollutant":"PM10","date":"2025-11-13T00:00:00.000","value":71.675,"Ore_Disponibili":24,"lat":40.904,"lon":14.289,"date_only":"2025-11-13T00:00:00.000"},{"station":"IT2216A","station_name":"Casoria Scuola Palizzi","pollutant":"PM2,5","date":"2025-11-13T00:00:00.000","value":57.0216666667,"Ore_Disponibili":24,"lat":40.904,"lon":14.289,"date_only":"2025-11-13T00:00:00.000"},{"station":"IT2217A","station_name":"Torre Annunziata Sc. Pascoli","pollutant":"NO2","date":"2025-11-13T00:00:00.000","value":30.49,"Ore_Disponibili":23,"lat":40.7469754,"lon":14.4608234,"date_only":"2025-11-13T00:00:00.000"},{"station":"IT2217A","station_name":"Torre Annunziata Sc. Pascoli","pollutant":"O3","date":"2025-11-13T00:00:00.000","value":41.5908695652,"Ore_Disponibili":23,"lat":40.7469754,"lon":14.4608234,"date_only":"2025-11-13T00:00:00.000"},{"station":"IT2218A","station_name":"San Felice a Cancello C. Scolast.","pollutant":"CO","date":"2025-11-13T00:00:00.000","value":0.48625,"Ore_Disponibili":24,"lat":41.015,"lon":14.287,"date_only":"2025-11-13T00:00:00.000"},{"station":"IT2218A","station_name":"San Felice a Cancello C. Scolast.","pollutant":"NO2","date":"2025-11-13T00:00:00.000","value":34.2404347826,"Ore_Disponibili":23,"lat":41.015,"lon":14.287,"date_only":"2025-11-13T00:00:00.000"},{"station":"IT2218A","station_name":"San Felice a Cancello C. Scolast.","pollutant":"O3","date":"2025-11-13T00:00:00.000","value":20.5860869565,"Ore_Disponibili":23,"lat":41.015,"lon":14.287,"date_only":"2025-11-13T00:00:00.000"},{"station":"IT2218A","station_name":"San Felice a Cancello C. Scolast.","pollutant":"PM10","date":"2025-11-13T00:00:00.000","value":41.5675,"Ore_Disponibili":24,"lat":41.015,"lon":14.287,"date_only":"2025-11-13T00:00:00.000"},{"station":"IT2218A","station_name":"San Felice a Cancello C. Scolast.","pollutant":"PM2,5","date":"2025-11-13T00:00:00.000","value":29.5204166667,"Ore_Disponibili":24,"lat":41.015,"lon":14.287,"date_only":"2025-11-13T00:00:00.000"},{"station":"IT2219A","station_name":"Acerra Scuola Caporale","pollutant":"CO","date":"2025-11-13T00:00:00.000","value":1.2839130435,"Ore_Disponibili":23,"lat":40.9071,"lon":14.3429,"date_only":"2025-11-13T00:00:00.000"},{"station":"IT2219A","station_name":"Acerra Scuola Caporale","pollutant":"NO2","date":"2025-11-13T00:00:00.000","value":48.3560869565,"Ore_Disponibili":23,"lat":40.9071,"lon":14.3429,"date_only":"2025-11-13T00:00:00.000"},{"station":"IT2219A","station_name":"Acerra Scuola Caporale","pollutant":"PM10","date":"2025-11-13T00:00:00.000","value":58.9670833333,"Ore_Disponibili":24,"lat":40.9071,"lon":14.3429,"date_only":"2025-11-13T00:00:00.000"},{"station":"IT2219A","station_name":"Acerra Scuola Caporale","pollutant":"PM2,5","date":"2025-11-13T00:00:00.000","value":46.2675,"Ore_Disponibili":24,"lat":40.9071,"lon":14.3429,"date_only":"2025-11-13T00:00:00.000"},{"station":"IT2221A","station_name":"Napoli via Epomeo *\u00b0","pollutant":"CO","date":"2025-11-13T00:00:00.000","value":0.8433333333,"Ore_Disponibili":24,"lat":40.7205434,"lon":13.8987737,"date_only":"2025-11-13T00:00:00.000"},{"station":"IT2221A","station_name":"Napoli via Epomeo *\u00b0","pollutant":"NO2","date":"2025-11-13T00:00:00.000","value":34.2117391304,"Ore_Disponibili":23,"lat":40.7205434,"lon":13.8987737,"date_only":"2025-11-13T00:00:00.000"},{"station":"IT2221A","station_name":"Napoli via Epomeo *\u00b0","pollutant":"O3","date":"2025-11-13T00:00:00.000","value":16.2633333333,"Ore_Disponibili":24,"lat":40.7205434,"lon":13.8987737,"date_only":"2025-11-13T00:00:00.000"},{"station":"IT2221A","station_name":"Napoli via Epomeo *\u00b0","pollutant":"PM10","date":"2025-11-13T00:00:00.000","value":29.5554166667,"Ore_Disponibili":24,"lat":40.7205434,"lon":13.8987737,"date_only":"2025-11-13T00:00:00.000"},{"station":"IT2221A","station_name":"Napoli via Epomeo *\u00b0","pollutant":"PM2,5","date":"2025-11-13T00:00:00.000","value":22.00375,"Ore_Disponibili":24,"lat":40.7205434,"lon":13.8987737,"date_only":"2025-11-13T00:00:00.000"},{"station":"IT2223A","station_name":"Volla Via Filichito *\u00b0","pollutant":"CO","date":"2025-11-13T00:00:00.000","value":1.12875,"Ore_Disponibili":24,"lat":40.8824226,"lon":14.3478545,"date_only":"2025-11-13T00:00:00.000"},{"station":"IT2223A","station_name":"Volla Via Filichito *\u00b0","pollutant":"NO2","date":"2025-11-13T00:00:00.000","value":39.6604166667,"Ore_Disponibili":24,"lat":40.8824226,"lon":14.3478545,"date_only":"2025-11-13T00:00:00.000"},{"station":"IT2223A","station_name":"Volla Via Filichito *\u00b0","pollutant":"O3","date":"2025-11-13T00:00:00.000","value":12.9991666667,"Ore_Disponibili":24,"lat":40.8824226,"lon":14.3478545,"date_only":"2025-11-13T00:00:00.000"},{"station":"IT2223A","station_name":"Volla Via Filichito *\u00b0","pollutant":"PM10","date":"2025-11-13T00:00:00.000","value":41.5670833333,"Ore_Disponibili":24,"lat":40.8824226,"lon":14.3478545,"date_only":"2025-11-13T00:00:00.000"},{"station":"IT2223A","station_name":"Volla Via Filichito *\u00b0","pollutant":"PM2,5","date":"2025-11-13T00:00:00.000","value":31.3470833333,"Ore_Disponibili":24,"lat":40.8824226,"lon":14.3478545,"date_only":"2025-11-13T00:00:00.000"},{"station":"IT2226A","station_name":"Pomigliano d'Arco Area Asi","pollutant":"CO","date":"2025-11-13T00:00:00.000","value":0.552,"Ore_Disponibili":20,"lat":40.412,"lon":15.341,"date_only":"2025-11-13T00:00:00.000"},{"station":"IT2226A","station_name":"Pomigliano d'Arco Area Asi","pollutant":"NO2","date":"2025-11-13T00:00:00.000","value":64.9343478261,"Ore_Disponibili":23,"lat":40.412,"lon":15.341,"date_only":"2025-11-13T00:00:00.000"},{"station":"IT2226A","station_name":"Pomigliano d'Arco Area Asi","pollutant":"PM10","date":"2025-11-13T00:00:00.000","value":51.9529411765,"Ore_Disponibili":17,"lat":40.412,"lon":15.341,"date_only":"2025-11-13T00:00:00.000"},{"station":"IT2226A","station_name":"Pomigliano d'Arco Area Asi","pollutant":"PM2,5","date":"2025-11-13T00:00:00.000","value":39.5352941176,"Ore_Disponibili":17,"lat":40.412,"lon":15.341,"date_only":"2025-11-13T00:00:00.000"},{"station":"IT2227A","station_name":"Avellino Scuola Alighieri","pollutant":"CO","date":"2025-11-13T00:00:00.000","value":1.0870833333,"Ore_Disponibili":24,"lat":40.9190395,"lon":14.784947,"date_only":"2025-11-13T00:00:00.000"},{"station":"IT2227A","station_name":"Avellino Scuola Alighieri","pollutant":"NO2","date":"2025-11-13T00:00:00.000","value":41.4379166667,"Ore_Disponibili":24,"lat":40.9190395,"lon":14.784947,"date_only":"2025-11-13T00:00:00.000"},{"station":"IT2227A","station_name":"Avellino Scuola Alighieri","pollutant":"PM10","date":"2025-11-13T00:00:00.000","value":25.94375,"Ore_Disponibili":24,"lat":40.9190395,"lon":14.784947,"date_only":"2025-11-13T00:00:00.000"},{"station":"IT2227A","station_name":"Avellino Scuola Alighieri","pollutant":"PM2,5","date":"2025-11-13T00:00:00.000","value":21.8695833333,"Ore_Disponibili":24,"lat":40.9190395,"lon":14.784947,"date_only":"2025-11-13T00:00:00.000"},{"station":"IT2228A","station_name":"Benevento Campo Sportivo","pollutant":"NO2","date":"2025-11-13T00:00:00.000","value":22.2441666667,"Ore_Disponibili":24,"lat":41.2315276,"lon":14.5332703,"date_only":"2025-11-13T00:00:00.000"},{"station":"IT2228A","station_name":"Benevento Campo Sportivo","pollutant":"O3","date":"2025-11-13T00:00:00.000","value":19.365,"Ore_Disponibili":24,"lat":41.2315276,"lon":14.5332703,"date_only":"2025-11-13T00:00:00.000"},{"station":"IT2228A","station_name":"Benevento Campo Sportivo","pollutant":"PM10","date":"2025-11-13T00:00:00.000","value":56.2516666667,"Ore_Disponibili":24,"lat":41.2315276,"lon":14.5332703,"date_only":"2025-11-13T00:00:00.000"},{"station":"IT2228A","station_name":"Benevento Campo Sportivo","pollutant":"PM2,5","date":"2025-11-13T00:00:00.000","value":47.09,"Ore_Disponibili":24,"lat":41.2315276,"lon":14.5332703,"date_only":"2025-11-13T00:00:00.000"},{"station":"IT2268A","station_name":"Battipaglia Parco Fiume","pollutant":"NO2","date":"2025-11-13T00:00:00.000","value":28.7847826087,"Ore_Disponibili":23,"lat":40.6167,"lon":14.9833,"date_only":"2025-11-13T00:00:00.000"},{"station":"IT2268A","station_name":"Battipaglia Parco Fiume","pollutant":"O3","date":"2025-11-13T00:00:00.000","value":37.3817391304,"Ore_Disponibili":23,"lat":40.6167,"lon":14.9833,"date_only":"2025-11-13T00:00:00.000"},{"station":"IT2268A","station_name":"Battipaglia Parco Fiume","pollutant":"PM10","date":"2025-11-13T00:00:00.000","value":26.4,"Ore_Disponibili":24,"lat":40.6167,"lon":14.9833,"date_only":"2025-11-13T00:00:00.000"},{"station":"IT2268A","station_name":"Battipaglia Parco Fiume","pollutant":"PM2,5","date":"2025-11-13T00:00:00.000","value":12.6,"Ore_Disponibili":24,"lat":40.6167,"lon":14.9833,"date_only":"2025-11-13T00:00:00.000"},{"station":"IT2270A","station_name":"Portici Parco Reggia","pollutant":"NO2","date":"2025-11-13T00:00:00.000","value":28.4252173913,"Ore_Disponibili":23,"lat":40.813588,"lon":14.3476526,"date_only":"2025-11-13T00:00:00.000"},{"station":"IT2270A","station_name":"Portici Parco Reggia","pollutant":"O3","date":"2025-11-13T00:00:00.000","value":42.6,"Ore_Disponibili":22,"lat":40.813588,"lon":14.3476526,"date_only":"2025-11-13T00:00:00.000"},{"station":"IT2270A","station_name":"Portici Parco Reggia","pollutant":"PM10","date":"2025-11-13T00:00:00.000","value":22.4325,"Ore_Disponibili":24,"lat":40.813588,"lon":14.3476526,"date_only":"2025-11-13T00:00:00.000"},{"station":"IT2270A","station_name":"Portici Parco Reggia","pollutant":"PM2,5","date":"2025-11-13T00:00:00.000","value":17.92875,"Ore_Disponibili":24,"lat":40.813588,"lon":14.3476526,"date_only":"2025-11-13T00:00:00.000"},{"station":"IT2271A","station_name":"Aversa Scuola Cirillo \u00b0","pollutant":"CO","date":"2025-11-13T00:00:00.000","value":1.5282608696,"Ore_Disponibili":23,"lat":40.9758352,"lon":14.2117669,"date_only":"2025-11-13T00:00:00.000"},{"station":"IT2271A","station_name":"Aversa Scuola Cirillo \u00b0","pollutant":"NO2","date":"2025-11-13T00:00:00.000","value":55.6191304348,"Ore_Disponibili":23,"lat":40.9758352,"lon":14.2117669,"date_only":"2025-11-13T00:00:00.000"},{"station":"IT2271A","station_name":"Aversa Scuola Cirillo \u00b0","pollutant":"PM10","date":"2025-11-13T00:00:00.000","value":56.8383333333,"Ore_Disponibili":24,"lat":40.9758352,"lon":14.2117669,"date_only":"2025-11-13T00:00:00.000"},{"station":"IT2271A","station_name":"Aversa Scuola Cirillo \u00b0","pollutant":"PM2,5","date":"2025-11-13T00:00:00.000","value":43.6241666667,"Ore_Disponibili":24,"lat":40.9758352,"lon":14.2117669,"date_only":"2025-11-13T00:00:00.000"},{"station":"IT2272A","station_name":"Pozzuoli Zona Villa Avellino","pollutant":"NO2","date":"2025-11-13T00:00:00.000","value":30.5460869565,"Ore_Disponibili":23,"lat":40.834,"lon":14.119,"date_only":"2025-11-13T00:00:00.000"},{"station":"IT2272A","station_name":"Pozzuoli Zona Villa Avellino","pollutant":"O3","date":"2025-11-13T00:00:00.000","value":31.74,"Ore_Disponibili":24,"lat":40.834,"lon":14.119,"date_only":"2025-11-13T00:00:00.000"},{"station":"IT2272A","station_name":"Pozzuoli Zona Villa Avellino","pollutant":"PM10","date":"2025-11-13T00:00:00.000","value":23.17375,"Ore_Disponibili":24,"lat":40.834,"lon":14.119,"date_only":"2025-11-13T00:00:00.000"},{"station":"IT2272A","station_name":"Pozzuoli Zona Villa Avellino","pollutant":"PM2,5","date":"2025-11-13T00:00:00.000","value":18.0425,"Ore_Disponibili":24,"lat":40.834,"lon":14.119,"date_only":"2025-11-13T00:00:00.000"},{"station":"IT2273A","station_name":"Polla Area Tritovagliatore","pollutant":"CO","date":"2025-11-13T00:00:00.000","value":0.3825,"Ore_Disponibili":4,"lat":40.412,"lon":15.341,"date_only":"2025-11-13T00:00:00.000"},{"station":"IT2273A","station_name":"Polla Area Tritovagliatore","pollutant":"NO2","date":"2025-11-13T00:00:00.000","value":26.6091304348,"Ore_Disponibili":23,"lat":40.412,"lon":15.341,"date_only":"2025-11-13T00:00:00.000"},{"station":"IT2273A","station_name":"Polla Area Tritovagliatore","pollutant":"PM10","date":"2025-11-13T00:00:00.000","value":18.6716666667,"Ore_Disponibili":24,"lat":40.412,"lon":15.341,"date_only":"2025-11-13T00:00:00.000"},{"station":"IT2273A","station_name":"Polla Area Tritovagliatore","pollutant":"PM2,5","date":"2025-11-13T00:00:00.000","value":14.6833333333,"Ore_Disponibili":24,"lat":40.412,"lon":15.341,"date_only":"2025-11-13T00:00:00.000"},{"station":"IT2276A","station_name":"Ariano Irpino Stadio","pollutant":"CO","date":"2025-11-13T00:00:00.000","value":0.32625,"Ore_Disponibili":24,"lat":41.1555975,"lon":15.0967062,"date_only":"2025-11-13T00:00:00.000"},{"station":"IT2276A","station_name":"Ariano Irpino Stadio","pollutant":"NO2","date":"2025-11-13T00:00:00.000","value":16.8234782609,"Ore_Disponibili":23,"lat":41.1555975,"lon":15.0967062,"date_only":"2025-11-13T00:00:00.000"},{"station":"IT2276A","station_name":"Ariano Irpino Stadio","pollutant":"O3","date":"2025-11-13T00:00:00.000","value":79.0981818182,"Ore_Disponibili":22,"lat":41.1555975,"lon":15.0967062,"date_only":"2025-11-13T00:00:00.000"},{"station":"IT2277A","station_name":"Napoli Parco Virgiliano","pollutant":"CO","date":"2025-11-13T00:00:00.000","value":0.2291666667,"Ore_Disponibili":24,"lat":40.7984999,"lon":14.1790765,"date_only":"2025-11-13T00:00:00.000"},{"station":"IT2277A","station_name":"Napoli Parco Virgiliano","pollutant":"NO2","date":"2025-11-13T00:00:00.000","value":24.2004347826,"Ore_Disponibili":23,"lat":40.7984999,"lon":14.1790765,"date_only":"2025-11-13T00:00:00.000"},{"station":"IT2277A","station_name":"Napoli Parco Virgiliano","pollutant":"O3","date":"2025-11-13T00:00:00.000","value":69.9558333333,"Ore_Disponibili":24,"lat":40.7984999,"lon":14.1790765,"date_only":"2025-11-13T00:00:00.000"},{"station":"IT2277A","station_name":"Napoli Parco Virgiliano","pollutant":"PM10","date":"2025-11-13T00:00:00.000","value":17.7,"Ore_Disponibili":24,"lat":40.7984999,"lon":14.1790765,"date_only":"2025-11-13T00:00:00.000"},{"station":"IT2277A","station_name":"Napoli Parco Virgiliano","pollutant":"PM2,5","date":"2025-11-13T00:00:00.000","value":14.3,"Ore_Disponibili":24,"lat":40.7984999,"lon":14.1790765,"date_only":"2025-11-13T00:00:00.000"},{"station":"IT2283A","station_name":"Ottati Alburni","pollutant":"NO2","date":"2025-11-13T00:00:00.000","value":2.227826087,"Ore_Disponibili":23,"lat":40.306,"lon":15.277,"date_only":"2025-11-13T00:00:00.000"},{"station":"IT2283A","station_name":"Ottati Alburni","pollutant":"O3","date":"2025-11-13T00:00:00.000","value":71.0373913043,"Ore_Disponibili":23,"lat":40.306,"lon":15.277,"date_only":"2025-11-13T00:00:00.000"},{"station":"IT2283A","station_name":"Ottati Alburni","pollutant":"PM10","date":"2025-11-13T00:00:00.000","value":5.6,"Ore_Disponibili":24,"lat":40.306,"lon":15.277,"date_only":"2025-11-13T00:00:00.000"},{"station":"IT2283A","station_name":"Ottati Alburni","pollutant":"PM2,5","date":"2025-11-13T00:00:00.000","value":3.3,"Ore_Disponibili":24,"lat":40.306,"lon":15.277,"date_only":"2025-11-13T00:00:00.000"}]