[{"station":"IT0898A","station_name":"NA06 MUSEO NAZIONALE","pollutant":"NO2","date":"2025-03-02T00:00:00.000","value":17.1260869565,"Ore_Disponibili":23,"lat":40.8536064,"lon":14.25115,"date_only":"2025-03-02T00:00:00.000"},{"station":"IT0898A","station_name":"NA06 MUSEO NAZIONALE","pollutant":"PM10","date":"2025-03-02T00:00:00.000","value":14.6166666667,"Ore_Disponibili":24,"lat":40.8536064,"lon":14.25115,"date_only":"2025-03-02T00:00:00.000"},{"station":"IT0898A","station_name":"NA06 MUSEO NAZIONALE","pollutant":"PM2,5","date":"2025-03-02T00:00:00.000","value":11.6875,"Ore_Disponibili":24,"lat":40.8536064,"lon":14.25115,"date_only":"2025-03-02T00:00:00.000"},{"station":"IT0934A","station_name":"BN32 Via Mustilli","pollutant":"NO2","date":"2025-03-02T00:00:00.000","value":15.5826086957,"Ore_Disponibili":23,"lat":41.7572524,"lon":12.3201661,"date_only":"2025-03-02T00:00:00.000"},{"station":"IT0934A","station_name":"BN32 Via Mustilli","pollutant":"PM10","date":"2025-03-02T00:00:00.000","value":19.3333333333,"Ore_Disponibili":12,"lat":41.7572524,"lon":12.3201661,"date_only":"2025-03-02T00:00:00.000"},{"station":"IT0934A","station_name":"BN32 Via Mustilli","pollutant":"PM2,5","date":"2025-03-02T00:00:00.000","value":11.1538461538,"Ore_Disponibili":13,"lat":41.7572524,"lon":12.3201661,"date_only":"2025-03-02T00:00:00.000"},{"station":"IT1041A","station_name":"SA23 SCUOLA OSVALDO CONTI","pollutant":"NO2","date":"2025-03-02T00:00:00.000","value":6.9173913043,"Ore_Disponibili":23,"lat":41.058,"lon":14.808,"date_only":"2025-03-02T00:00:00.000"},{"station":"IT1041A","station_name":"SA23 SCUOLA OSVALDO CONTI","pollutant":"O3","date":"2025-03-02T00:00:00.000","value":69.0304347826,"Ore_Disponibili":23,"lat":41.058,"lon":14.808,"date_only":"2025-03-02T00:00:00.000"},{"station":"IT1041A","station_name":"SA23 SCUOLA OSVALDO CONTI","pollutant":"PM2,5","date":"2025-03-02T00:00:00.000","value":5.9,"Ore_Disponibili":24,"lat":41.058,"lon":14.808,"date_only":"2025-03-02T00:00:00.000"},{"station":"IT1486A","station_name":"CE51 ISTITUTO MANZONI","pollutant":"NO2","date":"2025-03-02T00:00:00.000","value":0.8782608696,"Ore_Disponibili":23,"lat":41.0818,"lon":14.3349,"date_only":"2025-03-02T00:00:00.000"},{"station":"IT1486A","station_name":"CE51 ISTITUTO MANZONI","pollutant":"O3","date":"2025-03-02T00:00:00.000","value":82.3565217391,"Ore_Disponibili":23,"lat":41.0818,"lon":14.3349,"date_only":"2025-03-02T00:00:00.000"},{"station":"IT1486A","station_name":"CE51 ISTITUTO MANZONI","pollutant":"PM10","date":"2025-03-02T00:00:00.000","value":10.2695652174,"Ore_Disponibili":23,"lat":41.0818,"lon":14.3349,"date_only":"2025-03-02T00:00:00.000"},{"station":"IT1486A","station_name":"CE51 ISTITUTO MANZONI","pollutant":"PM2,5","date":"2025-03-02T00:00:00.000","value":7.2916666667,"Ore_Disponibili":24,"lat":41.0818,"lon":14.3349,"date_only":"2025-03-02T00:00:00.000"},{"station":"IT1487A","station_name":"CE52 SCUOLA DE AMICIS","pollutant":"NO2","date":"2025-03-02T00:00:00.000","value":13.0608695652,"Ore_Disponibili":23,"lat":45.4166851,"lon":11.8748262,"date_only":"2025-03-02T00:00:00.000"},{"station":"IT1487A","station_name":"CE52 SCUOLA DE AMICIS","pollutant":"PM10","date":"2025-03-02T00:00:00.000","value":26.1,"Ore_Disponibili":24,"lat":45.4166851,"lon":11.8748262,"date_only":"2025-03-02T00:00:00.000"},{"station":"IT1487A","station_name":"CE52 SCUOLA DE AMICIS","pollutant":"PM2,5","date":"2025-03-02T00:00:00.000","value":2.1,"Ore_Disponibili":24,"lat":45.4166851,"lon":11.8748262,"date_only":"2025-03-02T00:00:00.000"},{"station":"IT1488A","station_name":"CE54 SCUOLA SETTEMBRINI","pollutant":"NO2","date":"2025-03-02T00:00:00.000","value":2.775,"Ore_Disponibili":16,"lat":40.7402509,"lon":14.6724943,"date_only":"2025-03-02T00:00:00.000"},{"station":"IT1488A","station_name":"CE54 SCUOLA SETTEMBRINI","pollutant":"O3","date":"2025-03-02T00:00:00.000","value":52.9826086957,"Ore_Disponibili":23,"lat":40.7402509,"lon":14.6724943,"date_only":"2025-03-02T00:00:00.000"},{"station":"IT1488A","station_name":"CE54 SCUOLA SETTEMBRINI","pollutant":"PM10","date":"2025-03-02T00:00:00.000","value":8.6958333333,"Ore_Disponibili":24,"lat":40.7402509,"lon":14.6724943,"date_only":"2025-03-02T00:00:00.000"},{"station":"IT1488A","station_name":"CE54 SCUOLA SETTEMBRINI","pollutant":"PM2,5","date":"2025-03-02T00:00:00.000","value":5.5458333333,"Ore_Disponibili":24,"lat":40.7402509,"lon":14.6724943,"date_only":"2025-03-02T00:00:00.000"},{"station":"IT1491A","station_name":"NA07 ENTE FERROVIE","pollutant":"NO2","date":"2025-03-02T00:00:00.000","value":15.9652173913,"Ore_Disponibili":23,"lat":45.6541955,"lon":13.7741392,"date_only":"2025-03-02T00:00:00.000"},{"station":"IT1491A","station_name":"NA07 ENTE FERROVIE","pollutant":"PM10","date":"2025-03-02T00:00:00.000","value":11.147826087,"Ore_Disponibili":23,"lat":45.6541955,"lon":13.7741392,"date_only":"2025-03-02T00:00:00.000"},{"station":"IT1491A","station_name":"NA07 ENTE FERROVIE","pollutant":"PM2,5","date":"2025-03-02T00:00:00.000","value":6.2625,"Ore_Disponibili":8,"lat":45.6541955,"lon":13.7741392,"date_only":"2025-03-02T00:00:00.000"},{"station":"IT1493A","station_name":"NA09 I.T.I.S. ARGINE","pollutant":"NO2","date":"2025-03-02T00:00:00.000","value":23.6391304348,"Ore_Disponibili":23,"lat":44.7377462,"lon":11.6477031,"date_only":"2025-03-02T00:00:00.000"},{"station":"IT1493A","station_name":"NA09 I.T.I.S. ARGINE","pollutant":"PM10","date":"2025-03-02T00:00:00.000","value":19.0916666667,"Ore_Disponibili":24,"lat":44.7377462,"lon":11.6477031,"date_only":"2025-03-02T00:00:00.000"},{"station":"IT1493A","station_name":"NA09 I.T.I.S. ARGINE","pollutant":"PM2,5","date":"2025-03-02T00:00:00.000","value":15.7727272727,"Ore_Disponibili":22,"lat":44.7377462,"lon":11.6477031,"date_only":"2025-03-02T00:00:00.000"},{"station":"IT1495A","station_name":"NA08 OSPEDALE NUOVO PELLEGRINI","pollutant":"NO2","date":"2025-03-02T00:00:00.000","value":20.1304347826,"Ore_Disponibili":23,"lat":40.8535,"lon":14.235,"date_only":"2025-03-02T00:00:00.000"},{"station":"IT1495A","station_name":"NA08 OSPEDALE NUOVO PELLEGRINI","pollutant":"PM10","date":"2025-03-02T00:00:00.000","value":16.0,"Ore_Disponibili":24,"lat":40.8535,"lon":14.235,"date_only":"2025-03-02T00:00:00.000"},{"station":"IT1496A","station_name":"NA02 OSPEDALE SANTOBONO","pollutant":"NO2","date":"2025-03-02T00:00:00.000","value":21.5739130435,"Ore_Disponibili":23,"lat":40.8615516,"lon":14.2278503,"date_only":"2025-03-02T00:00:00.000"},{"station":"IT1496A","station_name":"NA02 OSPEDALE SANTOBONO","pollutant":"PM10","date":"2025-03-02T00:00:00.000","value":13.4,"Ore_Disponibili":24,"lat":40.8615516,"lon":14.2278503,"date_only":"2025-03-02T00:00:00.000"},{"station":"IT1496A","station_name":"NA02 OSPEDALE SANTOBONO","pollutant":"PM2,5","date":"2025-03-02T00:00:00.000","value":7.1166666667,"Ore_Disponibili":24,"lat":40.8615516,"lon":14.2278503,"date_only":"2025-03-02T00:00:00.000"},{"station":"IT1504A","station_name":"SA22 Ospedale via Vernieri","pollutant":"NO2","date":"2025-03-02T00:00:00.000","value":4.7173913043,"Ore_Disponibili":23,"lat":40.682,"lon":14.766,"date_only":"2025-03-02T00:00:00.000"},{"station":"IT1504A","station_name":"SA22 Ospedale via Vernieri","pollutant":"PM10","date":"2025-03-02T00:00:00.000","value":10.775,"Ore_Disponibili":24,"lat":40.682,"lon":14.766,"date_only":"2025-03-02T00:00:00.000"},{"station":"IT1504A","station_name":"SA22 Ospedale via Vernieri","pollutant":"PM2,5","date":"2025-03-02T00:00:00.000","value":7.825,"Ore_Disponibili":24,"lat":40.682,"lon":14.766,"date_only":"2025-03-02T00:00:00.000"},{"station":"IT2210A","station_name":"SOLOFRA ZONA INDUSTRIALE","pollutant":"NO2","date":"2025-03-02T00:00:00.000","value":0.8826086957,"Ore_Disponibili":23,"lat":41.058,"lon":14.808,"date_only":"2025-03-02T00:00:00.000"},{"station":"IT2210A","station_name":"SOLOFRA ZONA INDUSTRIALE","pollutant":"PM10","date":"2025-03-02T00:00:00.000","value":9.0208333333,"Ore_Disponibili":24,"lat":41.058,"lon":14.808,"date_only":"2025-03-02T00:00:00.000"},{"station":"IT2210A","station_name":"SOLOFRA ZONA INDUSTRIALE","pollutant":"PM2,5","date":"2025-03-02T00:00:00.000","value":7.2666666667,"Ore_Disponibili":24,"lat":41.058,"lon":14.808,"date_only":"2025-03-02T00:00:00.000"},{"station":"IT2211A","station_name":"ACERRA ZONA INDUSTRIALE","pollutant":"NO2","date":"2025-03-02T00:00:00.000","value":4.0652173913,"Ore_Disponibili":23,"lat":40.9847962,"lon":14.3679606,"date_only":"2025-03-02T00:00:00.000"},{"station":"IT2211A","station_name":"ACERRA ZONA INDUSTRIALE","pollutant":"PM10","date":"2025-03-02T00:00:00.000","value":12.0,"Ore_Disponibili":24,"lat":40.9847962,"lon":14.3679606,"date_only":"2025-03-02T00:00:00.000"},{"station":"IT2211A","station_name":"ACERRA ZONA INDUSTRIALE","pollutant":"PM2,5","date":"2025-03-02T00:00:00.000","value":2.2,"Ore_Disponibili":24,"lat":40.9847962,"lon":14.3679606,"date_only":"2025-03-02T00:00:00.000"},{"station":"IT2212A","station_name":"San Vitaliano Scuola Elementare Marconi","pollutant":"NO2","date":"2025-03-02T00:00:00.000","value":43.247826087,"Ore_Disponibili":23,"lat":40.896,"lon":14.46,"date_only":"2025-03-02T00:00:00.000"},{"station":"IT2212A","station_name":"San Vitaliano Scuola Elementare Marconi","pollutant":"O3","date":"2025-03-02T00:00:00.000","value":65.7913043478,"Ore_Disponibili":23,"lat":40.896,"lon":14.46,"date_only":"2025-03-02T00:00:00.000"},{"station":"IT2212A","station_name":"San Vitaliano Scuola Elementare Marconi","pollutant":"PM10","date":"2025-03-02T00:00:00.000","value":10.3416666667,"Ore_Disponibili":24,"lat":40.896,"lon":14.46,"date_only":"2025-03-02T00:00:00.000"},{"station":"IT2212A","station_name":"San Vitaliano Scuola Elementare Marconi","pollutant":"PM2,5","date":"2025-03-02T00:00:00.000","value":5.925,"Ore_Disponibili":24,"lat":40.896,"lon":14.46,"date_only":"2025-03-02T00:00:00.000"},{"station":"IT2213A","station_name":"CAVA DEI TIRRENI - STADIO","pollutant":"NO2","date":"2025-03-02T00:00:00.000","value":7.4555555556,"Ore_Disponibili":18,"lat":44.4937761,"lon":11.3101851,"date_only":"2025-03-02T00:00:00.000"},{"station":"IT2213A","station_name":"CAVA DEI TIRRENI - STADIO","pollutant":"O3","date":"2025-03-02T00:00:00.000","value":68.4333333333,"Ore_Disponibili":18,"lat":44.4937761,"lon":11.3101851,"date_only":"2025-03-02T00:00:00.000"},{"station":"IT2213A","station_name":"CAVA DEI TIRRENI - STADIO","pollutant":"PM10","date":"2025-03-02T00:00:00.000","value":12.9473684211,"Ore_Disponibili":19,"lat":44.4937761,"lon":11.3101851,"date_only":"2025-03-02T00:00:00.000"},{"station":"IT2213A","station_name":"CAVA DEI TIRRENI - STADIO","pollutant":"PM2,5","date":"2025-03-02T00:00:00.000","value":8.9526315789,"Ore_Disponibili":19,"lat":44.4937761,"lon":11.3101851,"date_only":"2025-03-02T00:00:00.000"},{"station":"IT2214A","station_name":"Nocera Inferiore scuola Solimene","pollutant":"NO2","date":"2025-03-02T00:00:00.000","value":4.2043478261,"Ore_Disponibili":23,"lat":40.7445,"lon":14.734,"date_only":"2025-03-02T00:00:00.000"},{"station":"IT2214A","station_name":"Nocera Inferiore scuola Solimene","pollutant":"PM10","date":"2025-03-02T00:00:00.000","value":10.4083333333,"Ore_Disponibili":24,"lat":40.7445,"lon":14.734,"date_only":"2025-03-02T00:00:00.000"},{"station":"IT2214A","station_name":"Nocera Inferiore scuola Solimene","pollutant":"PM2,5","date":"2025-03-02T00:00:00.000","value":7.3083333333,"Ore_Disponibili":24,"lat":40.7445,"lon":14.734,"date_only":"2025-03-02T00:00:00.000"},{"station":"IT2215A","station_name":"BENEVENTO ZONA INDUSTRIALE","pollutant":"NO2","date":"2025-03-02T00:00:00.000","value":2.975,"Ore_Disponibili":24,"lat":41.2293368,"lon":14.4782074,"date_only":"2025-03-02T00:00:00.000"},{"station":"IT2215A","station_name":"BENEVENTO ZONA INDUSTRIALE","pollutant":"O3","date":"2025-03-02T00:00:00.000","value":30.6217391304,"Ore_Disponibili":23,"lat":41.2293368,"lon":14.4782074,"date_only":"2025-03-02T00:00:00.000"},{"station":"IT2215A","station_name":"BENEVENTO ZONA INDUSTRIALE","pollutant":"PM10","date":"2025-03-02T00:00:00.000","value":7.5875,"Ore_Disponibili":24,"lat":41.2293368,"lon":14.4782074,"date_only":"2025-03-02T00:00:00.000"},{"station":"IT2215A","station_name":"BENEVENTO ZONA INDUSTRIALE","pollutant":"PM2,5","date":"2025-03-02T00:00:00.000","value":5.0166666667,"Ore_Disponibili":24,"lat":41.2293368,"lon":14.4782074,"date_only":"2025-03-02T00:00:00.000"},{"station":"IT2216A","station_name":"Casoria Scuola Palizzi (CAM)","pollutant":"NO2","date":"2025-03-02T00:00:00.000","value":4.4347826087,"Ore_Disponibili":23,"lat":40.904,"lon":14.289,"date_only":"2025-03-02T00:00:00.000"},{"station":"IT2216A","station_name":"Casoria Scuola Palizzi (CAM)","pollutant":"O3","date":"2025-03-02T00:00:00.000","value":64.7956521739,"Ore_Disponibili":23,"lat":40.904,"lon":14.289,"date_only":"2025-03-02T00:00:00.000"},{"station":"IT2216A","station_name":"Casoria Scuola Palizzi (CAM)","pollutant":"PM10","date":"2025-03-02T00:00:00.000","value":10.6375,"Ore_Disponibili":24,"lat":40.904,"lon":14.289,"date_only":"2025-03-02T00:00:00.000"},{"station":"IT2216A","station_name":"Casoria Scuola Palizzi (CAM)","pollutant":"PM2,5","date":"2025-03-02T00:00:00.000","value":7.7,"Ore_Disponibili":24,"lat":40.904,"lon":14.289,"date_only":"2025-03-02T00:00:00.000"},{"station":"IT2217A","station_name":"Torre Annunziata Scuola Media Pascoli","pollutant":"NO2","date":"2025-03-02T00:00:00.000","value":8.0782608696,"Ore_Disponibili":23,"lat":40.831,"lon":14.426,"date_only":"2025-03-02T00:00:00.000"},{"station":"IT2217A","station_name":"Torre Annunziata Scuola Media Pascoli","pollutant":"O3","date":"2025-03-02T00:00:00.000","value":75.6434782609,"Ore_Disponibili":23,"lat":40.831,"lon":14.426,"date_only":"2025-03-02T00:00:00.000"},{"station":"IT2218A","station_name":"San Felice a Cancello Complesso scolastico","pollutant":"NO2","date":"2025-03-02T00:00:00.000","value":0.9458333333,"Ore_Disponibili":24,"lat":41.015,"lon":14.287,"date_only":"2025-03-02T00:00:00.000"},{"station":"IT2218A","station_name":"San Felice a Cancello Complesso scolastico","pollutant":"O3","date":"2025-03-02T00:00:00.000","value":78.9782608696,"Ore_Disponibili":23,"lat":41.015,"lon":14.287,"date_only":"2025-03-02T00:00:00.000"},{"station":"IT2218A","station_name":"San Felice a Cancello Complesso scolastico","pollutant":"PM10","date":"2025-03-02T00:00:00.000","value":8.6125,"Ore_Disponibili":24,"lat":41.015,"lon":14.287,"date_only":"2025-03-02T00:00:00.000"},{"station":"IT2218A","station_name":"San Felice a Cancello Complesso scolastico","pollutant":"PM2,5","date":"2025-03-02T00:00:00.000","value":5.8375,"Ore_Disponibili":24,"lat":41.015,"lon":14.287,"date_only":"2025-03-02T00:00:00.000"},{"station":"IT2219A","station_name":"Acerra scuola Caporale","pollutant":"NO2","date":"2025-03-02T00:00:00.000","value":7.9695652174,"Ore_Disponibili":23,"lat":40.9169,"lon":14.3425,"date_only":"2025-03-02T00:00:00.000"},{"station":"IT2219A","station_name":"Acerra scuola Caporale","pollutant":"PM10","date":"2025-03-02T00:00:00.000","value":14.1791666667,"Ore_Disponibili":24,"lat":40.9169,"lon":14.3425,"date_only":"2025-03-02T00:00:00.000"},{"station":"IT2219A","station_name":"Acerra scuola Caporale","pollutant":"PM2,5","date":"2025-03-02T00:00:00.000","value":8.675,"Ore_Disponibili":24,"lat":40.9169,"lon":14.3425,"date_only":"2025-03-02T00:00:00.000"},{"station":"IT2221A","station_name":"Napoli via Epomeo","pollutant":"NO2","date":"2025-03-02T00:00:00.000","value":9.2130434783,"Ore_Disponibili":23,"lat":40.7205434,"lon":13.8987737,"date_only":"2025-03-02T00:00:00.000"},{"station":"IT2221A","station_name":"Napoli via Epomeo","pollutant":"O3","date":"2025-03-02T00:00:00.000","value":52.7608695652,"Ore_Disponibili":23,"lat":40.7205434,"lon":13.8987737,"date_only":"2025-03-02T00:00:00.000"},{"station":"IT2221A","station_name":"Napoli via Epomeo","pollutant":"PM10","date":"2025-03-02T00:00:00.000","value":10.2166666667,"Ore_Disponibili":24,"lat":40.7205434,"lon":13.8987737,"date_only":"2025-03-02T00:00:00.000"},{"station":"IT2221A","station_name":"Napoli via Epomeo","pollutant":"PM2,5","date":"2025-03-02T00:00:00.000","value":6.6541666667,"Ore_Disponibili":24,"lat":40.7205434,"lon":13.8987737,"date_only":"2025-03-02T00:00:00.000"},{"station":"IT2223A","station_name":"Volla via Filichito","pollutant":"NO2","date":"2025-03-02T00:00:00.000","value":10.6125,"Ore_Disponibili":24,"lat":40.8824226,"lon":14.3478545,"date_only":"2025-03-02T00:00:00.000"},{"station":"IT2223A","station_name":"Volla via Filichito","pollutant":"O3","date":"2025-03-02T00:00:00.000","value":69.3565217391,"Ore_Disponibili":23,"lat":40.8824226,"lon":14.3478545,"date_only":"2025-03-02T00:00:00.000"},{"station":"IT2223A","station_name":"Volla via Filichito","pollutant":"PM10","date":"2025-03-02T00:00:00.000","value":7.3916666667,"Ore_Disponibili":24,"lat":40.8824226,"lon":14.3478545,"date_only":"2025-03-02T00:00:00.000"},{"station":"IT2223A","station_name":"Volla via Filichito","pollutant":"PM2,5","date":"2025-03-02T00:00:00.000","value":5.6,"Ore_Disponibili":24,"lat":40.8824226,"lon":14.3478545,"date_only":"2025-03-02T00:00:00.000"},{"station":"IT2226A","station_name":"Pomigliano d'Arco Area ASI","pollutant":"NO2","date":"2025-03-02T00:00:00.000","value":13.1130434783,"Ore_Disponibili":23,"lat":40.9075,"lon":14.393,"date_only":"2025-03-02T00:00:00.000"},{"station":"IT2226A","station_name":"Pomigliano d'Arco Area ASI","pollutant":"PM10","date":"2025-03-02T00:00:00.000","value":9.775,"Ore_Disponibili":24,"lat":40.9075,"lon":14.393,"date_only":"2025-03-02T00:00:00.000"},{"station":"IT2226A","station_name":"Pomigliano d'Arco Area ASI","pollutant":"PM2,5","date":"2025-03-02T00:00:00.000","value":6.1375,"Ore_Disponibili":24,"lat":40.9075,"lon":14.393,"date_only":"2025-03-02T00:00:00.000"},{"station":"IT2227A","station_name":"AVELLINO - SCUOLA ALIGHIERI","pollutant":"NO2","date":"2025-03-02T00:00:00.000","value":13.7083333333,"Ore_Disponibili":24,"lat":40.9190395,"lon":14.784947,"date_only":"2025-03-02T00:00:00.000"},{"station":"IT2227A","station_name":"AVELLINO - SCUOLA ALIGHIERI","pollutant":"PM10","date":"2025-03-02T00:00:00.000","value":4.075,"Ore_Disponibili":24,"lat":40.9190395,"lon":14.784947,"date_only":"2025-03-02T00:00:00.000"},{"station":"IT2227A","station_name":"AVELLINO - SCUOLA ALIGHIERI","pollutant":"PM2,5","date":"2025-03-02T00:00:00.000","value":3.1375,"Ore_Disponibili":24,"lat":40.9190395,"lon":14.784947,"date_only":"2025-03-02T00:00:00.000"},{"station":"IT2228A","station_name":"BENEVENTO CAMPO SPORTIVO","pollutant":"NO2","date":"2025-03-02T00:00:00.000","value":20.1375,"Ore_Disponibili":24,"lat":41.2315276,"lon":14.5332703,"date_only":"2025-03-02T00:00:00.000"},{"station":"IT2228A","station_name":"BENEVENTO CAMPO SPORTIVO","pollutant":"O3","date":"2025-03-02T00:00:00.000","value":31.9913043478,"Ore_Disponibili":23,"lat":41.2315276,"lon":14.5332703,"date_only":"2025-03-02T00:00:00.000"},{"station":"IT2228A","station_name":"BENEVENTO CAMPO SPORTIVO","pollutant":"PM10","date":"2025-03-02T00:00:00.000","value":11.7291666667,"Ore_Disponibili":24,"lat":41.2315276,"lon":14.5332703,"date_only":"2025-03-02T00:00:00.000"},{"station":"IT2228A","station_name":"BENEVENTO CAMPO SPORTIVO","pollutant":"PM2,5","date":"2025-03-02T00:00:00.000","value":9.5,"Ore_Disponibili":24,"lat":41.2315276,"lon":14.5332703,"date_only":"2025-03-02T00:00:00.000"},{"station":"IT2268A","station_name":"BATTIPAGLIA - PARCO FIUME","pollutant":"NO2","date":"2025-03-02T00:00:00.000","value":11.9956521739,"Ore_Disponibili":23,"lat":44.3859682,"lon":7.5509829,"date_only":"2025-03-02T00:00:00.000"},{"station":"IT2268A","station_name":"BATTIPAGLIA - PARCO FIUME","pollutant":"O3","date":"2025-03-02T00:00:00.000","value":58.9173913043,"Ore_Disponibili":23,"lat":44.3859682,"lon":7.5509829,"date_only":"2025-03-02T00:00:00.000"},{"station":"IT2268A","station_name":"BATTIPAGLIA - PARCO FIUME","pollutant":"PM10","date":"2025-03-02T00:00:00.000","value":10.6,"Ore_Disponibili":24,"lat":44.3859682,"lon":7.5509829,"date_only":"2025-03-02T00:00:00.000"},{"station":"IT2268A","station_name":"BATTIPAGLIA - PARCO FIUME","pollutant":"PM2,5","date":"2025-03-02T00:00:00.000","value":4.3,"Ore_Disponibili":24,"lat":44.3859682,"lon":7.5509829,"date_only":"2025-03-02T00:00:00.000"},{"station":"IT2270A","station_name":"Portici parco Reggia","pollutant":"NO2","date":"2025-03-02T00:00:00.000","value":24.2739130435,"Ore_Disponibili":23,"lat":40.813588,"lon":14.3476526,"date_only":"2025-03-02T00:00:00.000"},{"station":"IT2270A","station_name":"Portici parco Reggia","pollutant":"O3","date":"2025-03-02T00:00:00.000","value":42.852173913,"Ore_Disponibili":23,"lat":40.813588,"lon":14.3476526,"date_only":"2025-03-02T00:00:00.000"},{"station":"IT2270A","station_name":"Portici parco Reggia","pollutant":"PM10","date":"2025-03-02T00:00:00.000","value":14.4875,"Ore_Disponibili":24,"lat":40.813588,"lon":14.3476526,"date_only":"2025-03-02T00:00:00.000"},{"station":"IT2270A","station_name":"Portici parco Reggia","pollutant":"PM2,5","date":"2025-03-02T00:00:00.000","value":9.0791666667,"Ore_Disponibili":24,"lat":40.813588,"lon":14.3476526,"date_only":"2025-03-02T00:00:00.000"},{"station":"IT2271A","station_name":"Aversa scuola Cirillo","pollutant":"NO2","date":"2025-03-02T00:00:00.000","value":7.2739130435,"Ore_Disponibili":23,"lat":40.9758352,"lon":14.2117669,"date_only":"2025-03-02T00:00:00.000"},{"station":"IT2271A","station_name":"Aversa scuola Cirillo","pollutant":"PM10","date":"2025-03-02T00:00:00.000","value":9.2083333333,"Ore_Disponibili":24,"lat":40.9758352,"lon":14.2117669,"date_only":"2025-03-02T00:00:00.000"},{"station":"IT2271A","station_name":"Aversa scuola Cirillo","pollutant":"PM2,5","date":"2025-03-02T00:00:00.000","value":6.2166666667,"Ore_Disponibili":24,"lat":40.9758352,"lon":14.2117669,"date_only":"2025-03-02T00:00:00.000"},{"station":"IT2272A","station_name":"Pozzuoli ex Villa Avellino","pollutant":"NO2","date":"2025-03-02T00:00:00.000","value":7.25,"Ore_Disponibili":24,"lat":40.834,"lon":14.119,"date_only":"2025-03-02T00:00:00.000"},{"station":"IT2272A","station_name":"Pozzuoli ex Villa Avellino","pollutant":"O3","date":"2025-03-02T00:00:00.000","value":64.1208333333,"Ore_Disponibili":24,"lat":40.834,"lon":14.119,"date_only":"2025-03-02T00:00:00.000"},{"station":"IT2272A","station_name":"Pozzuoli ex Villa Avellino","pollutant":"PM10","date":"2025-03-02T00:00:00.000","value":12.3166666667,"Ore_Disponibili":24,"lat":40.834,"lon":14.119,"date_only":"2025-03-02T00:00:00.000"},{"station":"IT2272A","station_name":"Pozzuoli ex Villa Avellino","pollutant":"PM2,5","date":"2025-03-02T00:00:00.000","value":6.6083333333,"Ore_Disponibili":24,"lat":40.834,"lon":14.119,"date_only":"2025-03-02T00:00:00.000"},{"station":"IT2273A","station_name":"Polla Area tritovagliatore","pollutant":"NO2","date":"2025-03-02T00:00:00.000","value":15.9695652174,"Ore_Disponibili":23,"lat":40.412,"lon":15.341,"date_only":"2025-03-02T00:00:00.000"},{"station":"IT2273A","station_name":"Polla Area tritovagliatore","pollutant":"PM10","date":"2025-03-02T00:00:00.000","value":13.5291666667,"Ore_Disponibili":24,"lat":40.412,"lon":15.341,"date_only":"2025-03-02T00:00:00.000"},{"station":"IT2273A","station_name":"Polla Area tritovagliatore","pollutant":"PM2,5","date":"2025-03-02T00:00:00.000","value":11.2541666667,"Ore_Disponibili":24,"lat":40.412,"lon":15.341,"date_only":"2025-03-02T00:00:00.000"},{"station":"IT2276A","station_name":"Ariano Irpino Villa Comunale","pollutant":"NO2","date":"2025-03-02T00:00:00.000","value":4.0,"Ore_Disponibili":24,"lat":41.1549432,"lon":15.0951624,"date_only":"2025-03-02T00:00:00.000"},{"station":"IT2276A","station_name":"Ariano Irpino Villa Comunale","pollutant":"O3","date":"2025-03-02T00:00:00.000","value":84.5,"Ore_Disponibili":23,"lat":41.1549432,"lon":15.0951624,"date_only":"2025-03-02T00:00:00.000"},{"station":"IT2277A","station_name":"Napoli parco Virgiliano","pollutant":"NO2","date":"2025-03-02T00:00:00.000","value":4.725,"Ore_Disponibili":4,"lat":40.7984999,"lon":14.1790765,"date_only":"2025-03-02T00:00:00.000"},{"station":"IT2277A","station_name":"Napoli parco Virgiliano","pollutant":"O3","date":"2025-03-02T00:00:00.000","value":81.4041666667,"Ore_Disponibili":24,"lat":40.7984999,"lon":14.1790765,"date_only":"2025-03-02T00:00:00.000"},{"station":"IT2277A","station_name":"Napoli parco Virgiliano","pollutant":"PM10","date":"2025-03-02T00:00:00.000","value":6.9,"Ore_Disponibili":24,"lat":40.7984999,"lon":14.1790765,"date_only":"2025-03-02T00:00:00.000"},{"station":"IT2277A","station_name":"Napoli parco Virgiliano","pollutant":"PM2,5","date":"2025-03-02T00:00:00.000","value":3.7,"Ore_Disponibili":24,"lat":40.7984999,"lon":14.1790765,"date_only":"2025-03-02T00:00:00.000"},{"station":"IT2283A","station_name":"OTTATI - ALBURNI","pollutant":"NO2","date":"2025-03-02T00:00:00.000","value":1.8217391304,"Ore_Disponibili":23,"lat":40.560311,"lon":15.303957,"date_only":"2025-03-02T00:00:00.000"},{"station":"IT2283A","station_name":"OTTATI - ALBURNI","pollutant":"O3","date":"2025-03-02T00:00:00.000","value":79.652173913,"Ore_Disponibili":23,"lat":40.560311,"lon":15.303957,"date_only":"2025-03-02T00:00:00.000"},{"station":"IT2283A","station_name":"OTTATI - ALBURNI","pollutant":"PM10","date":"2025-03-02T00:00:00.000","value":15.8,"Ore_Disponibili":24,"lat":40.560311,"lon":15.303957,"date_only":"2025-03-02T00:00:00.000"},{"station":"IT2283A","station_name":"OTTATI - ALBURNI","pollutant":"PM2,5","date":"2025-03-02T00:00:00.000","value":6.3,"Ore_Disponibili":24,"lat":40.560311,"lon":15.303957,"date_only":"2025-03-02T00:00:00.000"}]