[{"station":"IT0898A","station_name":"Napoli NA06 Museo Nazionale","pollutant":"CO","date":"2025-12-13T00:00:00.000","value":1.0941666667,"Ore_Disponibili":24,"lat":40.8536064,"lon":14.25115,"date_only":"2025-12-13T00:00:00.000"},{"station":"IT0898A","station_name":"Napoli NA06 Museo Nazionale","pollutant":"NO2","date":"2025-12-13T00:00:00.000","value":55.9545833333,"Ore_Disponibili":24,"lat":40.8536064,"lon":14.25115,"date_only":"2025-12-13T00:00:00.000"},{"station":"IT0898A","station_name":"Napoli NA06 Museo Nazionale","pollutant":"PM10","date":"2025-12-13T00:00:00.000","value":35.85,"Ore_Disponibili":16,"lat":40.8536064,"lon":14.25115,"date_only":"2025-12-13T00:00:00.000"},{"station":"IT0898A","station_name":"Napoli NA06 Museo Nazionale","pollutant":"PM2,5","date":"2025-12-13T00:00:00.000","value":29.8375,"Ore_Disponibili":16,"lat":40.8536064,"lon":14.25115,"date_only":"2025-12-13T00:00:00.000"},{"station":"IT0934A","station_name":"Benevento BN32 Via Mustilli","pollutant":"NO2","date":"2025-12-13T00:00:00.000","value":30.8604166667,"Ore_Disponibili":24,"lat":41.1317868,"lon":14.7885516,"date_only":"2025-12-13T00:00:00.000"},{"station":"IT0934A","station_name":"Benevento BN32 Via Mustilli","pollutant":"PM10","date":"2025-12-13T00:00:00.000","value":70.915,"Ore_Disponibili":20,"lat":41.1317868,"lon":14.7885516,"date_only":"2025-12-13T00:00:00.000"},{"station":"IT0934A","station_name":"Benevento BN32 Via Mustilli","pollutant":"PM2,5","date":"2025-12-13T00:00:00.000","value":48.4047619048,"Ore_Disponibili":21,"lat":41.1317868,"lon":14.7885516,"date_only":"2025-12-13T00:00:00.000"},{"station":"IT0936A","station_name":"Avellino AV41 Sc. V Circolo \u00b0","pollutant":"NO2","date":"2025-12-13T00:00:00.000","value":27.9029166667,"Ore_Disponibili":24,"lat":40.9152,"lon":14.7955,"date_only":"2025-12-13T00:00:00.000"},{"station":"IT0936A","station_name":"Avellino AV41 Sc. V Circolo \u00b0","pollutant":"O3","date":"2025-12-13T00:00:00.000","value":28.3508333333,"Ore_Disponibili":24,"lat":40.9152,"lon":14.7955,"date_only":"2025-12-13T00:00:00.000"},{"station":"IT0936A","station_name":"Avellino AV41 Sc. V Circolo \u00b0","pollutant":"PM10","date":"2025-12-13T00:00:00.000","value":43.3441666667,"Ore_Disponibili":24,"lat":40.9152,"lon":14.7955,"date_only":"2025-12-13T00:00:00.000"},{"station":"IT0936A","station_name":"Avellino AV41 Sc. V Circolo \u00b0","pollutant":"PM2,5","date":"2025-12-13T00:00:00.000","value":40.1045833333,"Ore_Disponibili":24,"lat":40.9152,"lon":14.7955,"date_only":"2025-12-13T00:00:00.000"},{"station":"IT1041A","station_name":"Salerno SA23 Scuola Conti \u00b0","pollutant":"NO2","date":"2025-12-13T00:00:00.000","value":29.2679166667,"Ore_Disponibili":24,"lat":40.675,"lon":14.768,"date_only":"2025-12-13T00:00:00.000"},{"station":"IT1041A","station_name":"Salerno SA23 Scuola Conti \u00b0","pollutant":"O3","date":"2025-12-13T00:00:00.000","value":29.8075,"Ore_Disponibili":24,"lat":40.675,"lon":14.768,"date_only":"2025-12-13T00:00:00.000"},{"station":"IT1041A","station_name":"Salerno SA23 Scuola Conti \u00b0","pollutant":"PM2,5","date":"2025-12-13T00:00:00.000","value":28.3,"Ore_Disponibili":24,"lat":40.675,"lon":14.768,"date_only":"2025-12-13T00:00:00.000"},{"station":"IT1486A","station_name":"Caserta CE51 Ist. Manzoni","pollutant":"NO2","date":"2025-12-13T00:00:00.000","value":24.9245833333,"Ore_Disponibili":24,"lat":41.0818,"lon":14.3349,"date_only":"2025-12-13T00:00:00.000"},{"station":"IT1486A","station_name":"Caserta CE51 Ist. Manzoni","pollutant":"O3","date":"2025-12-13T00:00:00.000","value":48.5358333333,"Ore_Disponibili":24,"lat":41.0818,"lon":14.3349,"date_only":"2025-12-13T00:00:00.000"},{"station":"IT1486A","station_name":"Caserta CE51 Ist. Manzoni","pollutant":"PM10","date":"2025-12-13T00:00:00.000","value":20.4291666667,"Ore_Disponibili":24,"lat":41.0818,"lon":14.3349,"date_only":"2025-12-13T00:00:00.000"},{"station":"IT1486A","station_name":"Caserta CE51 Ist. Manzoni","pollutant":"PM2,5","date":"2025-12-13T00:00:00.000","value":15.4958333333,"Ore_Disponibili":24,"lat":41.0818,"lon":14.3349,"date_only":"2025-12-13T00:00:00.000"},{"station":"IT1487A","station_name":"Caserta CE52 Sc. De Amicis","pollutant":"CO","date":"2025-12-13T00:00:00.000","value":0.5069565217,"Ore_Disponibili":23,"lat":41.0085302,"lon":14.0787912,"date_only":"2025-12-13T00:00:00.000"},{"station":"IT1487A","station_name":"Caserta CE52 Sc. De Amicis","pollutant":"NO2","date":"2025-12-13T00:00:00.000","value":20.7030434783,"Ore_Disponibili":23,"lat":41.0085302,"lon":14.0787912,"date_only":"2025-12-13T00:00:00.000"},{"station":"IT1487A","station_name":"Caserta CE52 Sc. De Amicis","pollutant":"PM10","date":"2025-12-13T00:00:00.000","value":29.2,"Ore_Disponibili":24,"lat":41.0085302,"lon":14.0787912,"date_only":"2025-12-13T00:00:00.000"},{"station":"IT1487A","station_name":"Caserta CE52 Sc. De Amicis","pollutant":"PM2,5","date":"2025-12-13T00:00:00.000","value":13.7,"Ore_Disponibili":24,"lat":41.0085302,"lon":14.0787912,"date_only":"2025-12-13T00:00:00.000"},{"station":"IT1488A","station_name":"Maddaloni CE54 Sc. Settembrini","pollutant":"NO2","date":"2025-12-13T00:00:00.000","value":25.3313043478,"Ore_Disponibili":23,"lat":41.094,"lon":14.402,"date_only":"2025-12-13T00:00:00.000"},{"station":"IT1488A","station_name":"Maddaloni CE54 Sc. Settembrini","pollutant":"O3","date":"2025-12-13T00:00:00.000","value":32.4495652174,"Ore_Disponibili":23,"lat":41.094,"lon":14.402,"date_only":"2025-12-13T00:00:00.000"},{"station":"IT1488A","station_name":"Maddaloni CE54 Sc. Settembrini","pollutant":"PM10","date":"2025-12-13T00:00:00.000","value":43.8445833333,"Ore_Disponibili":24,"lat":41.094,"lon":14.402,"date_only":"2025-12-13T00:00:00.000"},{"station":"IT1488A","station_name":"Maddaloni CE54 Sc. Settembrini","pollutant":"PM2,5","date":"2025-12-13T00:00:00.000","value":35.3754166667,"Ore_Disponibili":24,"lat":41.094,"lon":14.402,"date_only":"2025-12-13T00:00:00.000"},{"station":"IT1491A","station_name":"Napoli NA07 Ferrovia \u00b0","pollutant":"CO","date":"2025-12-13T00:00:00.000","value":1.0625,"Ore_Disponibili":24,"lat":40.8277815,"lon":14.3989433,"date_only":"2025-12-13T00:00:00.000"},{"station":"IT1491A","station_name":"Napoli NA07 Ferrovia \u00b0","pollutant":"NO2","date":"2025-12-13T00:00:00.000","value":57.5204166667,"Ore_Disponibili":24,"lat":40.8277815,"lon":14.3989433,"date_only":"2025-12-13T00:00:00.000"},{"station":"IT1491A","station_name":"Napoli NA07 Ferrovia \u00b0","pollutant":"PM10","date":"2025-12-13T00:00:00.000","value":45.925,"Ore_Disponibili":24,"lat":40.8277815,"lon":14.3989433,"date_only":"2025-12-13T00:00:00.000"},{"station":"IT1491A","station_name":"Napoli NA07 Ferrovia \u00b0","pollutant":"PM2,5","date":"2025-12-13T00:00:00.000","value":38.4291666667,"Ore_Disponibili":24,"lat":40.8277815,"lon":14.3989433,"date_only":"2025-12-13T00:00:00.000"},{"station":"IT1493A","station_name":"Napoli NA09 Via Argine","pollutant":"CO","date":"2025-12-13T00:00:00.000","value":1.5558333333,"Ore_Disponibili":24,"lat":40.8560636,"lon":14.3234622,"date_only":"2025-12-13T00:00:00.000"},{"station":"IT1493A","station_name":"Napoli NA09 Via Argine","pollutant":"NO2","date":"2025-12-13T00:00:00.000","value":57.07625,"Ore_Disponibili":24,"lat":40.8560636,"lon":14.3234622,"date_only":"2025-12-13T00:00:00.000"},{"station":"IT1493A","station_name":"Napoli NA09 Via Argine","pollutant":"PM10","date":"2025-12-13T00:00:00.000","value":81.6708333333,"Ore_Disponibili":24,"lat":40.8560636,"lon":14.3234622,"date_only":"2025-12-13T00:00:00.000"},{"station":"IT1493A","station_name":"Napoli NA09 Via Argine","pollutant":"PM2,5","date":"2025-12-13T00:00:00.000","value":67.275,"Ore_Disponibili":24,"lat":40.8560636,"lon":14.3234622,"date_only":"2025-12-13T00:00:00.000"},{"station":"IT1496A","station_name":"Napoli NA02 Osp. Santobono \u00b0","pollutant":"NO2","date":"2025-12-13T00:00:00.000","value":52.1808333333,"Ore_Disponibili":24,"lat":40.8554,"lon":14.2231,"date_only":"2025-12-13T00:00:00.000"},{"station":"IT1496A","station_name":"Napoli NA02 Osp. Santobono \u00b0","pollutant":"PM10","date":"2025-12-13T00:00:00.000","value":38.7754166667,"Ore_Disponibili":24,"lat":40.8554,"lon":14.2231,"date_only":"2025-12-13T00:00:00.000"},{"station":"IT1496A","station_name":"Napoli NA02 Osp. Santobono \u00b0","pollutant":"PM2,5","date":"2025-12-13T00:00:00.000","value":33.3779166667,"Ore_Disponibili":24,"lat":40.8554,"lon":14.2231,"date_only":"2025-12-13T00:00:00.000"},{"station":"IT1497A","station_name":"Napoli NA01 Oss. Astronomico","pollutant":"CO","date":"2025-12-13T00:00:00.000","value":0.3229166667,"Ore_Disponibili":24,"lat":40.853,"lon":14.305,"date_only":"2025-12-13T00:00:00.000"},{"station":"IT1497A","station_name":"Napoli NA01 Oss. Astronomico","pollutant":"NO2","date":"2025-12-13T00:00:00.000","value":22.1113043478,"Ore_Disponibili":23,"lat":40.853,"lon":14.305,"date_only":"2025-12-13T00:00:00.000"},{"station":"IT1497A","station_name":"Napoli NA01 Oss. Astronomico","pollutant":"O3","date":"2025-12-13T00:00:00.000","value":40.09,"Ore_Disponibili":24,"lat":40.853,"lon":14.305,"date_only":"2025-12-13T00:00:00.000"},{"station":"IT1497A","station_name":"Napoli NA01 Oss. Astronomico","pollutant":"PM10","date":"2025-12-13T00:00:00.000","value":34.3508333333,"Ore_Disponibili":24,"lat":40.853,"lon":14.305,"date_only":"2025-12-13T00:00:00.000"},{"station":"IT1497A","station_name":"Napoli NA01 Oss. Astronomico","pollutant":"PM2,5","date":"2025-12-13T00:00:00.000","value":31.4416666667,"Ore_Disponibili":24,"lat":40.853,"lon":14.305,"date_only":"2025-12-13T00:00:00.000"},{"station":"IT1504A","station_name":"Salerno SA22 Osp. Via Vernieri","pollutant":"CO","date":"2025-12-13T00:00:00.000","value":0.4733333333,"Ore_Disponibili":24,"lat":40.682,"lon":14.766,"date_only":"2025-12-13T00:00:00.000"},{"station":"IT1504A","station_name":"Salerno SA22 Osp. Via Vernieri","pollutant":"NO2","date":"2025-12-13T00:00:00.000","value":30.57875,"Ore_Disponibili":24,"lat":40.682,"lon":14.766,"date_only":"2025-12-13T00:00:00.000"},{"station":"IT1504A","station_name":"Salerno SA22 Osp. Via Vernieri","pollutant":"PM10","date":"2025-12-13T00:00:00.000","value":24.9380952381,"Ore_Disponibili":21,"lat":40.682,"lon":14.766,"date_only":"2025-12-13T00:00:00.000"},{"station":"IT1504A","station_name":"Salerno SA22 Osp. Via Vernieri","pollutant":"PM2,5","date":"2025-12-13T00:00:00.000","value":22.019047619,"Ore_Disponibili":21,"lat":40.682,"lon":14.766,"date_only":"2025-12-13T00:00:00.000"},{"station":"IT2210A","station_name":"Solofra Zona Industriale","pollutant":"CO","date":"2025-12-13T00:00:00.000","value":1.0395652174,"Ore_Disponibili":23,"lat":41.058,"lon":14.808,"date_only":"2025-12-13T00:00:00.000"},{"station":"IT2210A","station_name":"Solofra Zona Industriale","pollutant":"NO2","date":"2025-12-13T00:00:00.000","value":16.1917391304,"Ore_Disponibili":23,"lat":41.058,"lon":14.808,"date_only":"2025-12-13T00:00:00.000"},{"station":"IT2210A","station_name":"Solofra Zona Industriale","pollutant":"PM10","date":"2025-12-13T00:00:00.000","value":38.1054166667,"Ore_Disponibili":24,"lat":41.058,"lon":14.808,"date_only":"2025-12-13T00:00:00.000"},{"station":"IT2210A","station_name":"Solofra Zona Industriale","pollutant":"PM2,5","date":"2025-12-13T00:00:00.000","value":34.86625,"Ore_Disponibili":24,"lat":41.058,"lon":14.808,"date_only":"2025-12-13T00:00:00.000"},{"station":"IT2211A","station_name":"Acerra Zona Industriale","pollutant":"CO","date":"2025-12-13T00:00:00.000","value":0.987826087,"Ore_Disponibili":23,"lat":40.9847962,"lon":14.3679606,"date_only":"2025-12-13T00:00:00.000"},{"station":"IT2211A","station_name":"Acerra Zona Industriale","pollutant":"NO2","date":"2025-12-13T00:00:00.000","value":39.4852173913,"Ore_Disponibili":23,"lat":40.9847962,"lon":14.3679606,"date_only":"2025-12-13T00:00:00.000"},{"station":"IT2211A","station_name":"Acerra Zona Industriale","pollutant":"PM10","date":"2025-12-13T00:00:00.000","value":71.9,"Ore_Disponibili":24,"lat":40.9847962,"lon":14.3679606,"date_only":"2025-12-13T00:00:00.000"},{"station":"IT2211A","station_name":"Acerra Zona Industriale","pollutant":"PM2,5","date":"2025-12-13T00:00:00.000","value":48.4,"Ore_Disponibili":24,"lat":40.9847962,"lon":14.3679606,"date_only":"2025-12-13T00:00:00.000"},{"station":"IT2212A","station_name":"S. Vitaliano Scuola Marconi","pollutant":"NO2","date":"2025-12-13T00:00:00.000","value":67.6595652174,"Ore_Disponibili":23,"lat":40.896,"lon":14.46,"date_only":"2025-12-13T00:00:00.000"},{"station":"IT2212A","station_name":"S. Vitaliano Scuola Marconi","pollutant":"O3","date":"2025-12-13T00:00:00.000","value":29.7747826087,"Ore_Disponibili":23,"lat":40.896,"lon":14.46,"date_only":"2025-12-13T00:00:00.000"},{"station":"IT2212A","station_name":"S. Vitaliano Scuola Marconi","pollutant":"PM10","date":"2025-12-13T00:00:00.000","value":117.79,"Ore_Disponibili":24,"lat":40.896,"lon":14.46,"date_only":"2025-12-13T00:00:00.000"},{"station":"IT2212A","station_name":"S. Vitaliano Scuola Marconi","pollutant":"PM2,5","date":"2025-12-13T00:00:00.000","value":109.6970833333,"Ore_Disponibili":24,"lat":40.896,"lon":14.46,"date_only":"2025-12-13T00:00:00.000"},{"station":"IT2213A","station_name":"Cava dei Tirreni Stadio","pollutant":"CO","date":"2025-12-13T00:00:00.000","value":1.0304347826,"Ore_Disponibili":23,"lat":40.7125,"lon":14.638,"date_only":"2025-12-13T00:00:00.000"},{"station":"IT2213A","station_name":"Cava dei Tirreni Stadio","pollutant":"NO2","date":"2025-12-13T00:00:00.000","value":43.59,"Ore_Disponibili":23,"lat":40.7125,"lon":14.638,"date_only":"2025-12-13T00:00:00.000"},{"station":"IT2213A","station_name":"Cava dei Tirreni Stadio","pollutant":"O3","date":"2025-12-13T00:00:00.000","value":24.687826087,"Ore_Disponibili":23,"lat":40.7125,"lon":14.638,"date_only":"2025-12-13T00:00:00.000"},{"station":"IT2213A","station_name":"Cava dei Tirreni Stadio","pollutant":"PM10","date":"2025-12-13T00:00:00.000","value":47.23125,"Ore_Disponibili":24,"lat":40.7125,"lon":14.638,"date_only":"2025-12-13T00:00:00.000"},{"station":"IT2213A","station_name":"Cava dei Tirreni Stadio","pollutant":"PM2,5","date":"2025-12-13T00:00:00.000","value":42.0775,"Ore_Disponibili":24,"lat":40.7125,"lon":14.638,"date_only":"2025-12-13T00:00:00.000"},{"station":"IT2214A","station_name":"Nocera Inferiore Sc. Solimena","pollutant":"CO","date":"2025-12-13T00:00:00.000","value":0.7,"Ore_Disponibili":23,"lat":40.7473393,"lon":14.6410145,"date_only":"2025-12-13T00:00:00.000"},{"station":"IT2214A","station_name":"Nocera Inferiore Sc. Solimena","pollutant":"NO2","date":"2025-12-13T00:00:00.000","value":40.0043478261,"Ore_Disponibili":23,"lat":40.7473393,"lon":14.6410145,"date_only":"2025-12-13T00:00:00.000"},{"station":"IT2214A","station_name":"Nocera Inferiore Sc. Solimena","pollutant":"PM10","date":"2025-12-13T00:00:00.000","value":47.3658333333,"Ore_Disponibili":24,"lat":40.7473393,"lon":14.6410145,"date_only":"2025-12-13T00:00:00.000"},{"station":"IT2214A","station_name":"Nocera Inferiore Sc. Solimena","pollutant":"PM2,5","date":"2025-12-13T00:00:00.000","value":40.6333333333,"Ore_Disponibili":24,"lat":40.7473393,"lon":14.6410145,"date_only":"2025-12-13T00:00:00.000"},{"station":"IT2215A","station_name":"Benevento Zona Industriale \u00b0","pollutant":"NO2","date":"2025-12-13T00:00:00.000","value":15.11,"Ore_Disponibili":24,"lat":41.2293368,"lon":14.4782074,"date_only":"2025-12-13T00:00:00.000"},{"station":"IT2215A","station_name":"Benevento Zona Industriale \u00b0","pollutant":"O3","date":"2025-12-13T00:00:00.000","value":19.86,"Ore_Disponibili":23,"lat":41.2293368,"lon":14.4782074,"date_only":"2025-12-13T00:00:00.000"},{"station":"IT2215A","station_name":"Benevento Zona Industriale \u00b0","pollutant":"PM10","date":"2025-12-13T00:00:00.000","value":37.6279166667,"Ore_Disponibili":24,"lat":41.2293368,"lon":14.4782074,"date_only":"2025-12-13T00:00:00.000"},{"station":"IT2215A","station_name":"Benevento Zona Industriale \u00b0","pollutant":"PM2,5","date":"2025-12-13T00:00:00.000","value":32.8391666667,"Ore_Disponibili":24,"lat":41.2293368,"lon":14.4782074,"date_only":"2025-12-13T00:00:00.000"},{"station":"IT2216A","station_name":"Casoria Scuola Palizzi","pollutant":"NO2","date":"2025-12-13T00:00:00.000","value":62.8456521739,"Ore_Disponibili":23,"lat":40.904,"lon":14.289,"date_only":"2025-12-13T00:00:00.000"},{"station":"IT2216A","station_name":"Casoria Scuola Palizzi","pollutant":"O3","date":"2025-12-13T00:00:00.000","value":12.4,"Ore_Disponibili":23,"lat":40.904,"lon":14.289,"date_only":"2025-12-13T00:00:00.000"},{"station":"IT2216A","station_name":"Casoria Scuola Palizzi","pollutant":"PM10","date":"2025-12-13T00:00:00.000","value":133.57875,"Ore_Disponibili":24,"lat":40.904,"lon":14.289,"date_only":"2025-12-13T00:00:00.000"},{"station":"IT2216A","station_name":"Casoria Scuola Palizzi","pollutant":"PM2,5","date":"2025-12-13T00:00:00.000","value":114.5883333333,"Ore_Disponibili":24,"lat":40.904,"lon":14.289,"date_only":"2025-12-13T00:00:00.000"},{"station":"IT2217A","station_name":"Torre Annunziata Sc. Pascoli","pollutant":"NO2","date":"2025-12-13T00:00:00.000","value":28.9435,"Ore_Disponibili":20,"lat":40.7469754,"lon":14.4608234,"date_only":"2025-12-13T00:00:00.000"},{"station":"IT2217A","station_name":"Torre Annunziata Sc. Pascoli","pollutant":"O3","date":"2025-12-13T00:00:00.000","value":35.2539130435,"Ore_Disponibili":23,"lat":40.7469754,"lon":14.4608234,"date_only":"2025-12-13T00:00:00.000"},{"station":"IT2218A","station_name":"San Felice a Cancello C. Scolast.","pollutant":"CO","date":"2025-12-13T00:00:00.000","value":0.59125,"Ore_Disponibili":24,"lat":41.015,"lon":14.287,"date_only":"2025-12-13T00:00:00.000"},{"station":"IT2218A","station_name":"San Felice a Cancello C. Scolast.","pollutant":"NO2","date":"2025-12-13T00:00:00.000","value":23.4847826087,"Ore_Disponibili":23,"lat":41.015,"lon":14.287,"date_only":"2025-12-13T00:00:00.000"},{"station":"IT2218A","station_name":"San Felice a Cancello C. Scolast.","pollutant":"O3","date":"2025-12-13T00:00:00.000","value":25.8234782609,"Ore_Disponibili":23,"lat":41.015,"lon":14.287,"date_only":"2025-12-13T00:00:00.000"},{"station":"IT2218A","station_name":"San Felice a Cancello C. Scolast.","pollutant":"PM10","date":"2025-12-13T00:00:00.000","value":51.0366666667,"Ore_Disponibili":24,"lat":41.015,"lon":14.287,"date_only":"2025-12-13T00:00:00.000"},{"station":"IT2218A","station_name":"San Felice a Cancello C. Scolast.","pollutant":"PM2,5","date":"2025-12-13T00:00:00.000","value":41.35625,"Ore_Disponibili":24,"lat":41.015,"lon":14.287,"date_only":"2025-12-13T00:00:00.000"},{"station":"IT2219A","station_name":"Acerra Scuola Caporale","pollutant":"CO","date":"2025-12-13T00:00:00.000","value":1.5547826087,"Ore_Disponibili":23,"lat":40.9071,"lon":14.3429,"date_only":"2025-12-13T00:00:00.000"},{"station":"IT2219A","station_name":"Acerra Scuola Caporale","pollutant":"NO2","date":"2025-12-13T00:00:00.000","value":45.177826087,"Ore_Disponibili":23,"lat":40.9071,"lon":14.3429,"date_only":"2025-12-13T00:00:00.000"},{"station":"IT2219A","station_name":"Acerra Scuola Caporale","pollutant":"PM10","date":"2025-12-13T00:00:00.000","value":100.21625,"Ore_Disponibili":24,"lat":40.9071,"lon":14.3429,"date_only":"2025-12-13T00:00:00.000"},{"station":"IT2219A","station_name":"Acerra Scuola Caporale","pollutant":"PM2,5","date":"2025-12-13T00:00:00.000","value":87.31625,"Ore_Disponibili":24,"lat":40.9071,"lon":14.3429,"date_only":"2025-12-13T00:00:00.000"},{"station":"IT2221A","station_name":"Napoli via Epomeo *\u00b0","pollutant":"CO","date":"2025-12-13T00:00:00.000","value":1.1179166667,"Ore_Disponibili":24,"lat":40.7205434,"lon":13.8987737,"date_only":"2025-12-13T00:00:00.000"},{"station":"IT2221A","station_name":"Napoli via Epomeo *\u00b0","pollutant":"NO2","date":"2025-12-13T00:00:00.000","value":43.72,"Ore_Disponibili":24,"lat":40.7205434,"lon":13.8987737,"date_only":"2025-12-13T00:00:00.000"},{"station":"IT2221A","station_name":"Napoli via Epomeo *\u00b0","pollutant":"O3","date":"2025-12-13T00:00:00.000","value":10.2591666667,"Ore_Disponibili":24,"lat":40.7205434,"lon":13.8987737,"date_only":"2025-12-13T00:00:00.000"},{"station":"IT2221A","station_name":"Napoli via Epomeo *\u00b0","pollutant":"PM10","date":"2025-12-13T00:00:00.000","value":53.68375,"Ore_Disponibili":24,"lat":40.7205434,"lon":13.8987737,"date_only":"2025-12-13T00:00:00.000"},{"station":"IT2221A","station_name":"Napoli via Epomeo *\u00b0","pollutant":"PM2,5","date":"2025-12-13T00:00:00.000","value":45.89875,"Ore_Disponibili":24,"lat":40.7205434,"lon":13.8987737,"date_only":"2025-12-13T00:00:00.000"},{"station":"IT2223A","station_name":"Volla Via Filichito *\u00b0","pollutant":"CO","date":"2025-12-13T00:00:00.000","value":1.7518181818,"Ore_Disponibili":22,"lat":40.8824226,"lon":14.3478545,"date_only":"2025-12-13T00:00:00.000"},{"station":"IT2223A","station_name":"Volla Via Filichito *\u00b0","pollutant":"NO2","date":"2025-12-13T00:00:00.000","value":48.4720833333,"Ore_Disponibili":24,"lat":40.8824226,"lon":14.3478545,"date_only":"2025-12-13T00:00:00.000"},{"station":"IT2223A","station_name":"Volla Via Filichito *\u00b0","pollutant":"O3","date":"2025-12-13T00:00:00.000","value":10.435,"Ore_Disponibili":24,"lat":40.8824226,"lon":14.3478545,"date_only":"2025-12-13T00:00:00.000"},{"station":"IT2223A","station_name":"Volla Via Filichito *\u00b0","pollutant":"PM10","date":"2025-12-13T00:00:00.000","value":89.10625,"Ore_Disponibili":24,"lat":40.8824226,"lon":14.3478545,"date_only":"2025-12-13T00:00:00.000"},{"station":"IT2223A","station_name":"Volla Via Filichito *\u00b0","pollutant":"PM2,5","date":"2025-12-13T00:00:00.000","value":79.4004166667,"Ore_Disponibili":24,"lat":40.8824226,"lon":14.3478545,"date_only":"2025-12-13T00:00:00.000"},{"station":"IT2226A","station_name":"Pomigliano d'Arco Area Asi","pollutant":"CO","date":"2025-12-13T00:00:00.000","value":0.9734782609,"Ore_Disponibili":23,"lat":40.412,"lon":15.341,"date_only":"2025-12-13T00:00:00.000"},{"station":"IT2226A","station_name":"Pomigliano d'Arco Area Asi","pollutant":"NO2","date":"2025-12-13T00:00:00.000","value":49.7513043478,"Ore_Disponibili":23,"lat":40.412,"lon":15.341,"date_only":"2025-12-13T00:00:00.000"},{"station":"IT2226A","station_name":"Pomigliano d'Arco Area Asi","pollutant":"PM10","date":"2025-12-13T00:00:00.000","value":67.1041666667,"Ore_Disponibili":24,"lat":40.412,"lon":15.341,"date_only":"2025-12-13T00:00:00.000"},{"station":"IT2226A","station_name":"Pomigliano d'Arco Area Asi","pollutant":"PM2,5","date":"2025-12-13T00:00:00.000","value":57.3416666667,"Ore_Disponibili":24,"lat":40.412,"lon":15.341,"date_only":"2025-12-13T00:00:00.000"},{"station":"IT2227A","station_name":"Avellino Scuola Alighieri","pollutant":"CO","date":"2025-12-13T00:00:00.000","value":1.02375,"Ore_Disponibili":24,"lat":40.9190395,"lon":14.784947,"date_only":"2025-12-13T00:00:00.000"},{"station":"IT2227A","station_name":"Avellino Scuola Alighieri","pollutant":"NO2","date":"2025-12-13T00:00:00.000","value":37.2320833333,"Ore_Disponibili":24,"lat":40.9190395,"lon":14.784947,"date_only":"2025-12-13T00:00:00.000"},{"station":"IT2227A","station_name":"Avellino Scuola Alighieri","pollutant":"PM10","date":"2025-12-13T00:00:00.000","value":26.0945833333,"Ore_Disponibili":24,"lat":40.9190395,"lon":14.784947,"date_only":"2025-12-13T00:00:00.000"},{"station":"IT2227A","station_name":"Avellino Scuola Alighieri","pollutant":"PM2,5","date":"2025-12-13T00:00:00.000","value":23.7045833333,"Ore_Disponibili":24,"lat":40.9190395,"lon":14.784947,"date_only":"2025-12-13T00:00:00.000"},{"station":"IT2228A","station_name":"Benevento Campo Sportivo","pollutant":"NO2","date":"2025-12-13T00:00:00.000","value":17.6583333333,"Ore_Disponibili":24,"lat":41.2315276,"lon":14.5332703,"date_only":"2025-12-13T00:00:00.000"},{"station":"IT2228A","station_name":"Benevento Campo Sportivo","pollutant":"O3","date":"2025-12-13T00:00:00.000","value":15.9466666667,"Ore_Disponibili":24,"lat":41.2315276,"lon":14.5332703,"date_only":"2025-12-13T00:00:00.000"},{"station":"IT2228A","station_name":"Benevento Campo Sportivo","pollutant":"PM10","date":"2025-12-13T00:00:00.000","value":45.63125,"Ore_Disponibili":24,"lat":41.2315276,"lon":14.5332703,"date_only":"2025-12-13T00:00:00.000"},{"station":"IT2228A","station_name":"Benevento Campo Sportivo","pollutant":"PM2,5","date":"2025-12-13T00:00:00.000","value":39.4291666667,"Ore_Disponibili":24,"lat":41.2315276,"lon":14.5332703,"date_only":"2025-12-13T00:00:00.000"},{"station":"IT2268A","station_name":"Battipaglia Parco Fiume","pollutant":"NO2","date":"2025-12-13T00:00:00.000","value":34.0639130435,"Ore_Disponibili":23,"lat":40.6167,"lon":14.9833,"date_only":"2025-12-13T00:00:00.000"},{"station":"IT2268A","station_name":"Battipaglia Parco Fiume","pollutant":"O3","date":"2025-12-13T00:00:00.000","value":20.1217391304,"Ore_Disponibili":23,"lat":40.6167,"lon":14.9833,"date_only":"2025-12-13T00:00:00.000"},{"station":"IT2268A","station_name":"Battipaglia Parco Fiume","pollutant":"PM10","date":"2025-12-13T00:00:00.000","value":35.7,"Ore_Disponibili":24,"lat":40.6167,"lon":14.9833,"date_only":"2025-12-13T00:00:00.000"},{"station":"IT2268A","station_name":"Battipaglia Parco Fiume","pollutant":"PM2,5","date":"2025-12-13T00:00:00.000","value":27.0,"Ore_Disponibili":24,"lat":40.6167,"lon":14.9833,"date_only":"2025-12-13T00:00:00.000"},{"station":"IT2270A","station_name":"Portici Parco Reggia","pollutant":"NO2","date":"2025-12-13T00:00:00.000","value":33.8991304348,"Ore_Disponibili":23,"lat":40.813588,"lon":14.3476526,"date_only":"2025-12-13T00:00:00.000"},{"station":"IT2270A","station_name":"Portici Parco Reggia","pollutant":"O3","date":"2025-12-13T00:00:00.000","value":19.4939130435,"Ore_Disponibili":23,"lat":40.813588,"lon":14.3476526,"date_only":"2025-12-13T00:00:00.000"},{"station":"IT2270A","station_name":"Portici Parco Reggia","pollutant":"PM10","date":"2025-12-13T00:00:00.000","value":52.6416666667,"Ore_Disponibili":24,"lat":40.813588,"lon":14.3476526,"date_only":"2025-12-13T00:00:00.000"},{"station":"IT2270A","station_name":"Portici Parco Reggia","pollutant":"PM2,5","date":"2025-12-13T00:00:00.000","value":47.9304166667,"Ore_Disponibili":24,"lat":40.813588,"lon":14.3476526,"date_only":"2025-12-13T00:00:00.000"},{"station":"IT2271A","station_name":"Aversa Scuola Cirillo \u00b0","pollutant":"CO","date":"2025-12-13T00:00:00.000","value":0.8042857143,"Ore_Disponibili":21,"lat":40.9758352,"lon":14.2117669,"date_only":"2025-12-13T00:00:00.000"},{"station":"IT2271A","station_name":"Aversa Scuola Cirillo \u00b0","pollutant":"NO2","date":"2025-12-13T00:00:00.000","value":54.8845833333,"Ore_Disponibili":24,"lat":40.9758352,"lon":14.2117669,"date_only":"2025-12-13T00:00:00.000"},{"station":"IT2271A","station_name":"Aversa Scuola Cirillo \u00b0","pollutant":"PM10","date":"2025-12-13T00:00:00.000","value":77.1058333333,"Ore_Disponibili":24,"lat":40.9758352,"lon":14.2117669,"date_only":"2025-12-13T00:00:00.000"},{"station":"IT2271A","station_name":"Aversa Scuola Cirillo \u00b0","pollutant":"PM2,5","date":"2025-12-13T00:00:00.000","value":67.5879166667,"Ore_Disponibili":24,"lat":40.9758352,"lon":14.2117669,"date_only":"2025-12-13T00:00:00.000"},{"station":"IT2272A","station_name":"Pozzuoli Zona Villa Avellino","pollutant":"NO2","date":"2025-12-13T00:00:00.000","value":39.6069565217,"Ore_Disponibili":23,"lat":40.834,"lon":14.119,"date_only":"2025-12-13T00:00:00.000"},{"station":"IT2272A","station_name":"Pozzuoli Zona Villa Avellino","pollutant":"O3","date":"2025-12-13T00:00:00.000","value":18.9708333333,"Ore_Disponibili":24,"lat":40.834,"lon":14.119,"date_only":"2025-12-13T00:00:00.000"},{"station":"IT2273A","station_name":"Polla Area Tritovagliatore","pollutant":"CO","date":"2025-12-13T00:00:00.000","value":0.5808695652,"Ore_Disponibili":23,"lat":40.412,"lon":15.341,"date_only":"2025-12-13T00:00:00.000"},{"station":"IT2273A","station_name":"Polla Area Tritovagliatore","pollutant":"NO2","date":"2025-12-13T00:00:00.000","value":21.5230434783,"Ore_Disponibili":23,"lat":40.412,"lon":15.341,"date_only":"2025-12-13T00:00:00.000"},{"station":"IT2273A","station_name":"Polla Area Tritovagliatore","pollutant":"PM10","date":"2025-12-13T00:00:00.000","value":21.7225,"Ore_Disponibili":24,"lat":40.412,"lon":15.341,"date_only":"2025-12-13T00:00:00.000"},{"station":"IT2273A","station_name":"Polla Area Tritovagliatore","pollutant":"PM2,5","date":"2025-12-13T00:00:00.000","value":20.1529166667,"Ore_Disponibili":24,"lat":40.412,"lon":15.341,"date_only":"2025-12-13T00:00:00.000"},{"station":"IT2276A","station_name":"Ariano Irpino Stadio","pollutant":"CO","date":"2025-12-13T00:00:00.000","value":0.1266666667,"Ore_Disponibili":24,"lat":41.1555975,"lon":15.0967062,"date_only":"2025-12-13T00:00:00.000"},{"station":"IT2276A","station_name":"Ariano Irpino Stadio","pollutant":"NO2","date":"2025-12-13T00:00:00.000","value":10.0269565217,"Ore_Disponibili":23,"lat":41.1555975,"lon":15.0967062,"date_only":"2025-12-13T00:00:00.000"},{"station":"IT2276A","station_name":"Ariano Irpino Stadio","pollutant":"O3","date":"2025-12-13T00:00:00.000","value":65.58,"Ore_Disponibili":23,"lat":41.1555975,"lon":15.0967062,"date_only":"2025-12-13T00:00:00.000"},{"station":"IT2277A","station_name":"Napoli Parco Virgiliano","pollutant":"CO","date":"2025-12-13T00:00:00.000","value":1.0591666667,"Ore_Disponibili":24,"lat":40.7984999,"lon":14.1790765,"date_only":"2025-12-13T00:00:00.000"},{"station":"IT2277A","station_name":"Napoli Parco Virgiliano","pollutant":"NO2","date":"2025-12-13T00:00:00.000","value":23.6395652174,"Ore_Disponibili":23,"lat":40.7984999,"lon":14.1790765,"date_only":"2025-12-13T00:00:00.000"},{"station":"IT2277A","station_name":"Napoli Parco Virgiliano","pollutant":"O3","date":"2025-12-13T00:00:00.000","value":43.2875,"Ore_Disponibili":24,"lat":40.7984999,"lon":14.1790765,"date_only":"2025-12-13T00:00:00.000"},{"station":"IT2277A","station_name":"Napoli Parco Virgiliano","pollutant":"PM10","date":"2025-12-13T00:00:00.000","value":30.6,"Ore_Disponibili":24,"lat":40.7984999,"lon":14.1790765,"date_only":"2025-12-13T00:00:00.000"},{"station":"IT2277A","station_name":"Napoli Parco Virgiliano","pollutant":"PM2,5","date":"2025-12-13T00:00:00.000","value":28.5,"Ore_Disponibili":24,"lat":40.7984999,"lon":14.1790765,"date_only":"2025-12-13T00:00:00.000"},{"station":"IT2283A","station_name":"Ottati Alburni","pollutant":"NO2","date":"2025-12-13T00:00:00.000","value":2.4804347826,"Ore_Disponibili":23,"lat":40.306,"lon":15.277,"date_only":"2025-12-13T00:00:00.000"},{"station":"IT2283A","station_name":"Ottati Alburni","pollutant":"O3","date":"2025-12-13T00:00:00.000","value":59.3939130435,"Ore_Disponibili":23,"lat":40.306,"lon":15.277,"date_only":"2025-12-13T00:00:00.000"},{"station":"IT2283A","station_name":"Ottati Alburni","pollutant":"PM10","date":"2025-12-13T00:00:00.000","value":0.0,"Ore_Disponibili":24,"lat":40.306,"lon":15.277,"date_only":"2025-12-13T00:00:00.000"},{"station":"IT2283A","station_name":"Ottati Alburni","pollutant":"PM2,5","date":"2025-12-13T00:00:00.000","value":9.4,"Ore_Disponibili":24,"lat":40.306,"lon":15.277,"date_only":"2025-12-13T00:00:00.000"}]