[{"station":"IT0898A","station_name":"Napoli NA06 Museo Nazionale","pollutant":"NO2","date":"2025-12-26T00:00:00.000","value":21.8281666667,"Ore_Disponibili":24,"lat":40.8536064,"lon":14.25115,"date_only":"2025-12-26T00:00:00.000"},{"station":"IT0898A","station_name":"Napoli NA06 Museo Nazionale","pollutant":"PM10","date":"2025-12-26T00:00:00.000","value":16.5,"Ore_Disponibili":1,"lat":40.8536064,"lon":14.25115,"date_only":"2025-12-26T00:00:00.000"},{"station":"IT0898A","station_name":"Napoli NA06 Museo Nazionale","pollutant":"PM2,5","date":"2025-12-26T00:00:00.000","value":16.0,"Ore_Disponibili":1,"lat":40.8536064,"lon":14.25115,"date_only":"2025-12-26T00:00:00.000"},{"station":"IT0934A","station_name":"Benevento BN32 Via Mustilli","pollutant":"NO2","date":"2025-12-26T00:00:00.000","value":16.6087083333,"Ore_Disponibili":24,"lat":41.1317868,"lon":14.7885516,"date_only":"2025-12-26T00:00:00.000"},{"station":"IT0936A","station_name":"Avellino AV41 Sc. V Circolo \u00b0","pollutant":"NO2","date":"2025-12-26T00:00:00.000","value":5.3558333333,"Ore_Disponibili":24,"lat":40.9152,"lon":14.7955,"date_only":"2025-12-26T00:00:00.000"},{"station":"IT0936A","station_name":"Avellino AV41 Sc. V Circolo \u00b0","pollutant":"O3","date":"2025-12-26T00:00:00.000","value":70.3033333333,"Ore_Disponibili":24,"lat":40.9152,"lon":14.7955,"date_only":"2025-12-26T00:00:00.000"},{"station":"IT0936A","station_name":"Avellino AV41 Sc. V Circolo \u00b0","pollutant":"PM10","date":"2025-12-26T00:00:00.000","value":9.2391666667,"Ore_Disponibili":24,"lat":40.9152,"lon":14.7955,"date_only":"2025-12-26T00:00:00.000"},{"station":"IT0936A","station_name":"Avellino AV41 Sc. V Circolo \u00b0","pollutant":"PM2,5","date":"2025-12-26T00:00:00.000","value":7.5929166667,"Ore_Disponibili":24,"lat":40.9152,"lon":14.7955,"date_only":"2025-12-26T00:00:00.000"},{"station":"IT1041A","station_name":"Salerno SA23 Scuola Conti \u00b0","pollutant":"NO2","date":"2025-12-26T00:00:00.000","value":10.3279166667,"Ore_Disponibili":24,"lat":40.675,"lon":14.768,"date_only":"2025-12-26T00:00:00.000"},{"station":"IT1041A","station_name":"Salerno SA23 Scuola Conti \u00b0","pollutant":"O3","date":"2025-12-26T00:00:00.000","value":50.1539130435,"Ore_Disponibili":23,"lat":40.675,"lon":14.768,"date_only":"2025-12-26T00:00:00.000"},{"station":"IT1041A","station_name":"Salerno SA23 Scuola Conti \u00b0","pollutant":"PM2,5","date":"2025-12-26T00:00:00.000","value":11.5,"Ore_Disponibili":24,"lat":40.675,"lon":14.768,"date_only":"2025-12-26T00:00:00.000"},{"station":"IT1486A","station_name":"Caserta CE51 Ist. Manzoni","pollutant":"NO2","date":"2025-12-26T00:00:00.000","value":3.293625,"Ore_Disponibili":24,"lat":41.0818,"lon":14.3349,"date_only":"2025-12-26T00:00:00.000"},{"station":"IT1486A","station_name":"Caserta CE51 Ist. Manzoni","pollutant":"O3","date":"2025-12-26T00:00:00.000","value":79.8316666667,"Ore_Disponibili":24,"lat":41.0818,"lon":14.3349,"date_only":"2025-12-26T00:00:00.000"},{"station":"IT1486A","station_name":"Caserta CE51 Ist. Manzoni","pollutant":"PM10","date":"2025-12-26T00:00:00.000","value":5.2,"Ore_Disponibili":1,"lat":41.0818,"lon":14.3349,"date_only":"2025-12-26T00:00:00.000"},{"station":"IT1486A","station_name":"Caserta CE51 Ist. Manzoni","pollutant":"PM2,5","date":"2025-12-26T00:00:00.000","value":5.5,"Ore_Disponibili":1,"lat":41.0818,"lon":14.3349,"date_only":"2025-12-26T00:00:00.000"},{"station":"IT1487A","station_name":"Caserta CE52 Sc. De Amicis","pollutant":"NO2","date":"2025-12-26T00:00:00.000","value":4.4223043478,"Ore_Disponibili":23,"lat":41.0085302,"lon":14.0787912,"date_only":"2025-12-26T00:00:00.000"},{"station":"IT1487A","station_name":"Caserta CE52 Sc. De Amicis","pollutant":"PM10","date":"2025-12-26T00:00:00.000","value":13.1,"Ore_Disponibili":24,"lat":41.0085302,"lon":14.0787912,"date_only":"2025-12-26T00:00:00.000"},{"station":"IT1488A","station_name":"Maddaloni CE54 Sc. Settembrini","pollutant":"NO2","date":"2025-12-26T00:00:00.000","value":5.5966956522,"Ore_Disponibili":23,"lat":41.094,"lon":14.402,"date_only":"2025-12-26T00:00:00.000"},{"station":"IT1488A","station_name":"Maddaloni CE54 Sc. Settembrini","pollutant":"O3","date":"2025-12-26T00:00:00.000","value":66.3191304348,"Ore_Disponibili":23,"lat":41.094,"lon":14.402,"date_only":"2025-12-26T00:00:00.000"},{"station":"IT1488A","station_name":"Maddaloni CE54 Sc. Settembrini","pollutant":"PM10","date":"2025-12-26T00:00:00.000","value":9.7266666667,"Ore_Disponibili":24,"lat":41.094,"lon":14.402,"date_only":"2025-12-26T00:00:00.000"},{"station":"IT1488A","station_name":"Maddaloni CE54 Sc. Settembrini","pollutant":"PM2,5","date":"2025-12-26T00:00:00.000","value":7.265,"Ore_Disponibili":24,"lat":41.094,"lon":14.402,"date_only":"2025-12-26T00:00:00.000"},{"station":"IT1491A","station_name":"Napoli NA07 Ferrovia \u00b0","pollutant":"NO2","date":"2025-12-26T00:00:00.000","value":22.9247916667,"Ore_Disponibili":24,"lat":40.8277815,"lon":14.3989433,"date_only":"2025-12-26T00:00:00.000"},{"station":"IT1493A","station_name":"Napoli NA09 Via Argine","pollutant":"NO2","date":"2025-12-26T00:00:00.000","value":29.8970833333,"Ore_Disponibili":24,"lat":40.8560636,"lon":14.3234622,"date_only":"2025-12-26T00:00:00.000"},{"station":"IT1493A","station_name":"Napoli NA09 Via Argine","pollutant":"PM10","date":"2025-12-26T00:00:00.000","value":28.2,"Ore_Disponibili":1,"lat":40.8560636,"lon":14.3234622,"date_only":"2025-12-26T00:00:00.000"},{"station":"IT1493A","station_name":"Napoli NA09 Via Argine","pollutant":"PM2,5","date":"2025-12-26T00:00:00.000","value":22.6,"Ore_Disponibili":1,"lat":40.8560636,"lon":14.3234622,"date_only":"2025-12-26T00:00:00.000"},{"station":"IT1495A","station_name":"Napoli NA08 Osp. N. Pellegrini","pollutant":"NO2","date":"2025-12-26T00:00:00.000","value":21.9402916667,"Ore_Disponibili":24,"lat":40.8535,"lon":14.235,"date_only":"2025-12-26T00:00:00.000"},{"station":"IT1496A","station_name":"Napoli NA02 Osp. Santobono \u00b0","pollutant":"NO2","date":"2025-12-26T00:00:00.000","value":21.136875,"Ore_Disponibili":24,"lat":40.8554,"lon":14.2231,"date_only":"2025-12-26T00:00:00.000"},{"station":"IT1496A","station_name":"Napoli NA02 Osp. Santobono \u00b0","pollutant":"PM10","date":"2025-12-26T00:00:00.000","value":11.4833333333,"Ore_Disponibili":24,"lat":40.8554,"lon":14.2231,"date_only":"2025-12-26T00:00:00.000"},{"station":"IT1496A","station_name":"Napoli NA02 Osp. Santobono \u00b0","pollutant":"PM2,5","date":"2025-12-26T00:00:00.000","value":8.5116666667,"Ore_Disponibili":24,"lat":40.8554,"lon":14.2231,"date_only":"2025-12-26T00:00:00.000"},{"station":"IT1497A","station_name":"Napoli NA01 Oss. Astronomico","pollutant":"NO2","date":"2025-12-26T00:00:00.000","value":14.0620833333,"Ore_Disponibili":24,"lat":40.853,"lon":14.305,"date_only":"2025-12-26T00:00:00.000"},{"station":"IT1497A","station_name":"Napoli NA01 Oss. Astronomico","pollutant":"O3","date":"2025-12-26T00:00:00.000","value":56.5658333333,"Ore_Disponibili":24,"lat":40.853,"lon":14.305,"date_only":"2025-12-26T00:00:00.000"},{"station":"IT1497A","station_name":"Napoli NA01 Oss. Astronomico","pollutant":"PM10","date":"2025-12-26T00:00:00.000","value":9.7441666667,"Ore_Disponibili":24,"lat":40.853,"lon":14.305,"date_only":"2025-12-26T00:00:00.000"},{"station":"IT1497A","station_name":"Napoli NA01 Oss. Astronomico","pollutant":"PM2,5","date":"2025-12-26T00:00:00.000","value":8.01125,"Ore_Disponibili":24,"lat":40.853,"lon":14.305,"date_only":"2025-12-26T00:00:00.000"},{"station":"IT1504A","station_name":"Salerno SA22 Osp. Via Vernieri","pollutant":"NO2","date":"2025-12-26T00:00:00.000","value":13.6486666667,"Ore_Disponibili":24,"lat":40.682,"lon":14.766,"date_only":"2025-12-26T00:00:00.000"},{"station":"IT1504A","station_name":"Salerno SA22 Osp. Via Vernieri","pollutant":"PM10","date":"2025-12-26T00:00:00.000","value":10.1,"Ore_Disponibili":1,"lat":40.682,"lon":14.766,"date_only":"2025-12-26T00:00:00.000"},{"station":"IT1504A","station_name":"Salerno SA22 Osp. Via Vernieri","pollutant":"PM2,5","date":"2025-12-26T00:00:00.000","value":8.6,"Ore_Disponibili":1,"lat":40.682,"lon":14.766,"date_only":"2025-12-26T00:00:00.000"},{"station":"IT2210A","station_name":"Solofra Zona Industriale","pollutant":"NO2","date":"2025-12-26T00:00:00.000","value":3.5887826087,"Ore_Disponibili":23,"lat":41.058,"lon":14.808,"date_only":"2025-12-26T00:00:00.000"},{"station":"IT2210A","station_name":"Solofra Zona Industriale","pollutant":"PM10","date":"2025-12-26T00:00:00.000","value":9.225,"Ore_Disponibili":24,"lat":41.058,"lon":14.808,"date_only":"2025-12-26T00:00:00.000"},{"station":"IT2210A","station_name":"Solofra Zona Industriale","pollutant":"PM2,5","date":"2025-12-26T00:00:00.000","value":7.6483333333,"Ore_Disponibili":24,"lat":41.058,"lon":14.808,"date_only":"2025-12-26T00:00:00.000"},{"station":"IT2211A","station_name":"Acerra Zona Industriale","pollutant":"NO2","date":"2025-12-26T00:00:00.000","value":12.4636521739,"Ore_Disponibili":23,"lat":40.9847962,"lon":14.3679606,"date_only":"2025-12-26T00:00:00.000"},{"station":"IT2211A","station_name":"Acerra Zona Industriale","pollutant":"PM10","date":"2025-12-26T00:00:00.000","value":13.6,"Ore_Disponibili":24,"lat":40.9847962,"lon":14.3679606,"date_only":"2025-12-26T00:00:00.000"},{"station":"IT2212A","station_name":"S. Vitaliano Scuola Marconi","pollutant":"NO2","date":"2025-12-26T00:00:00.000","value":26.8063043478,"Ore_Disponibili":23,"lat":40.896,"lon":14.46,"date_only":"2025-12-26T00:00:00.000"},{"station":"IT2212A","station_name":"S. Vitaliano Scuola Marconi","pollutant":"O3","date":"2025-12-26T00:00:00.000","value":59.5469565217,"Ore_Disponibili":23,"lat":40.896,"lon":14.46,"date_only":"2025-12-26T00:00:00.000"},{"station":"IT2212A","station_name":"S. Vitaliano Scuola Marconi","pollutant":"PM10","date":"2025-12-26T00:00:00.000","value":14.19,"Ore_Disponibili":24,"lat":40.896,"lon":14.46,"date_only":"2025-12-26T00:00:00.000"},{"station":"IT2212A","station_name":"S. Vitaliano Scuola Marconi","pollutant":"PM2,5","date":"2025-12-26T00:00:00.000","value":11.9295833333,"Ore_Disponibili":24,"lat":40.896,"lon":14.46,"date_only":"2025-12-26T00:00:00.000"},{"station":"IT2213A","station_name":"Cava dei Tirreni Stadio","pollutant":"NO2","date":"2025-12-26T00:00:00.000","value":14.4023181818,"Ore_Disponibili":22,"lat":40.7125,"lon":14.638,"date_only":"2025-12-26T00:00:00.000"},{"station":"IT2213A","station_name":"Cava dei Tirreni Stadio","pollutant":"O3","date":"2025-12-26T00:00:00.000","value":48.3713043478,"Ore_Disponibili":23,"lat":40.7125,"lon":14.638,"date_only":"2025-12-26T00:00:00.000"},{"station":"IT2213A","station_name":"Cava dei Tirreni Stadio","pollutant":"PM10","date":"2025-12-26T00:00:00.000","value":13.2041666667,"Ore_Disponibili":24,"lat":40.7125,"lon":14.638,"date_only":"2025-12-26T00:00:00.000"},{"station":"IT2213A","station_name":"Cava dei Tirreni Stadio","pollutant":"PM2,5","date":"2025-12-26T00:00:00.000","value":11.0475,"Ore_Disponibili":24,"lat":40.7125,"lon":14.638,"date_only":"2025-12-26T00:00:00.000"},{"station":"IT2214A","station_name":"Nocera Inferiore Sc. Solimena","pollutant":"NO2","date":"2025-12-26T00:00:00.000","value":8.5112173913,"Ore_Disponibili":23,"lat":40.7473393,"lon":14.6410145,"date_only":"2025-12-26T00:00:00.000"},{"station":"IT2214A","station_name":"Nocera Inferiore Sc. Solimena","pollutant":"PM10","date":"2025-12-26T00:00:00.000","value":9.7458333333,"Ore_Disponibili":24,"lat":40.7473393,"lon":14.6410145,"date_only":"2025-12-26T00:00:00.000"},{"station":"IT2214A","station_name":"Nocera Inferiore Sc. Solimena","pollutant":"PM2,5","date":"2025-12-26T00:00:00.000","value":7.6170833333,"Ore_Disponibili":24,"lat":40.7473393,"lon":14.6410145,"date_only":"2025-12-26T00:00:00.000"},{"station":"IT2215A","station_name":"Benevento Zona Industriale \u00b0","pollutant":"NO2","date":"2025-12-26T00:00:00.000","value":8.5336666667,"Ore_Disponibili":24,"lat":41.2293368,"lon":14.4782074,"date_only":"2025-12-26T00:00:00.000"},{"station":"IT2215A","station_name":"Benevento Zona Industriale \u00b0","pollutant":"PM10","date":"2025-12-26T00:00:00.000","value":16.4058333333,"Ore_Disponibili":24,"lat":41.2293368,"lon":14.4782074,"date_only":"2025-12-26T00:00:00.000"},{"station":"IT2215A","station_name":"Benevento Zona Industriale \u00b0","pollutant":"PM2,5","date":"2025-12-26T00:00:00.000","value":14.12875,"Ore_Disponibili":24,"lat":41.2293368,"lon":14.4782074,"date_only":"2025-12-26T00:00:00.000"},{"station":"IT2216A","station_name":"Casoria Scuola Palizzi","pollutant":"NO2","date":"2025-12-26T00:00:00.000","value":22.2646956522,"Ore_Disponibili":23,"lat":40.904,"lon":14.289,"date_only":"2025-12-26T00:00:00.000"},{"station":"IT2216A","station_name":"Casoria Scuola Palizzi","pollutant":"O3","date":"2025-12-26T00:00:00.000","value":35.2495652174,"Ore_Disponibili":23,"lat":40.904,"lon":14.289,"date_only":"2025-12-26T00:00:00.000"},{"station":"IT2216A","station_name":"Casoria Scuola Palizzi","pollutant":"PM10","date":"2025-12-26T00:00:00.000","value":25.55125,"Ore_Disponibili":24,"lat":40.904,"lon":14.289,"date_only":"2025-12-26T00:00:00.000"},{"station":"IT2216A","station_name":"Casoria Scuola Palizzi","pollutant":"PM2,5","date":"2025-12-26T00:00:00.000","value":21.6829166667,"Ore_Disponibili":24,"lat":40.904,"lon":14.289,"date_only":"2025-12-26T00:00:00.000"},{"station":"IT2217A","station_name":"Torre Annunziata Sc. Pascoli","pollutant":"NO2","date":"2025-12-26T00:00:00.000","value":12.181826087,"Ore_Disponibili":23,"lat":40.7469754,"lon":14.4608234,"date_only":"2025-12-26T00:00:00.000"},{"station":"IT2217A","station_name":"Torre Annunziata Sc. Pascoli","pollutant":"O3","date":"2025-12-26T00:00:00.000","value":52.9052173913,"Ore_Disponibili":23,"lat":40.7469754,"lon":14.4608234,"date_only":"2025-12-26T00:00:00.000"},{"station":"IT2218A","station_name":"San Felice a Cancello C. Scolast.","pollutant":"NO2","date":"2025-12-26T00:00:00.000","value":1.5188421053,"Ore_Disponibili":19,"lat":41.015,"lon":14.287,"date_only":"2025-12-26T00:00:00.000"},{"station":"IT2218A","station_name":"San Felice a Cancello C. Scolast.","pollutant":"O3","date":"2025-12-26T00:00:00.000","value":70.6086956522,"Ore_Disponibili":23,"lat":41.015,"lon":14.287,"date_only":"2025-12-26T00:00:00.000"},{"station":"IT2218A","station_name":"San Felice a Cancello C. Scolast.","pollutant":"PM10","date":"2025-12-26T00:00:00.000","value":9.1320833333,"Ore_Disponibili":24,"lat":41.015,"lon":14.287,"date_only":"2025-12-26T00:00:00.000"},{"station":"IT2218A","station_name":"San Felice a Cancello C. Scolast.","pollutant":"PM2,5","date":"2025-12-26T00:00:00.000","value":7.2920833333,"Ore_Disponibili":24,"lat":41.015,"lon":14.287,"date_only":"2025-12-26T00:00:00.000"},{"station":"IT2219A","station_name":"Acerra Scuola Caporale","pollutant":"NO2","date":"2025-12-26T00:00:00.000","value":10.68,"Ore_Disponibili":10,"lat":40.9071,"lon":14.3429,"date_only":"2025-12-26T00:00:00.000"},{"station":"IT2219A","station_name":"Acerra Scuola Caporale","pollutant":"PM10","date":"2025-12-26T00:00:00.000","value":17.5991666667,"Ore_Disponibili":24,"lat":40.9071,"lon":14.3429,"date_only":"2025-12-26T00:00:00.000"},{"station":"IT2219A","station_name":"Acerra Scuola Caporale","pollutant":"PM2,5","date":"2025-12-26T00:00:00.000","value":14.51625,"Ore_Disponibili":24,"lat":40.9071,"lon":14.3429,"date_only":"2025-12-26T00:00:00.000"},{"station":"IT2223A","station_name":"Volla Via Filichito *\u00b0","pollutant":"NO2","date":"2025-12-26T00:00:00.000","value":21.9763333333,"Ore_Disponibili":24,"lat":40.8824226,"lon":14.3478545,"date_only":"2025-12-26T00:00:00.000"},{"station":"IT2223A","station_name":"Volla Via Filichito *\u00b0","pollutant":"O3","date":"2025-12-26T00:00:00.000","value":44.6175,"Ore_Disponibili":24,"lat":40.8824226,"lon":14.3478545,"date_only":"2025-12-26T00:00:00.000"},{"station":"IT2223A","station_name":"Volla Via Filichito *\u00b0","pollutant":"PM10","date":"2025-12-26T00:00:00.000","value":12.75125,"Ore_Disponibili":24,"lat":40.8824226,"lon":14.3478545,"date_only":"2025-12-26T00:00:00.000"},{"station":"IT2223A","station_name":"Volla Via Filichito *\u00b0","pollutant":"PM2,5","date":"2025-12-26T00:00:00.000","value":11.41375,"Ore_Disponibili":24,"lat":40.8824226,"lon":14.3478545,"date_only":"2025-12-26T00:00:00.000"},{"station":"IT2226A","station_name":"Pomigliano d'Arco Area Asi","pollutant":"NO2","date":"2025-12-26T00:00:00.000","value":18.4854782609,"Ore_Disponibili":23,"lat":40.412,"lon":15.341,"date_only":"2025-12-26T00:00:00.000"},{"station":"IT2226A","station_name":"Pomigliano d'Arco Area Asi","pollutant":"PM10","date":"2025-12-26T00:00:00.000","value":21.0,"Ore_Disponibili":1,"lat":40.412,"lon":15.341,"date_only":"2025-12-26T00:00:00.000"},{"station":"IT2226A","station_name":"Pomigliano d'Arco Area Asi","pollutant":"PM2,5","date":"2025-12-26T00:00:00.000","value":22.6,"Ore_Disponibili":1,"lat":40.412,"lon":15.341,"date_only":"2025-12-26T00:00:00.000"},{"station":"IT2227A","station_name":"Avellino Scuola Alighieri","pollutant":"NO2","date":"2025-12-26T00:00:00.000","value":13.0021666667,"Ore_Disponibili":24,"lat":40.9190395,"lon":14.784947,"date_only":"2025-12-26T00:00:00.000"},{"station":"IT2227A","station_name":"Avellino Scuola Alighieri","pollutant":"PM10","date":"2025-12-26T00:00:00.000","value":6.3295833333,"Ore_Disponibili":24,"lat":40.9190395,"lon":14.784947,"date_only":"2025-12-26T00:00:00.000"},{"station":"IT2227A","station_name":"Avellino Scuola Alighieri","pollutant":"PM2,5","date":"2025-12-26T00:00:00.000","value":5.05,"Ore_Disponibili":24,"lat":40.9190395,"lon":14.784947,"date_only":"2025-12-26T00:00:00.000"},{"station":"IT2228A","station_name":"Benevento Campo Sportivo","pollutant":"NO2","date":"2025-12-26T00:00:00.000","value":9.60025,"Ore_Disponibili":24,"lat":41.2315276,"lon":14.5332703,"date_only":"2025-12-26T00:00:00.000"},{"station":"IT2228A","station_name":"Benevento Campo Sportivo","pollutant":"O3","date":"2025-12-26T00:00:00.000","value":35.0466666667,"Ore_Disponibili":18,"lat":41.2315276,"lon":14.5332703,"date_only":"2025-12-26T00:00:00.000"},{"station":"IT2228A","station_name":"Benevento Campo Sportivo","pollutant":"PM10","date":"2025-12-26T00:00:00.000","value":23.0166666667,"Ore_Disponibili":24,"lat":41.2315276,"lon":14.5332703,"date_only":"2025-12-26T00:00:00.000"},{"station":"IT2228A","station_name":"Benevento Campo Sportivo","pollutant":"PM2,5","date":"2025-12-26T00:00:00.000","value":18.28375,"Ore_Disponibili":24,"lat":41.2315276,"lon":14.5332703,"date_only":"2025-12-26T00:00:00.000"},{"station":"IT2268A","station_name":"Battipaglia Parco Fiume","pollutant":"NO2","date":"2025-12-26T00:00:00.000","value":19.6533043478,"Ore_Disponibili":23,"lat":40.6167,"lon":14.9833,"date_only":"2025-12-26T00:00:00.000"},{"station":"IT2268A","station_name":"Battipaglia Parco Fiume","pollutant":"O3","date":"2025-12-26T00:00:00.000","value":44.4330434783,"Ore_Disponibili":23,"lat":40.6167,"lon":14.9833,"date_only":"2025-12-26T00:00:00.000"},{"station":"IT2268A","station_name":"Battipaglia Parco Fiume","pollutant":"PM10","date":"2025-12-26T00:00:00.000","value":5.2,"Ore_Disponibili":24,"lat":40.6167,"lon":14.9833,"date_only":"2025-12-26T00:00:00.000"},{"station":"IT2268A","station_name":"Battipaglia Parco Fiume","pollutant":"PM2,5","date":"2025-12-26T00:00:00.000","value":4.7,"Ore_Disponibili":24,"lat":40.6167,"lon":14.9833,"date_only":"2025-12-26T00:00:00.000"},{"station":"IT2270A","station_name":"Portici Parco Reggia","pollutant":"NO2","date":"2025-12-26T00:00:00.000","value":22.4777391304,"Ore_Disponibili":23,"lat":40.813588,"lon":14.3476526,"date_only":"2025-12-26T00:00:00.000"},{"station":"IT2270A","station_name":"Portici Parco Reggia","pollutant":"O3","date":"2025-12-26T00:00:00.000","value":38.4286956522,"Ore_Disponibili":23,"lat":40.813588,"lon":14.3476526,"date_only":"2025-12-26T00:00:00.000"},{"station":"IT2270A","station_name":"Portici Parco Reggia","pollutant":"PM10","date":"2025-12-26T00:00:00.000","value":13.1825,"Ore_Disponibili":24,"lat":40.813588,"lon":14.3476526,"date_only":"2025-12-26T00:00:00.000"},{"station":"IT2270A","station_name":"Portici Parco Reggia","pollutant":"PM2,5","date":"2025-12-26T00:00:00.000","value":10.5625,"Ore_Disponibili":24,"lat":40.813588,"lon":14.3476526,"date_only":"2025-12-26T00:00:00.000"},{"station":"IT2271A","station_name":"Aversa Scuola Cirillo \u00b0","pollutant":"NO2","date":"2025-12-26T00:00:00.000","value":13.0234347826,"Ore_Disponibili":23,"lat":40.9758352,"lon":14.2117669,"date_only":"2025-12-26T00:00:00.000"},{"station":"IT2271A","station_name":"Aversa Scuola Cirillo \u00b0","pollutant":"PM10","date":"2025-12-26T00:00:00.000","value":11.7358333333,"Ore_Disponibili":24,"lat":40.9758352,"lon":14.2117669,"date_only":"2025-12-26T00:00:00.000"},{"station":"IT2271A","station_name":"Aversa Scuola Cirillo \u00b0","pollutant":"PM2,5","date":"2025-12-26T00:00:00.000","value":9.1058333333,"Ore_Disponibili":24,"lat":40.9758352,"lon":14.2117669,"date_only":"2025-12-26T00:00:00.000"},{"station":"IT2272A","station_name":"Pozzuoli Zona Villa Avellino","pollutant":"NO2","date":"2025-12-26T00:00:00.000","value":7.7270434783,"Ore_Disponibili":23,"lat":40.834,"lon":14.119,"date_only":"2025-12-26T00:00:00.000"},{"station":"IT2272A","station_name":"Pozzuoli Zona Villa Avellino","pollutant":"O3","date":"2025-12-26T00:00:00.000","value":53.6066666667,"Ore_Disponibili":24,"lat":40.834,"lon":14.119,"date_only":"2025-12-26T00:00:00.000"},{"station":"IT2272A","station_name":"Pozzuoli Zona Villa Avellino","pollutant":"PM10","date":"2025-12-26T00:00:00.000","value":12.81875,"Ore_Disponibili":24,"lat":40.834,"lon":14.119,"date_only":"2025-12-26T00:00:00.000"},{"station":"IT2272A","station_name":"Pozzuoli Zona Villa Avellino","pollutant":"PM2,5","date":"2025-12-26T00:00:00.000","value":9.5729166667,"Ore_Disponibili":24,"lat":40.834,"lon":14.119,"date_only":"2025-12-26T00:00:00.000"},{"station":"IT2273A","station_name":"Polla Area Tritovagliatore","pollutant":"NO2","date":"2025-12-26T00:00:00.000","value":19.4459130435,"Ore_Disponibili":23,"lat":40.412,"lon":15.341,"date_only":"2025-12-26T00:00:00.000"},{"station":"IT2273A","station_name":"Polla Area Tritovagliatore","pollutant":"PM10","date":"2025-12-26T00:00:00.000","value":15.75625,"Ore_Disponibili":24,"lat":40.412,"lon":15.341,"date_only":"2025-12-26T00:00:00.000"},{"station":"IT2273A","station_name":"Polla Area Tritovagliatore","pollutant":"PM2,5","date":"2025-12-26T00:00:00.000","value":14.3245833333,"Ore_Disponibili":24,"lat":40.412,"lon":15.341,"date_only":"2025-12-26T00:00:00.000"},{"station":"IT2276A","station_name":"Ariano Irpino Stadio","pollutant":"NO2","date":"2025-12-26T00:00:00.000","value":0.0,"Ore_Disponibili":4,"lat":41.1555975,"lon":15.0967062,"date_only":"2025-12-26T00:00:00.000"},{"station":"IT2276A","station_name":"Ariano Irpino Stadio","pollutant":"O3","date":"2025-12-26T00:00:00.000","value":77.5704347826,"Ore_Disponibili":23,"lat":41.1555975,"lon":15.0967062,"date_only":"2025-12-26T00:00:00.000"},{"station":"IT2277A","station_name":"Napoli Parco Virgiliano","pollutant":"NO2","date":"2025-12-26T00:00:00.000","value":8.2200869565,"Ore_Disponibili":23,"lat":40.7984999,"lon":14.1790765,"date_only":"2025-12-26T00:00:00.000"},{"station":"IT2277A","station_name":"Napoli Parco Virgiliano","pollutant":"O3","date":"2025-12-26T00:00:00.000","value":63.6816666667,"Ore_Disponibili":24,"lat":40.7984999,"lon":14.1790765,"date_only":"2025-12-26T00:00:00.000"},{"station":"IT2277A","station_name":"Napoli Parco Virgiliano","pollutant":"PM10","date":"2025-12-26T00:00:00.000","value":7.1,"Ore_Disponibili":24,"lat":40.7984999,"lon":14.1790765,"date_only":"2025-12-26T00:00:00.000"},{"station":"IT2277A","station_name":"Napoli Parco Virgiliano","pollutant":"PM2,5","date":"2025-12-26T00:00:00.000","value":5.7,"Ore_Disponibili":24,"lat":40.7984999,"lon":14.1790765,"date_only":"2025-12-26T00:00:00.000"},{"station":"IT2283A","station_name":"Ottati Alburni","pollutant":"NO2","date":"2025-12-26T00:00:00.000","value":1.210826087,"Ore_Disponibili":23,"lat":40.306,"lon":15.277,"date_only":"2025-12-26T00:00:00.000"},{"station":"IT2283A","station_name":"Ottati Alburni","pollutant":"O3","date":"2025-12-26T00:00:00.000","value":72.3723809524,"Ore_Disponibili":21,"lat":40.306,"lon":15.277,"date_only":"2025-12-26T00:00:00.000"},{"station":"IT2283A","station_name":"Ottati Alburni","pollutant":"PM10","date":"2025-12-26T00:00:00.000","value":8.6,"Ore_Disponibili":24,"lat":40.306,"lon":15.277,"date_only":"2025-12-26T00:00:00.000"},{"station":"IT2283A","station_name":"Ottati Alburni","pollutant":"PM2,5","date":"2025-12-26T00:00:00.000","value":2.1,"Ore_Disponibili":24,"lat":40.306,"lon":15.277,"date_only":"2025-12-26T00:00:00.000"}]