[{"station":"IT0898A","station_name":"Napoli NA06 Museo Nazionale","pollutant":"CO","date":"2025-12-27T00:00:00.000","value":0.43625,"Ore_Disponibili":24,"lat":40.8536064,"lon":14.25115,"date_only":"2025-12-27T00:00:00.000"},{"station":"IT0898A","station_name":"Napoli NA06 Museo Nazionale","pollutant":"NO2","date":"2025-12-27T00:00:00.000","value":28.0254166667,"Ore_Disponibili":24,"lat":40.8536064,"lon":14.25115,"date_only":"2025-12-27T00:00:00.000"},{"station":"IT0898A","station_name":"Napoli NA06 Museo Nazionale","pollutant":"PM10","date":"2025-12-27T00:00:00.000","value":13.3,"Ore_Disponibili":24,"lat":40.8536064,"lon":14.25115,"date_only":"2025-12-27T00:00:00.000"},{"station":"IT0898A","station_name":"Napoli NA06 Museo Nazionale","pollutant":"PM2,5","date":"2025-12-27T00:00:00.000","value":9.4208333333,"Ore_Disponibili":24,"lat":40.8536064,"lon":14.25115,"date_only":"2025-12-27T00:00:00.000"},{"station":"IT0934A","station_name":"Benevento BN32 Via Mustilli","pollutant":"NO2","date":"2025-12-27T00:00:00.000","value":19.72,"Ore_Disponibili":24,"lat":41.1317868,"lon":14.7885516,"date_only":"2025-12-27T00:00:00.000"},{"station":"IT0936A","station_name":"Avellino AV41 Sc. V Circolo \u00b0","pollutant":"NO2","date":"2025-12-27T00:00:00.000","value":8.37875,"Ore_Disponibili":24,"lat":40.9152,"lon":14.7955,"date_only":"2025-12-27T00:00:00.000"},{"station":"IT0936A","station_name":"Avellino AV41 Sc. V Circolo \u00b0","pollutant":"O3","date":"2025-12-27T00:00:00.000","value":56.5175,"Ore_Disponibili":24,"lat":40.9152,"lon":14.7955,"date_only":"2025-12-27T00:00:00.000"},{"station":"IT0936A","station_name":"Avellino AV41 Sc. V Circolo \u00b0","pollutant":"PM10","date":"2025-12-27T00:00:00.000","value":9.9483333333,"Ore_Disponibili":24,"lat":40.9152,"lon":14.7955,"date_only":"2025-12-27T00:00:00.000"},{"station":"IT0936A","station_name":"Avellino AV41 Sc. V Circolo \u00b0","pollutant":"PM2,5","date":"2025-12-27T00:00:00.000","value":8.0083333333,"Ore_Disponibili":24,"lat":40.9152,"lon":14.7955,"date_only":"2025-12-27T00:00:00.000"},{"station":"IT1041A","station_name":"Salerno SA23 Scuola Conti \u00b0","pollutant":"NO2","date":"2025-12-27T00:00:00.000","value":8.5420833333,"Ore_Disponibili":24,"lat":40.675,"lon":14.768,"date_only":"2025-12-27T00:00:00.000"},{"station":"IT1041A","station_name":"Salerno SA23 Scuola Conti \u00b0","pollutant":"O3","date":"2025-12-27T00:00:00.000","value":46.1975,"Ore_Disponibili":24,"lat":40.675,"lon":14.768,"date_only":"2025-12-27T00:00:00.000"},{"station":"IT1041A","station_name":"Salerno SA23 Scuola Conti \u00b0","pollutant":"PM2,5","date":"2025-12-27T00:00:00.000","value":11.7,"Ore_Disponibili":24,"lat":40.675,"lon":14.768,"date_only":"2025-12-27T00:00:00.000"},{"station":"IT1486A","station_name":"Caserta CE51 Ist. Manzoni","pollutant":"NO2","date":"2025-12-27T00:00:00.000","value":6.3970833333,"Ore_Disponibili":24,"lat":41.0818,"lon":14.3349,"date_only":"2025-12-27T00:00:00.000"},{"station":"IT1486A","station_name":"Caserta CE51 Ist. Manzoni","pollutant":"O3","date":"2025-12-27T00:00:00.000","value":63.7533333333,"Ore_Disponibili":24,"lat":41.0818,"lon":14.3349,"date_only":"2025-12-27T00:00:00.000"},{"station":"IT1486A","station_name":"Caserta CE51 Ist. Manzoni","pollutant":"PM10","date":"2025-12-27T00:00:00.000","value":5.225,"Ore_Disponibili":8,"lat":41.0818,"lon":14.3349,"date_only":"2025-12-27T00:00:00.000"},{"station":"IT1486A","station_name":"Caserta CE51 Ist. Manzoni","pollutant":"PM2,5","date":"2025-12-27T00:00:00.000","value":3.1875,"Ore_Disponibili":8,"lat":41.0818,"lon":14.3349,"date_only":"2025-12-27T00:00:00.000"},{"station":"IT1487A","station_name":"Caserta CE52 Sc. De Amicis","pollutant":"CO","date":"2025-12-27T00:00:00.000","value":0.3834782609,"Ore_Disponibili":23,"lat":41.0085302,"lon":14.0787912,"date_only":"2025-12-27T00:00:00.000"},{"station":"IT1487A","station_name":"Caserta CE52 Sc. De Amicis","pollutant":"NO2","date":"2025-12-27T00:00:00.000","value":7.0373913043,"Ore_Disponibili":23,"lat":41.0085302,"lon":14.0787912,"date_only":"2025-12-27T00:00:00.000"},{"station":"IT1487A","station_name":"Caserta CE52 Sc. De Amicis","pollutant":"PM10","date":"2025-12-27T00:00:00.000","value":13.5,"Ore_Disponibili":24,"lat":41.0085302,"lon":14.0787912,"date_only":"2025-12-27T00:00:00.000"},{"station":"IT1488A","station_name":"Maddaloni CE54 Sc. Settembrini","pollutant":"NO2","date":"2025-12-27T00:00:00.000","value":11.5452173913,"Ore_Disponibili":23,"lat":41.094,"lon":14.402,"date_only":"2025-12-27T00:00:00.000"},{"station":"IT1488A","station_name":"Maddaloni CE54 Sc. Settembrini","pollutant":"O3","date":"2025-12-27T00:00:00.000","value":51.1539130435,"Ore_Disponibili":23,"lat":41.094,"lon":14.402,"date_only":"2025-12-27T00:00:00.000"},{"station":"IT1488A","station_name":"Maddaloni CE54 Sc. Settembrini","pollutant":"PM10","date":"2025-12-27T00:00:00.000","value":16.5804166667,"Ore_Disponibili":24,"lat":41.094,"lon":14.402,"date_only":"2025-12-27T00:00:00.000"},{"station":"IT1488A","station_name":"Maddaloni CE54 Sc. Settembrini","pollutant":"PM2,5","date":"2025-12-27T00:00:00.000","value":11.9595833333,"Ore_Disponibili":24,"lat":41.094,"lon":14.402,"date_only":"2025-12-27T00:00:00.000"},{"station":"IT1491A","station_name":"Napoli NA07 Ferrovia \u00b0","pollutant":"CO","date":"2025-12-27T00:00:00.000","value":0.53875,"Ore_Disponibili":24,"lat":40.8277815,"lon":14.3989433,"date_only":"2025-12-27T00:00:00.000"},{"station":"IT1491A","station_name":"Napoli NA07 Ferrovia \u00b0","pollutant":"NO2","date":"2025-12-27T00:00:00.000","value":25.8016666667,"Ore_Disponibili":24,"lat":40.8277815,"lon":14.3989433,"date_only":"2025-12-27T00:00:00.000"},{"station":"IT1493A","station_name":"Napoli NA09 Via Argine","pollutant":"CO","date":"2025-12-27T00:00:00.000","value":0.6966666667,"Ore_Disponibili":24,"lat":40.8560636,"lon":14.3234622,"date_only":"2025-12-27T00:00:00.000"},{"station":"IT1493A","station_name":"Napoli NA09 Via Argine","pollutant":"NO2","date":"2025-12-27T00:00:00.000","value":33.8333333333,"Ore_Disponibili":24,"lat":40.8560636,"lon":14.3234622,"date_only":"2025-12-27T00:00:00.000"},{"station":"IT1493A","station_name":"Napoli NA09 Via Argine","pollutant":"PM10","date":"2025-12-27T00:00:00.000","value":10.9588235294,"Ore_Disponibili":17,"lat":40.8560636,"lon":14.3234622,"date_only":"2025-12-27T00:00:00.000"},{"station":"IT1493A","station_name":"Napoli NA09 Via Argine","pollutant":"PM2,5","date":"2025-12-27T00:00:00.000","value":6.81875,"Ore_Disponibili":16,"lat":40.8560636,"lon":14.3234622,"date_only":"2025-12-27T00:00:00.000"},{"station":"IT1495A","station_name":"Napoli NA08 Osp. N. Pellegrini","pollutant":"NO2","date":"2025-12-27T00:00:00.000","value":25.1,"Ore_Disponibili":24,"lat":40.8535,"lon":14.235,"date_only":"2025-12-27T00:00:00.000"},{"station":"IT1496A","station_name":"Napoli NA02 Osp. Santobono \u00b0","pollutant":"NO2","date":"2025-12-27T00:00:00.000","value":29.8316666667,"Ore_Disponibili":24,"lat":40.8554,"lon":14.2231,"date_only":"2025-12-27T00:00:00.000"},{"station":"IT1496A","station_name":"Napoli NA02 Osp. Santobono \u00b0","pollutant":"PM10","date":"2025-12-27T00:00:00.000","value":11.4045833333,"Ore_Disponibili":24,"lat":40.8554,"lon":14.2231,"date_only":"2025-12-27T00:00:00.000"},{"station":"IT1496A","station_name":"Napoli NA02 Osp. Santobono \u00b0","pollutant":"PM2,5","date":"2025-12-27T00:00:00.000","value":7.7429166667,"Ore_Disponibili":24,"lat":40.8554,"lon":14.2231,"date_only":"2025-12-27T00:00:00.000"},{"station":"IT1497A","station_name":"Napoli NA01 Oss. Astronomico","pollutant":"CO","date":"2025-12-27T00:00:00.000","value":0.4383333333,"Ore_Disponibili":24,"lat":40.853,"lon":14.305,"date_only":"2025-12-27T00:00:00.000"},{"station":"IT1497A","station_name":"Napoli NA01 Oss. Astronomico","pollutant":"NO2","date":"2025-12-27T00:00:00.000","value":17.6979166667,"Ore_Disponibili":24,"lat":40.853,"lon":14.305,"date_only":"2025-12-27T00:00:00.000"},{"station":"IT1497A","station_name":"Napoli NA01 Oss. Astronomico","pollutant":"O3","date":"2025-12-27T00:00:00.000","value":46.0683333333,"Ore_Disponibili":24,"lat":40.853,"lon":14.305,"date_only":"2025-12-27T00:00:00.000"},{"station":"IT1497A","station_name":"Napoli NA01 Oss. Astronomico","pollutant":"PM10","date":"2025-12-27T00:00:00.000","value":10.0425,"Ore_Disponibili":24,"lat":40.853,"lon":14.305,"date_only":"2025-12-27T00:00:00.000"},{"station":"IT1497A","station_name":"Napoli NA01 Oss. Astronomico","pollutant":"PM2,5","date":"2025-12-27T00:00:00.000","value":7.705,"Ore_Disponibili":24,"lat":40.853,"lon":14.305,"date_only":"2025-12-27T00:00:00.000"},{"station":"IT1504A","station_name":"Salerno SA22 Osp. Via Vernieri","pollutant":"CO","date":"2025-12-27T00:00:00.000","value":0.3816666667,"Ore_Disponibili":24,"lat":40.682,"lon":14.766,"date_only":"2025-12-27T00:00:00.000"},{"station":"IT1504A","station_name":"Salerno SA22 Osp. Via Vernieri","pollutant":"NO2","date":"2025-12-27T00:00:00.000","value":9.5820833333,"Ore_Disponibili":24,"lat":40.682,"lon":14.766,"date_only":"2025-12-27T00:00:00.000"},{"station":"IT1504A","station_name":"Salerno SA22 Osp. Via Vernieri","pollutant":"PM10","date":"2025-12-27T00:00:00.000","value":12.305,"Ore_Disponibili":20,"lat":40.682,"lon":14.766,"date_only":"2025-12-27T00:00:00.000"},{"station":"IT1504A","station_name":"Salerno SA22 Osp. Via Vernieri","pollutant":"PM2,5","date":"2025-12-27T00:00:00.000","value":10.2842105263,"Ore_Disponibili":19,"lat":40.682,"lon":14.766,"date_only":"2025-12-27T00:00:00.000"},{"station":"IT2210A","station_name":"Solofra Zona Industriale","pollutant":"CO","date":"2025-12-27T00:00:00.000","value":0.9091304348,"Ore_Disponibili":23,"lat":41.058,"lon":14.808,"date_only":"2025-12-27T00:00:00.000"},{"station":"IT2210A","station_name":"Solofra Zona Industriale","pollutant":"NO2","date":"2025-12-27T00:00:00.000","value":5.1813043478,"Ore_Disponibili":23,"lat":41.058,"lon":14.808,"date_only":"2025-12-27T00:00:00.000"},{"station":"IT2210A","station_name":"Solofra Zona Industriale","pollutant":"PM10","date":"2025-12-27T00:00:00.000","value":11.5958333333,"Ore_Disponibili":24,"lat":41.058,"lon":14.808,"date_only":"2025-12-27T00:00:00.000"},{"station":"IT2210A","station_name":"Solofra Zona Industriale","pollutant":"PM2,5","date":"2025-12-27T00:00:00.000","value":9.38,"Ore_Disponibili":24,"lat":41.058,"lon":14.808,"date_only":"2025-12-27T00:00:00.000"},{"station":"IT2211A","station_name":"Acerra Zona Industriale","pollutant":"CO","date":"2025-12-27T00:00:00.000","value":0.427826087,"Ore_Disponibili":23,"lat":40.9847962,"lon":14.3679606,"date_only":"2025-12-27T00:00:00.000"},{"station":"IT2211A","station_name":"Acerra Zona Industriale","pollutant":"NO2","date":"2025-12-27T00:00:00.000","value":18.5282608696,"Ore_Disponibili":23,"lat":40.9847962,"lon":14.3679606,"date_only":"2025-12-27T00:00:00.000"},{"station":"IT2211A","station_name":"Acerra Zona Industriale","pollutant":"PM10","date":"2025-12-27T00:00:00.000","value":3.9,"Ore_Disponibili":24,"lat":40.9847962,"lon":14.3679606,"date_only":"2025-12-27T00:00:00.000"},{"station":"IT2212A","station_name":"S. Vitaliano Scuola Marconi","pollutant":"NO2","date":"2025-12-27T00:00:00.000","value":37.792173913,"Ore_Disponibili":23,"lat":40.896,"lon":14.46,"date_only":"2025-12-27T00:00:00.000"},{"station":"IT2212A","station_name":"S. Vitaliano Scuola Marconi","pollutant":"O3","date":"2025-12-27T00:00:00.000","value":53.0765217391,"Ore_Disponibili":23,"lat":40.896,"lon":14.46,"date_only":"2025-12-27T00:00:00.000"},{"station":"IT2212A","station_name":"S. Vitaliano Scuola Marconi","pollutant":"PM10","date":"2025-12-27T00:00:00.000","value":29.6754166667,"Ore_Disponibili":24,"lat":40.896,"lon":14.46,"date_only":"2025-12-27T00:00:00.000"},{"station":"IT2212A","station_name":"S. Vitaliano Scuola Marconi","pollutant":"PM2,5","date":"2025-12-27T00:00:00.000","value":26.6925,"Ore_Disponibili":24,"lat":40.896,"lon":14.46,"date_only":"2025-12-27T00:00:00.000"},{"station":"IT2213A","station_name":"Cava dei Tirreni Stadio","pollutant":"CO","date":"2025-12-27T00:00:00.000","value":0.7304347826,"Ore_Disponibili":23,"lat":40.7125,"lon":14.638,"date_only":"2025-12-27T00:00:00.000"},{"station":"IT2213A","station_name":"Cava dei Tirreni Stadio","pollutant":"NO2","date":"2025-12-27T00:00:00.000","value":14.6482608696,"Ore_Disponibili":23,"lat":40.7125,"lon":14.638,"date_only":"2025-12-27T00:00:00.000"},{"station":"IT2213A","station_name":"Cava dei Tirreni Stadio","pollutant":"O3","date":"2025-12-27T00:00:00.000","value":43.9645454545,"Ore_Disponibili":22,"lat":40.7125,"lon":14.638,"date_only":"2025-12-27T00:00:00.000"},{"station":"IT2213A","station_name":"Cava dei Tirreni Stadio","pollutant":"PM10","date":"2025-12-27T00:00:00.000","value":14.9883333333,"Ore_Disponibili":24,"lat":40.7125,"lon":14.638,"date_only":"2025-12-27T00:00:00.000"},{"station":"IT2213A","station_name":"Cava dei Tirreni Stadio","pollutant":"PM2,5","date":"2025-12-27T00:00:00.000","value":11.96875,"Ore_Disponibili":24,"lat":40.7125,"lon":14.638,"date_only":"2025-12-27T00:00:00.000"},{"station":"IT2214A","station_name":"Nocera Inferiore Sc. Solimena","pollutant":"CO","date":"2025-12-27T00:00:00.000","value":0.5282608696,"Ore_Disponibili":23,"lat":40.7473393,"lon":14.6410145,"date_only":"2025-12-27T00:00:00.000"},{"station":"IT2214A","station_name":"Nocera Inferiore Sc. Solimena","pollutant":"NO2","date":"2025-12-27T00:00:00.000","value":10.2568181818,"Ore_Disponibili":22,"lat":40.7473393,"lon":14.6410145,"date_only":"2025-12-27T00:00:00.000"},{"station":"IT2214A","station_name":"Nocera Inferiore Sc. Solimena","pollutant":"PM10","date":"2025-12-27T00:00:00.000","value":9.7916666667,"Ore_Disponibili":24,"lat":40.7473393,"lon":14.6410145,"date_only":"2025-12-27T00:00:00.000"},{"station":"IT2214A","station_name":"Nocera Inferiore Sc. Solimena","pollutant":"PM2,5","date":"2025-12-27T00:00:00.000","value":7.3420833333,"Ore_Disponibili":24,"lat":40.7473393,"lon":14.6410145,"date_only":"2025-12-27T00:00:00.000"},{"station":"IT2215A","station_name":"Benevento Zona Industriale \u00b0","pollutant":"NO2","date":"2025-12-27T00:00:00.000","value":14.4879166667,"Ore_Disponibili":24,"lat":41.2293368,"lon":14.4782074,"date_only":"2025-12-27T00:00:00.000"},{"station":"IT2215A","station_name":"Benevento Zona Industriale \u00b0","pollutant":"PM10","date":"2025-12-27T00:00:00.000","value":12.3691666667,"Ore_Disponibili":24,"lat":41.2293368,"lon":14.4782074,"date_only":"2025-12-27T00:00:00.000"},{"station":"IT2215A","station_name":"Benevento Zona Industriale \u00b0","pollutant":"PM2,5","date":"2025-12-27T00:00:00.000","value":7.9458333333,"Ore_Disponibili":24,"lat":41.2293368,"lon":14.4782074,"date_only":"2025-12-27T00:00:00.000"},{"station":"IT2216A","station_name":"Casoria Scuola Palizzi","pollutant":"NO2","date":"2025-12-27T00:00:00.000","value":28.1965217391,"Ore_Disponibili":23,"lat":40.904,"lon":14.289,"date_only":"2025-12-27T00:00:00.000"},{"station":"IT2216A","station_name":"Casoria Scuola Palizzi","pollutant":"O3","date":"2025-12-27T00:00:00.000","value":29.7513043478,"Ore_Disponibili":23,"lat":40.904,"lon":14.289,"date_only":"2025-12-27T00:00:00.000"},{"station":"IT2216A","station_name":"Casoria Scuola Palizzi","pollutant":"PM10","date":"2025-12-27T00:00:00.000","value":39.8995833333,"Ore_Disponibili":24,"lat":40.904,"lon":14.289,"date_only":"2025-12-27T00:00:00.000"},{"station":"IT2216A","station_name":"Casoria Scuola Palizzi","pollutant":"PM2,5","date":"2025-12-27T00:00:00.000","value":32.0766666667,"Ore_Disponibili":24,"lat":40.904,"lon":14.289,"date_only":"2025-12-27T00:00:00.000"},{"station":"IT2217A","station_name":"Torre Annunziata Sc. Pascoli","pollutant":"NO2","date":"2025-12-27T00:00:00.000","value":13.0508695652,"Ore_Disponibili":23,"lat":40.7469754,"lon":14.4608234,"date_only":"2025-12-27T00:00:00.000"},{"station":"IT2217A","station_name":"Torre Annunziata Sc. Pascoli","pollutant":"O3","date":"2025-12-27T00:00:00.000","value":45.4095652174,"Ore_Disponibili":23,"lat":40.7469754,"lon":14.4608234,"date_only":"2025-12-27T00:00:00.000"},{"station":"IT2218A","station_name":"San Felice a Cancello C. Scolast.","pollutant":"CO","date":"2025-12-27T00:00:00.000","value":0.3495833333,"Ore_Disponibili":24,"lat":41.015,"lon":14.287,"date_only":"2025-12-27T00:00:00.000"},{"station":"IT2218A","station_name":"San Felice a Cancello C. Scolast.","pollutant":"NO2","date":"2025-12-27T00:00:00.000","value":4.8133333333,"Ore_Disponibili":18,"lat":41.015,"lon":14.287,"date_only":"2025-12-27T00:00:00.000"},{"station":"IT2218A","station_name":"San Felice a Cancello C. Scolast.","pollutant":"O3","date":"2025-12-27T00:00:00.000","value":58.1365217391,"Ore_Disponibili":23,"lat":41.015,"lon":14.287,"date_only":"2025-12-27T00:00:00.000"},{"station":"IT2218A","station_name":"San Felice a Cancello C. Scolast.","pollutant":"PM10","date":"2025-12-27T00:00:00.000","value":10.4441666667,"Ore_Disponibili":24,"lat":41.015,"lon":14.287,"date_only":"2025-12-27T00:00:00.000"},{"station":"IT2218A","station_name":"San Felice a Cancello C. Scolast.","pollutant":"PM2,5","date":"2025-12-27T00:00:00.000","value":8.4504166667,"Ore_Disponibili":24,"lat":41.015,"lon":14.287,"date_only":"2025-12-27T00:00:00.000"},{"station":"IT2219A","station_name":"Acerra Scuola Caporale","pollutant":"CO","date":"2025-12-27T00:00:00.000","value":0.8286956522,"Ore_Disponibili":23,"lat":40.9071,"lon":14.3429,"date_only":"2025-12-27T00:00:00.000"},{"station":"IT2219A","station_name":"Acerra Scuola Caporale","pollutant":"NO2","date":"2025-12-27T00:00:00.000","value":24.8828571429,"Ore_Disponibili":14,"lat":40.9071,"lon":14.3429,"date_only":"2025-12-27T00:00:00.000"},{"station":"IT2219A","station_name":"Acerra Scuola Caporale","pollutant":"PM10","date":"2025-12-27T00:00:00.000","value":26.04375,"Ore_Disponibili":24,"lat":40.9071,"lon":14.3429,"date_only":"2025-12-27T00:00:00.000"},{"station":"IT2219A","station_name":"Acerra Scuola Caporale","pollutant":"PM2,5","date":"2025-12-27T00:00:00.000","value":21.3933333333,"Ore_Disponibili":24,"lat":40.9071,"lon":14.3429,"date_only":"2025-12-27T00:00:00.000"},{"station":"IT2223A","station_name":"Volla Via Filichito *\u00b0","pollutant":"CO","date":"2025-12-27T00:00:00.000","value":0.9533333333,"Ore_Disponibili":24,"lat":40.8824226,"lon":14.3478545,"date_only":"2025-12-27T00:00:00.000"},{"station":"IT2223A","station_name":"Volla Via Filichito *\u00b0","pollutant":"NO2","date":"2025-12-27T00:00:00.000","value":28.57625,"Ore_Disponibili":24,"lat":40.8824226,"lon":14.3478545,"date_only":"2025-12-27T00:00:00.000"},{"station":"IT2223A","station_name":"Volla Via Filichito *\u00b0","pollutant":"O3","date":"2025-12-27T00:00:00.000","value":34.5308333333,"Ore_Disponibili":24,"lat":40.8824226,"lon":14.3478545,"date_only":"2025-12-27T00:00:00.000"},{"station":"IT2223A","station_name":"Volla Via Filichito *\u00b0","pollutant":"PM10","date":"2025-12-27T00:00:00.000","value":19.4275,"Ore_Disponibili":24,"lat":40.8824226,"lon":14.3478545,"date_only":"2025-12-27T00:00:00.000"},{"station":"IT2223A","station_name":"Volla Via Filichito *\u00b0","pollutant":"PM2,5","date":"2025-12-27T00:00:00.000","value":16.8391666667,"Ore_Disponibili":24,"lat":40.8824226,"lon":14.3478545,"date_only":"2025-12-27T00:00:00.000"},{"station":"IT2226A","station_name":"Pomigliano d'Arco Area Asi","pollutant":"CO","date":"2025-12-27T00:00:00.000","value":0.6260869565,"Ore_Disponibili":23,"lat":40.412,"lon":15.341,"date_only":"2025-12-27T00:00:00.000"},{"station":"IT2226A","station_name":"Pomigliano d'Arco Area Asi","pollutant":"NO2","date":"2025-12-27T00:00:00.000","value":28.9852173913,"Ore_Disponibili":23,"lat":40.412,"lon":15.341,"date_only":"2025-12-27T00:00:00.000"},{"station":"IT2226A","station_name":"Pomigliano d'Arco Area Asi","pollutant":"PM10","date":"2025-12-27T00:00:00.000","value":19.8260869565,"Ore_Disponibili":23,"lat":40.412,"lon":15.341,"date_only":"2025-12-27T00:00:00.000"},{"station":"IT2226A","station_name":"Pomigliano d'Arco Area Asi","pollutant":"PM2,5","date":"2025-12-27T00:00:00.000","value":16.9476190476,"Ore_Disponibili":21,"lat":40.412,"lon":15.341,"date_only":"2025-12-27T00:00:00.000"},{"station":"IT2227A","station_name":"Avellino Scuola Alighieri","pollutant":"CO","date":"2025-12-27T00:00:00.000","value":0.3770833333,"Ore_Disponibili":24,"lat":40.9190395,"lon":14.784947,"date_only":"2025-12-27T00:00:00.000"},{"station":"IT2227A","station_name":"Avellino Scuola Alighieri","pollutant":"NO2","date":"2025-12-27T00:00:00.000","value":16.6545833333,"Ore_Disponibili":24,"lat":40.9190395,"lon":14.784947,"date_only":"2025-12-27T00:00:00.000"},{"station":"IT2227A","station_name":"Avellino Scuola Alighieri","pollutant":"PM10","date":"2025-12-27T00:00:00.000","value":5.72,"Ore_Disponibili":24,"lat":40.9190395,"lon":14.784947,"date_only":"2025-12-27T00:00:00.000"},{"station":"IT2227A","station_name":"Avellino Scuola Alighieri","pollutant":"PM2,5","date":"2025-12-27T00:00:00.000","value":4.2579166667,"Ore_Disponibili":24,"lat":40.9190395,"lon":14.784947,"date_only":"2025-12-27T00:00:00.000"},{"station":"IT2228A","station_name":"Benevento Campo Sportivo","pollutant":"NO2","date":"2025-12-27T00:00:00.000","value":12.3291666667,"Ore_Disponibili":24,"lat":41.2315276,"lon":14.5332703,"date_only":"2025-12-27T00:00:00.000"},{"station":"IT2228A","station_name":"Benevento Campo Sportivo","pollutant":"O3","date":"2025-12-27T00:00:00.000","value":31.8634782609,"Ore_Disponibili":23,"lat":41.2315276,"lon":14.5332703,"date_only":"2025-12-27T00:00:00.000"},{"station":"IT2228A","station_name":"Benevento Campo Sportivo","pollutant":"PM10","date":"2025-12-27T00:00:00.000","value":21.3945833333,"Ore_Disponibili":24,"lat":41.2315276,"lon":14.5332703,"date_only":"2025-12-27T00:00:00.000"},{"station":"IT2228A","station_name":"Benevento Campo Sportivo","pollutant":"PM2,5","date":"2025-12-27T00:00:00.000","value":14.6604166667,"Ore_Disponibili":24,"lat":41.2315276,"lon":14.5332703,"date_only":"2025-12-27T00:00:00.000"},{"station":"IT2268A","station_name":"Battipaglia Parco Fiume","pollutant":"NO2","date":"2025-12-27T00:00:00.000","value":13.919,"Ore_Disponibili":10,"lat":40.6167,"lon":14.9833,"date_only":"2025-12-27T00:00:00.000"},{"station":"IT2268A","station_name":"Battipaglia Parco Fiume","pollutant":"O3","date":"2025-12-27T00:00:00.000","value":48.09,"Ore_Disponibili":10,"lat":40.6167,"lon":14.9833,"date_only":"2025-12-27T00:00:00.000"},{"station":"IT2270A","station_name":"Portici Parco Reggia","pollutant":"NO2","date":"2025-12-27T00:00:00.000","value":27.1073913043,"Ore_Disponibili":23,"lat":40.813588,"lon":14.3476526,"date_only":"2025-12-27T00:00:00.000"},{"station":"IT2270A","station_name":"Portici Parco Reggia","pollutant":"O3","date":"2025-12-27T00:00:00.000","value":29.5704347826,"Ore_Disponibili":23,"lat":40.813588,"lon":14.3476526,"date_only":"2025-12-27T00:00:00.000"},{"station":"IT2270A","station_name":"Portici Parco Reggia","pollutant":"PM10","date":"2025-12-27T00:00:00.000","value":17.37375,"Ore_Disponibili":24,"lat":40.813588,"lon":14.3476526,"date_only":"2025-12-27T00:00:00.000"},{"station":"IT2270A","station_name":"Portici Parco Reggia","pollutant":"PM2,5","date":"2025-12-27T00:00:00.000","value":14.6154166667,"Ore_Disponibili":24,"lat":40.813588,"lon":14.3476526,"date_only":"2025-12-27T00:00:00.000"},{"station":"IT2271A","station_name":"Aversa Scuola Cirillo \u00b0","pollutant":"CO","date":"2025-12-27T00:00:00.000","value":0.1704347826,"Ore_Disponibili":23,"lat":40.9758352,"lon":14.2117669,"date_only":"2025-12-27T00:00:00.000"},{"station":"IT2271A","station_name":"Aversa Scuola Cirillo \u00b0","pollutant":"NO2","date":"2025-12-27T00:00:00.000","value":20.4769565217,"Ore_Disponibili":23,"lat":40.9758352,"lon":14.2117669,"date_only":"2025-12-27T00:00:00.000"},{"station":"IT2271A","station_name":"Aversa Scuola Cirillo \u00b0","pollutant":"PM10","date":"2025-12-27T00:00:00.000","value":15.8629166667,"Ore_Disponibili":24,"lat":40.9758352,"lon":14.2117669,"date_only":"2025-12-27T00:00:00.000"},{"station":"IT2271A","station_name":"Aversa Scuola Cirillo \u00b0","pollutant":"PM2,5","date":"2025-12-27T00:00:00.000","value":12.4054166667,"Ore_Disponibili":24,"lat":40.9758352,"lon":14.2117669,"date_only":"2025-12-27T00:00:00.000"},{"station":"IT2272A","station_name":"Pozzuoli Zona Villa Avellino","pollutant":"NO2","date":"2025-12-27T00:00:00.000","value":24.0582608696,"Ore_Disponibili":23,"lat":40.834,"lon":14.119,"date_only":"2025-12-27T00:00:00.000"},{"station":"IT2272A","station_name":"Pozzuoli Zona Villa Avellino","pollutant":"O3","date":"2025-12-27T00:00:00.000","value":36.4875,"Ore_Disponibili":24,"lat":40.834,"lon":14.119,"date_only":"2025-12-27T00:00:00.000"},{"station":"IT2272A","station_name":"Pozzuoli Zona Villa Avellino","pollutant":"PM10","date":"2025-12-27T00:00:00.000","value":24.195,"Ore_Disponibili":24,"lat":40.834,"lon":14.119,"date_only":"2025-12-27T00:00:00.000"},{"station":"IT2272A","station_name":"Pozzuoli Zona Villa Avellino","pollutant":"PM2,5","date":"2025-12-27T00:00:00.000","value":19.8254166667,"Ore_Disponibili":24,"lat":40.834,"lon":14.119,"date_only":"2025-12-27T00:00:00.000"},{"station":"IT2273A","station_name":"Polla Area Tritovagliatore","pollutant":"CO","date":"2025-12-27T00:00:00.000","value":0.4495652174,"Ore_Disponibili":23,"lat":40.412,"lon":15.341,"date_only":"2025-12-27T00:00:00.000"},{"station":"IT2273A","station_name":"Polla Area Tritovagliatore","pollutant":"NO2","date":"2025-12-27T00:00:00.000","value":11.14,"Ore_Disponibili":23,"lat":40.412,"lon":15.341,"date_only":"2025-12-27T00:00:00.000"},{"station":"IT2273A","station_name":"Polla Area Tritovagliatore","pollutant":"PM10","date":"2025-12-27T00:00:00.000","value":5.67625,"Ore_Disponibili":24,"lat":40.412,"lon":15.341,"date_only":"2025-12-27T00:00:00.000"},{"station":"IT2273A","station_name":"Polla Area Tritovagliatore","pollutant":"PM2,5","date":"2025-12-27T00:00:00.000","value":4.1725,"Ore_Disponibili":24,"lat":40.412,"lon":15.341,"date_only":"2025-12-27T00:00:00.000"},{"station":"IT2276A","station_name":"Ariano Irpino Stadio","pollutant":"CO","date":"2025-12-27T00:00:00.000","value":0.1529166667,"Ore_Disponibili":24,"lat":41.1555975,"lon":15.0967062,"date_only":"2025-12-27T00:00:00.000"},{"station":"IT2276A","station_name":"Ariano Irpino Stadio","pollutant":"NO2","date":"2025-12-27T00:00:00.000","value":1.5554545455,"Ore_Disponibili":11,"lat":41.1555975,"lon":15.0967062,"date_only":"2025-12-27T00:00:00.000"},{"station":"IT2276A","station_name":"Ariano Irpino Stadio","pollutant":"O3","date":"2025-12-27T00:00:00.000","value":63.8973913043,"Ore_Disponibili":23,"lat":41.1555975,"lon":15.0967062,"date_only":"2025-12-27T00:00:00.000"},{"station":"IT2277A","station_name":"Napoli Parco Virgiliano","pollutant":"CO","date":"2025-12-27T00:00:00.000","value":0.3354166667,"Ore_Disponibili":24,"lat":40.7984999,"lon":14.1790765,"date_only":"2025-12-27T00:00:00.000"},{"station":"IT2277A","station_name":"Napoli Parco Virgiliano","pollutant":"NO2","date":"2025-12-27T00:00:00.000","value":12.9956521739,"Ore_Disponibili":23,"lat":40.7984999,"lon":14.1790765,"date_only":"2025-12-27T00:00:00.000"},{"station":"IT2277A","station_name":"Napoli Parco Virgiliano","pollutant":"O3","date":"2025-12-27T00:00:00.000","value":53.0366666667,"Ore_Disponibili":24,"lat":40.7984999,"lon":14.1790765,"date_only":"2025-12-27T00:00:00.000"},{"station":"IT2277A","station_name":"Napoli Parco Virgiliano","pollutant":"PM10","date":"2025-12-27T00:00:00.000","value":8.7,"Ore_Disponibili":24,"lat":40.7984999,"lon":14.1790765,"date_only":"2025-12-27T00:00:00.000"},{"station":"IT2277A","station_name":"Napoli Parco Virgiliano","pollutant":"PM2,5","date":"2025-12-27T00:00:00.000","value":5.3,"Ore_Disponibili":24,"lat":40.7984999,"lon":14.1790765,"date_only":"2025-12-27T00:00:00.000"},{"station":"IT2283A","station_name":"Ottati Alburni","pollutant":"NO2","date":"2025-12-27T00:00:00.000","value":1.39,"Ore_Disponibili":22,"lat":40.306,"lon":15.277,"date_only":"2025-12-27T00:00:00.000"},{"station":"IT2283A","station_name":"Ottati Alburni","pollutant":"O3","date":"2025-12-27T00:00:00.000","value":64.6860869565,"Ore_Disponibili":23,"lat":40.306,"lon":15.277,"date_only":"2025-12-27T00:00:00.000"},{"station":"IT2283A","station_name":"Ottati Alburni","pollutant":"PM10","date":"2025-12-27T00:00:00.000","value":8.9,"Ore_Disponibili":24,"lat":40.306,"lon":15.277,"date_only":"2025-12-27T00:00:00.000"},{"station":"IT2283A","station_name":"Ottati Alburni","pollutant":"PM2,5","date":"2025-12-27T00:00:00.000","value":0.0,"Ore_Disponibili":24,"lat":40.306,"lon":15.277,"date_only":"2025-12-27T00:00:00.000"}]