[{"station":"IT0898A","station_name":"NA06 MUSEO NAZIONALE","pollutant":"NO2","date":"2025-01-24","value":70.3434782609,"Ore_Disponibili":23,"lat":40.8536064,"lon":14.25115,"date_only":"2025-01-24T00:00:00.000"},{"station":"IT0898A","station_name":"NA06 MUSEO NAZIONALE","pollutant":"PM10","date":"2025-01-24","value":62.7,"Ore_Disponibili":24,"lat":40.8536064,"lon":14.25115,"date_only":"2025-01-24T00:00:00.000"},{"station":"IT0934A","station_name":"BN32 Via Mustilli","pollutant":"NO2","date":"2025-01-24","value":34.2863636364,"Ore_Disponibili":22,"lat":41.7572524,"lon":12.3201661,"date_only":"2025-01-24T00:00:00.000"},{"station":"IT0934A","station_name":"BN32 Via Mustilli","pollutant":"PM10","date":"2025-01-24","value":49.4125,"Ore_Disponibili":24,"lat":41.7572524,"lon":12.3201661,"date_only":"2025-01-24T00:00:00.000"},{"station":"IT0936A","station_name":"AV41 SCUOLA V CIRCOLO","pollutant":"NO2","date":"2025-01-24","value":33.0304347826,"Ore_Disponibili":23,"lat":43.8951992,"lon":11.3222381,"date_only":"2025-01-24T00:00:00.000"},{"station":"IT0936A","station_name":"AV41 SCUOLA V CIRCOLO","pollutant":"O3","date":"2025-01-24","value":41.9434782609,"Ore_Disponibili":23,"lat":43.8951992,"lon":11.3222381,"date_only":"2025-01-24T00:00:00.000"},{"station":"IT0936A","station_name":"AV41 SCUOLA V CIRCOLO","pollutant":"PM10","date":"2025-01-24","value":32.1666666667,"Ore_Disponibili":24,"lat":43.8951992,"lon":11.3222381,"date_only":"2025-01-24T00:00:00.000"},{"station":"IT1041A","station_name":"SA23 SCUOLA OSVALDO CONTI","pollutant":"NO2","date":"2025-01-24","value":47.3130434783,"Ore_Disponibili":23,"lat":41.058,"lon":14.808,"date_only":"2025-01-24T00:00:00.000"},{"station":"IT1041A","station_name":"SA23 SCUOLA OSVALDO CONTI","pollutant":"O3","date":"2025-01-24","value":9.4608695652,"Ore_Disponibili":23,"lat":41.058,"lon":14.808,"date_only":"2025-01-24T00:00:00.000"},{"station":"IT1486A","station_name":"CE51 ISTITUTO MANZONI","pollutant":"NO2","date":"2025-01-24","value":38.7315789474,"Ore_Disponibili":19,"lat":41.0818,"lon":14.3349,"date_only":"2025-01-24T00:00:00.000"},{"station":"IT1486A","station_name":"CE51 ISTITUTO MANZONI","pollutant":"O3","date":"2025-01-24","value":31.0777777778,"Ore_Disponibili":9,"lat":41.0818,"lon":14.3349,"date_only":"2025-01-24T00:00:00.000"},{"station":"IT1486A","station_name":"CE51 ISTITUTO MANZONI","pollutant":"PM10","date":"2025-01-24","value":35.775,"Ore_Disponibili":24,"lat":41.0818,"lon":14.3349,"date_only":"2025-01-24T00:00:00.000"},{"station":"IT1487A","station_name":"CE52 SCUOLA DE AMICIS","pollutant":"NO2","date":"2025-01-24","value":45.2,"Ore_Disponibili":23,"lat":45.4166851,"lon":11.8748262,"date_only":"2025-01-24T00:00:00.000"},{"station":"IT1487A","station_name":"CE52 SCUOLA DE AMICIS","pollutant":"PM10","date":"2025-01-24","value":46.0,"Ore_Disponibili":24,"lat":45.4166851,"lon":11.8748262,"date_only":"2025-01-24T00:00:00.000"},{"station":"IT1488A","station_name":"CE54 SCUOLA SETTEMBRINI","pollutant":"NO2","date":"2025-01-24","value":39.8130434783,"Ore_Disponibili":23,"lat":40.7402509,"lon":14.6724943,"date_only":"2025-01-24T00:00:00.000"},{"station":"IT1488A","station_name":"CE54 SCUOLA SETTEMBRINI","pollutant":"O3","date":"2025-01-24","value":16.2826086957,"Ore_Disponibili":23,"lat":40.7402509,"lon":14.6724943,"date_only":"2025-01-24T00:00:00.000"},{"station":"IT1488A","station_name":"CE54 SCUOLA SETTEMBRINI","pollutant":"PM10","date":"2025-01-24","value":53.2583333333,"Ore_Disponibili":24,"lat":40.7402509,"lon":14.6724943,"date_only":"2025-01-24T00:00:00.000"},{"station":"IT1491A","station_name":"NA07 ENTE FERROVIE","pollutant":"NO2","date":"2025-01-24","value":77.1285714286,"Ore_Disponibili":21,"lat":45.6541955,"lon":13.7741392,"date_only":"2025-01-24T00:00:00.000"},{"station":"IT1491A","station_name":"NA07 ENTE FERROVIE","pollutant":"PM10","date":"2025-01-24","value":69.3458333333,"Ore_Disponibili":24,"lat":45.6541955,"lon":13.7741392,"date_only":"2025-01-24T00:00:00.000"},{"station":"IT1493A","station_name":"NA09 I.T.I.S. ARGINE","pollutant":"NO2","date":"2025-01-24","value":61.4391304348,"Ore_Disponibili":23,"lat":44.7377462,"lon":11.6477031,"date_only":"2025-01-24T00:00:00.000"},{"station":"IT1493A","station_name":"NA09 I.T.I.S. ARGINE","pollutant":"PM10","date":"2025-01-24","value":69.6208333333,"Ore_Disponibili":24,"lat":44.7377462,"lon":11.6477031,"date_only":"2025-01-24T00:00:00.000"},{"station":"IT1495A","station_name":"NA08 OSPEDALE NUOVO PELLEGRINI","pollutant":"NO2","date":"2025-01-24","value":64.9,"Ore_Disponibili":23,"lat":40.8535,"lon":14.235,"date_only":"2025-01-24T00:00:00.000"},{"station":"IT1495A","station_name":"NA08 OSPEDALE NUOVO PELLEGRINI","pollutant":"PM10","date":"2025-01-24","value":70.8,"Ore_Disponibili":24,"lat":40.8535,"lon":14.235,"date_only":"2025-01-24T00:00:00.000"},{"station":"IT1496A","station_name":"NA02 OSPEDALE SANTOBONO","pollutant":"NO2","date":"2025-01-24","value":72.0173913043,"Ore_Disponibili":23,"lat":40.8615516,"lon":14.2278503,"date_only":"2025-01-24T00:00:00.000"},{"station":"IT1496A","station_name":"NA02 OSPEDALE SANTOBONO","pollutant":"PM10","date":"2025-01-24","value":38.8833333333,"Ore_Disponibili":24,"lat":40.8615516,"lon":14.2278503,"date_only":"2025-01-24T00:00:00.000"},{"station":"IT1497A","station_name":"NA01 OSSERVATORIO ASTRONOMICO","pollutant":"NO2","date":"2025-01-24","value":56.2875,"Ore_Disponibili":24,"lat":46.0863714,"lon":13.3165669,"date_only":"2025-01-24T00:00:00.000"},{"station":"IT1497A","station_name":"NA01 OSSERVATORIO ASTRONOMICO","pollutant":"O3","date":"2025-01-24","value":38.3260869565,"Ore_Disponibili":23,"lat":46.0863714,"lon":13.3165669,"date_only":"2025-01-24T00:00:00.000"},{"station":"IT1497A","station_name":"NA01 OSSERVATORIO ASTRONOMICO","pollutant":"PM10","date":"2025-01-24","value":34.0625,"Ore_Disponibili":24,"lat":46.0863714,"lon":13.3165669,"date_only":"2025-01-24T00:00:00.000"},{"station":"IT1504A","station_name":"SA22 Ospedale via Vernieri","pollutant":"NO2","date":"2025-01-24","value":49.2173913043,"Ore_Disponibili":23,"lat":40.682,"lon":14.766,"date_only":"2025-01-24T00:00:00.000"},{"station":"IT1504A","station_name":"SA22 Ospedale via Vernieri","pollutant":"PM10","date":"2025-01-24","value":44.7416666667,"Ore_Disponibili":24,"lat":40.682,"lon":14.766,"date_only":"2025-01-24T00:00:00.000"},{"station":"IT2210A","station_name":"SOLOFRA ZONA INDUSTRIALE","pollutant":"NO2","date":"2025-01-24","value":18.5173913043,"Ore_Disponibili":23,"lat":41.058,"lon":14.808,"date_only":"2025-01-24T00:00:00.000"},{"station":"IT2210A","station_name":"SOLOFRA ZONA INDUSTRIALE","pollutant":"PM10","date":"2025-01-24","value":43.0458333333,"Ore_Disponibili":24,"lat":41.058,"lon":14.808,"date_only":"2025-01-24T00:00:00.000"},{"station":"IT2211A","station_name":"ACERRA ZONA INDUSTRIALE","pollutant":"NO2","date":"2025-01-24","value":37.9434782609,"Ore_Disponibili":23,"lat":40.9847962,"lon":14.3679606,"date_only":"2025-01-24T00:00:00.000"},{"station":"IT2211A","station_name":"ACERRA ZONA INDUSTRIALE","pollutant":"PM10","date":"2025-01-24","value":91.2,"Ore_Disponibili":24,"lat":40.9847962,"lon":14.3679606,"date_only":"2025-01-24T00:00:00.000"},{"station":"IT2212A","station_name":"San Vitaliano Scuola Elementare Marconi","pollutant":"NO2","date":"2025-01-24","value":89.5304347826,"Ore_Disponibili":23,"lat":40.896,"lon":14.46,"date_only":"2025-01-24T00:00:00.000"},{"station":"IT2212A","station_name":"San Vitaliano Scuola Elementare Marconi","pollutant":"O3","date":"2025-01-24","value":24.9772727273,"Ore_Disponibili":22,"lat":40.896,"lon":14.46,"date_only":"2025-01-24T00:00:00.000"},{"station":"IT2212A","station_name":"San Vitaliano Scuola Elementare Marconi","pollutant":"PM10","date":"2025-01-24","value":110.8958333333,"Ore_Disponibili":24,"lat":40.896,"lon":14.46,"date_only":"2025-01-24T00:00:00.000"},{"station":"IT2213A","station_name":"CAVA DEI TIRRENI - STADIO","pollutant":"NO2","date":"2025-01-24","value":30.9590909091,"Ore_Disponibili":22,"lat":44.4937761,"lon":11.3101851,"date_only":"2025-01-24T00:00:00.000"},{"station":"IT2213A","station_name":"CAVA DEI TIRRENI - STADIO","pollutant":"O3","date":"2025-01-24","value":40.0739130435,"Ore_Disponibili":23,"lat":44.4937761,"lon":11.3101851,"date_only":"2025-01-24T00:00:00.000"},{"station":"IT2213A","station_name":"CAVA DEI TIRRENI - STADIO","pollutant":"PM10","date":"2025-01-24","value":40.8458333333,"Ore_Disponibili":24,"lat":44.4937761,"lon":11.3101851,"date_only":"2025-01-24T00:00:00.000"},{"station":"IT2214A","station_name":"Nocera Inferiore scuola Solimene","pollutant":"NO2","date":"2025-01-24","value":50.85,"Ore_Disponibili":22,"lat":40.7445,"lon":14.734,"date_only":"2025-01-24T00:00:00.000"},{"station":"IT2214A","station_name":"Nocera Inferiore scuola Solimene","pollutant":"PM10","date":"2025-01-24","value":60.9625,"Ore_Disponibili":24,"lat":40.7445,"lon":14.734,"date_only":"2025-01-24T00:00:00.000"},{"station":"IT2215A","station_name":"BENEVENTO ZONA INDUSTRIALE","pollutant":"NO2","date":"2025-01-24","value":15.5041666667,"Ore_Disponibili":24,"lat":41.2293368,"lon":14.4782074,"date_only":"2025-01-24T00:00:00.000"},{"station":"IT2215A","station_name":"BENEVENTO ZONA INDUSTRIALE","pollutant":"O3","date":"2025-01-24","value":26.7086956522,"Ore_Disponibili":23,"lat":41.2293368,"lon":14.4782074,"date_only":"2025-01-24T00:00:00.000"},{"station":"IT2215A","station_name":"BENEVENTO ZONA INDUSTRIALE","pollutant":"PM10","date":"2025-01-24","value":28.3875,"Ore_Disponibili":24,"lat":41.2293368,"lon":14.4782074,"date_only":"2025-01-24T00:00:00.000"},{"station":"IT2216A","station_name":"Casoria Scuola Palizzi (CAM)","pollutant":"O3","date":"2025-01-24","value":17.6565217391,"Ore_Disponibili":23,"lat":40.904,"lon":14.289,"date_only":"2025-01-24T00:00:00.000"},{"station":"IT2216A","station_name":"Casoria Scuola Palizzi (CAM)","pollutant":"PM10","date":"2025-01-24","value":96.8,"Ore_Disponibili":24,"lat":40.904,"lon":14.289,"date_only":"2025-01-24T00:00:00.000"},{"station":"IT2217A","station_name":"Torre Annunziata Scuola Media Pascoli","pollutant":"NO2","date":"2025-01-24","value":33.1608695652,"Ore_Disponibili":23,"lat":40.831,"lon":14.426,"date_only":"2025-01-24T00:00:00.000"},{"station":"IT2217A","station_name":"Torre Annunziata Scuola Media Pascoli","pollutant":"O3","date":"2025-01-24","value":35.2304347826,"Ore_Disponibili":23,"lat":40.831,"lon":14.426,"date_only":"2025-01-24T00:00:00.000"},{"station":"IT2218A","station_name":"San Felice a Cancello Complesso scolastico","pollutant":"NO2","date":"2025-01-24","value":28.8625,"Ore_Disponibili":24,"lat":41.015,"lon":14.287,"date_only":"2025-01-24T00:00:00.000"},{"station":"IT2218A","station_name":"San Felice a Cancello Complesso scolastico","pollutant":"O3","date":"2025-01-24","value":27.4347826087,"Ore_Disponibili":23,"lat":41.015,"lon":14.287,"date_only":"2025-01-24T00:00:00.000"},{"station":"IT2218A","station_name":"San Felice a Cancello Complesso scolastico","pollutant":"PM10","date":"2025-01-24","value":45.5833333333,"Ore_Disponibili":24,"lat":41.015,"lon":14.287,"date_only":"2025-01-24T00:00:00.000"},{"station":"IT2219A","station_name":"Acerra scuola Caporale","pollutant":"NO2","date":"2025-01-24","value":43.047826087,"Ore_Disponibili":23,"lat":40.9169,"lon":14.3425,"date_only":"2025-01-24T00:00:00.000"},{"station":"IT2219A","station_name":"Acerra scuola Caporale","pollutant":"PM10","date":"2025-01-24","value":107.6708333333,"Ore_Disponibili":24,"lat":40.9169,"lon":14.3425,"date_only":"2025-01-24T00:00:00.000"},{"station":"IT2221A","station_name":"Napoli via Epomeo","pollutant":"NO2","date":"2025-01-24","value":36.5956521739,"Ore_Disponibili":23,"lat":40.7205434,"lon":13.8987737,"date_only":"2025-01-24T00:00:00.000"},{"station":"IT2221A","station_name":"Napoli via Epomeo","pollutant":"O3","date":"2025-01-24","value":10.3304347826,"Ore_Disponibili":23,"lat":40.7205434,"lon":13.8987737,"date_only":"2025-01-24T00:00:00.000"},{"station":"IT2221A","station_name":"Napoli via Epomeo","pollutant":"PM10","date":"2025-01-24","value":30.75,"Ore_Disponibili":24,"lat":40.7205434,"lon":13.8987737,"date_only":"2025-01-24T00:00:00.000"},{"station":"IT2223A","station_name":"Volla via Filichito","pollutant":"NO2","date":"2025-01-24","value":53.0166666667,"Ore_Disponibili":24,"lat":40.8824226,"lon":14.3478545,"date_only":"2025-01-24T00:00:00.000"},{"station":"IT2223A","station_name":"Volla via Filichito","pollutant":"O3","date":"2025-01-24","value":13.4217391304,"Ore_Disponibili":23,"lat":40.8824226,"lon":14.3478545,"date_only":"2025-01-24T00:00:00.000"},{"station":"IT2223A","station_name":"Volla via Filichito","pollutant":"PM10","date":"2025-01-24","value":58.1083333333,"Ore_Disponibili":24,"lat":40.8824226,"lon":14.3478545,"date_only":"2025-01-24T00:00:00.000"},{"station":"IT2226A","station_name":"Pomigliano d'Arco Area ASI","pollutant":"NO2","date":"2025-01-24","value":62.452173913,"Ore_Disponibili":23,"lat":40.9075,"lon":14.393,"date_only":"2025-01-24T00:00:00.000"},{"station":"IT2226A","station_name":"Pomigliano d'Arco Area ASI","pollutant":"PM10","date":"2025-01-24","value":81.3083333333,"Ore_Disponibili":24,"lat":40.9075,"lon":14.393,"date_only":"2025-01-24T00:00:00.000"},{"station":"IT2227A","station_name":"AVELLINO - SCUOLA ALIGHIERI","pollutant":"NO2","date":"2025-01-24","value":47.9375,"Ore_Disponibili":24,"lat":40.9190395,"lon":14.784947,"date_only":"2025-01-24T00:00:00.000"},{"station":"IT2227A","station_name":"AVELLINO - SCUOLA ALIGHIERI","pollutant":"PM10","date":"2025-01-24","value":22.2083333333,"Ore_Disponibili":24,"lat":40.9190395,"lon":14.784947,"date_only":"2025-01-24T00:00:00.000"},{"station":"IT2228A","station_name":"BENEVENTO CAMPO SPORTIVO","pollutant":"NO2","date":"2025-01-24","value":27.8333333333,"Ore_Disponibili":24,"lat":41.2315276,"lon":14.5332703,"date_only":"2025-01-24T00:00:00.000"},{"station":"IT2228A","station_name":"BENEVENTO CAMPO SPORTIVO","pollutant":"O3","date":"2025-01-24","value":14.9608695652,"Ore_Disponibili":23,"lat":41.2315276,"lon":14.5332703,"date_only":"2025-01-24T00:00:00.000"},{"station":"IT2228A","station_name":"BENEVENTO CAMPO SPORTIVO","pollutant":"PM10","date":"2025-01-24","value":44.5583333333,"Ore_Disponibili":24,"lat":41.2315276,"lon":14.5332703,"date_only":"2025-01-24T00:00:00.000"},{"station":"IT2268A","station_name":"BATTIPAGLIA - PARCO FIUME","pollutant":"NO2","date":"2025-01-24","value":28.2181818182,"Ore_Disponibili":22,"lat":44.3859682,"lon":7.5509829,"date_only":"2025-01-24T00:00:00.000"},{"station":"IT2268A","station_name":"BATTIPAGLIA - PARCO FIUME","pollutant":"O3","date":"2025-01-24","value":33.3652173913,"Ore_Disponibili":23,"lat":44.3859682,"lon":7.5509829,"date_only":"2025-01-24T00:00:00.000"},{"station":"IT2268A","station_name":"BATTIPAGLIA - PARCO FIUME","pollutant":"PM10","date":"2025-01-24","value":43.4,"Ore_Disponibili":24,"lat":44.3859682,"lon":7.5509829,"date_only":"2025-01-24T00:00:00.000"},{"station":"IT2270A","station_name":"Portici parco Reggia","pollutant":"NO2","date":"2025-01-24","value":33.0652173913,"Ore_Disponibili":23,"lat":40.813588,"lon":14.3476526,"date_only":"2025-01-24T00:00:00.000"},{"station":"IT2270A","station_name":"Portici parco Reggia","pollutant":"O3","date":"2025-01-24","value":36.7782608696,"Ore_Disponibili":23,"lat":40.813588,"lon":14.3476526,"date_only":"2025-01-24T00:00:00.000"},{"station":"IT2270A","station_name":"Portici parco Reggia","pollutant":"PM10","date":"2025-01-24","value":28.6041666667,"Ore_Disponibili":24,"lat":40.813588,"lon":14.3476526,"date_only":"2025-01-24T00:00:00.000"},{"station":"IT2271A","station_name":"Aversa scuola Cirillo","pollutant":"NO2","date":"2025-01-24","value":63.6260869565,"Ore_Disponibili":23,"lat":40.9758352,"lon":14.2117669,"date_only":"2025-01-24T00:00:00.000"},{"station":"IT2271A","station_name":"Aversa scuola Cirillo","pollutant":"PM10","date":"2025-01-24","value":109.7875,"Ore_Disponibili":24,"lat":40.9758352,"lon":14.2117669,"date_only":"2025-01-24T00:00:00.000"},{"station":"IT2272A","station_name":"Pozzuoli ex Villa Avellino","pollutant":"O3","date":"2025-01-24","value":28.2291666667,"Ore_Disponibili":24,"lat":40.834,"lon":14.119,"date_only":"2025-01-24T00:00:00.000"},{"station":"IT2272A","station_name":"Pozzuoli ex Villa Avellino","pollutant":"PM10","date":"2025-01-24","value":32.3083333333,"Ore_Disponibili":24,"lat":40.834,"lon":14.119,"date_only":"2025-01-24T00:00:00.000"},{"station":"IT2273A","station_name":"Polla Area tritovagliatore","pollutant":"NO2","date":"2025-01-24","value":36.2739130435,"Ore_Disponibili":23,"lat":40.412,"lon":15.341,"date_only":"2025-01-24T00:00:00.000"},{"station":"IT2273A","station_name":"Polla Area tritovagliatore","pollutant":"PM10","date":"2025-01-24","value":26.2541666667,"Ore_Disponibili":24,"lat":40.412,"lon":15.341,"date_only":"2025-01-24T00:00:00.000"},{"station":"IT2276A","station_name":"Ariano Irpino Villa Comunale","pollutant":"NO2","date":"2025-01-24","value":7.8666666667,"Ore_Disponibili":24,"lat":41.1549432,"lon":15.0951624,"date_only":"2025-01-24T00:00:00.000"},{"station":"IT2276A","station_name":"Ariano Irpino Villa Comunale","pollutant":"O3","date":"2025-01-24","value":79.5565217391,"Ore_Disponibili":23,"lat":41.1549432,"lon":15.0951624,"date_only":"2025-01-24T00:00:00.000"},{"station":"IT2277A","station_name":"Napoli parco Virgiliano","pollutant":"NO2","date":"2025-01-24","value":26.4913043478,"Ore_Disponibili":23,"lat":40.7984999,"lon":14.1790765,"date_only":"2025-01-24T00:00:00.000"},{"station":"IT2277A","station_name":"Napoli parco Virgiliano","pollutant":"O3","date":"2025-01-24","value":60.7583333333,"Ore_Disponibili":24,"lat":40.7984999,"lon":14.1790765,"date_only":"2025-01-24T00:00:00.000"},{"station":"IT2277A","station_name":"Napoli parco Virgiliano","pollutant":"PM10","date":"2025-01-24","value":32.5,"Ore_Disponibili":24,"lat":40.7984999,"lon":14.1790765,"date_only":"2025-01-24T00:00:00.000"},{"station":"IT2283A","station_name":"OTTATI - ALBURNI","pollutant":"NO2","date":"2025-01-24","value":1.9130434783,"Ore_Disponibili":23,"lat":40.560311,"lon":15.303957,"date_only":"2025-01-24T00:00:00.000"},{"station":"IT2283A","station_name":"OTTATI - ALBURNI","pollutant":"O3","date":"2025-01-24","value":74.0173913043,"Ore_Disponibili":23,"lat":40.560311,"lon":15.303957,"date_only":"2025-01-24T00:00:00.000"},{"station":"IT2283A","station_name":"OTTATI - ALBURNI","pollutant":"PM10","date":"2025-01-24","value":22.2,"Ore_Disponibili":24,"lat":40.560311,"lon":15.303957,"date_only":"2025-01-24T00:00:00.000"}]