[{"station":"IT0898A","station_name":"NA06 MUSEO NAZIONALE","pollutant":"CO","date":"2025-01-22T00:00:00.000","value":1.5619047619,"Ore_Disponibili":21,"lat":40.8536064,"lon":14.25115,"date_only":"2025-01-22T00:00:00.000"},{"station":"IT0898A","station_name":"NA06 MUSEO NAZIONALE","pollutant":"NO2","date":"2025-01-22T00:00:00.000","value":65.4666666667,"Ore_Disponibili":21,"lat":40.8536064,"lon":14.25115,"date_only":"2025-01-22T00:00:00.000"},{"station":"IT0898A","station_name":"NA06 MUSEO NAZIONALE","pollutant":"PM10","date":"2025-01-22T00:00:00.000","value":52.6444444444,"Ore_Disponibili":9,"lat":40.8536064,"lon":14.25115,"date_only":"2025-01-22T00:00:00.000"},{"station":"IT0898A","station_name":"NA06 MUSEO NAZIONALE","pollutant":"PM2,5","date":"2025-01-22T00:00:00.000","value":34.1222222222,"Ore_Disponibili":9,"lat":40.8536064,"lon":14.25115,"date_only":"2025-01-22T00:00:00.000"},{"station":"IT0934A","station_name":"BN32 Via Mustilli","pollutant":"NO2","date":"2025-01-22T00:00:00.000","value":30.8695652174,"Ore_Disponibili":23,"lat":41.7572524,"lon":12.3201661,"date_only":"2025-01-22T00:00:00.000"},{"station":"IT0934A","station_name":"BN32 Via Mustilli","pollutant":"PM10","date":"2025-01-22T00:00:00.000","value":34.1041666667,"Ore_Disponibili":24,"lat":41.7572524,"lon":12.3201661,"date_only":"2025-01-22T00:00:00.000"},{"station":"IT0934A","station_name":"BN32 Via Mustilli","pollutant":"PM2,5","date":"2025-01-22T00:00:00.000","value":23.25,"Ore_Disponibili":24,"lat":41.7572524,"lon":12.3201661,"date_only":"2025-01-22T00:00:00.000"},{"station":"IT0936A","station_name":"AV41 SCUOLA V CIRCOLO","pollutant":"NO2","date":"2025-01-22T00:00:00.000","value":20.5739130435,"Ore_Disponibili":23,"lat":43.8951992,"lon":11.3222381,"date_only":"2025-01-22T00:00:00.000"},{"station":"IT0936A","station_name":"AV41 SCUOLA V CIRCOLO","pollutant":"O3","date":"2025-01-22T00:00:00.000","value":55.6173913043,"Ore_Disponibili":23,"lat":43.8951992,"lon":11.3222381,"date_only":"2025-01-22T00:00:00.000"},{"station":"IT0936A","station_name":"AV41 SCUOLA V CIRCOLO","pollutant":"PM10","date":"2025-01-22T00:00:00.000","value":8.0291666667,"Ore_Disponibili":24,"lat":43.8951992,"lon":11.3222381,"date_only":"2025-01-22T00:00:00.000"},{"station":"IT0936A","station_name":"AV41 SCUOLA V CIRCOLO","pollutant":"PM2,5","date":"2025-01-22T00:00:00.000","value":5.9166666667,"Ore_Disponibili":24,"lat":43.8951992,"lon":11.3222381,"date_only":"2025-01-22T00:00:00.000"},{"station":"IT1041A","station_name":"SA23 SCUOLA OSVALDO CONTI","pollutant":"NO2","date":"2025-01-22T00:00:00.000","value":36.7260869565,"Ore_Disponibili":23,"lat":41.058,"lon":14.808,"date_only":"2025-01-22T00:00:00.000"},{"station":"IT1041A","station_name":"SA23 SCUOLA OSVALDO CONTI","pollutant":"O3","date":"2025-01-22T00:00:00.000","value":2.3043478261,"Ore_Disponibili":23,"lat":41.058,"lon":14.808,"date_only":"2025-01-22T00:00:00.000"},{"station":"IT1041A","station_name":"SA23 SCUOLA OSVALDO CONTI","pollutant":"PM2,5","date":"2025-01-22T00:00:00.000","value":23.6,"Ore_Disponibili":24,"lat":41.058,"lon":14.808,"date_only":"2025-01-22T00:00:00.000"},{"station":"IT1486A","station_name":"CE51 ISTITUTO MANZONI","pollutant":"NO2","date":"2025-01-22T00:00:00.000","value":31.5217391304,"Ore_Disponibili":23,"lat":41.0818,"lon":14.3349,"date_only":"2025-01-22T00:00:00.000"},{"station":"IT1486A","station_name":"CE51 ISTITUTO MANZONI","pollutant":"O3","date":"2025-01-22T00:00:00.000","value":34.8652173913,"Ore_Disponibili":23,"lat":41.0818,"lon":14.3349,"date_only":"2025-01-22T00:00:00.000"},{"station":"IT1486A","station_name":"CE51 ISTITUTO MANZONI","pollutant":"PM10","date":"2025-01-22T00:00:00.000","value":20.675,"Ore_Disponibili":24,"lat":41.0818,"lon":14.3349,"date_only":"2025-01-22T00:00:00.000"},{"station":"IT1486A","station_name":"CE51 ISTITUTO MANZONI","pollutant":"PM2,5","date":"2025-01-22T00:00:00.000","value":13.3166666667,"Ore_Disponibili":24,"lat":41.0818,"lon":14.3349,"date_only":"2025-01-22T00:00:00.000"},{"station":"IT1487A","station_name":"CE52 SCUOLA DE AMICIS","pollutant":"CO","date":"2025-01-22T00:00:00.000","value":0.6086956522,"Ore_Disponibili":23,"lat":45.4166851,"lon":11.8748262,"date_only":"2025-01-22T00:00:00.000"},{"station":"IT1487A","station_name":"CE52 SCUOLA DE AMICIS","pollutant":"NO2","date":"2025-01-22T00:00:00.000","value":30.5782608696,"Ore_Disponibili":23,"lat":45.4166851,"lon":11.8748262,"date_only":"2025-01-22T00:00:00.000"},{"station":"IT1487A","station_name":"CE52 SCUOLA DE AMICIS","pollutant":"PM10","date":"2025-01-22T00:00:00.000","value":32.7,"Ore_Disponibili":24,"lat":45.4166851,"lon":11.8748262,"date_only":"2025-01-22T00:00:00.000"},{"station":"IT1487A","station_name":"CE52 SCUOLA DE AMICIS","pollutant":"PM2,5","date":"2025-01-22T00:00:00.000","value":11.6,"Ore_Disponibili":24,"lat":45.4166851,"lon":11.8748262,"date_only":"2025-01-22T00:00:00.000"},{"station":"IT1488A","station_name":"CE54 SCUOLA SETTEMBRINI","pollutant":"NO2","date":"2025-01-22T00:00:00.000","value":44.0956521739,"Ore_Disponibili":23,"lat":40.7402509,"lon":14.6724943,"date_only":"2025-01-22T00:00:00.000"},{"station":"IT1488A","station_name":"CE54 SCUOLA SETTEMBRINI","pollutant":"O3","date":"2025-01-22T00:00:00.000","value":12.9434782609,"Ore_Disponibili":23,"lat":40.7402509,"lon":14.6724943,"date_only":"2025-01-22T00:00:00.000"},{"station":"IT1488A","station_name":"CE54 SCUOLA SETTEMBRINI","pollutant":"PM10","date":"2025-01-22T00:00:00.000","value":42.0375,"Ore_Disponibili":24,"lat":40.7402509,"lon":14.6724943,"date_only":"2025-01-22T00:00:00.000"},{"station":"IT1488A","station_name":"CE54 SCUOLA SETTEMBRINI","pollutant":"PM2,5","date":"2025-01-22T00:00:00.000","value":24.8583333333,"Ore_Disponibili":24,"lat":40.7402509,"lon":14.6724943,"date_only":"2025-01-22T00:00:00.000"},{"station":"IT1491A","station_name":"NA07 ENTE FERROVIE","pollutant":"CO","date":"2025-01-22T00:00:00.000","value":1.9782608696,"Ore_Disponibili":23,"lat":45.6541955,"lon":13.7741392,"date_only":"2025-01-22T00:00:00.000"},{"station":"IT1491A","station_name":"NA07 ENTE FERROVIE","pollutant":"NO2","date":"2025-01-22T00:00:00.000","value":71.647826087,"Ore_Disponibili":23,"lat":45.6541955,"lon":13.7741392,"date_only":"2025-01-22T00:00:00.000"},{"station":"IT1491A","station_name":"NA07 ENTE FERROVIE","pollutant":"PM10","date":"2025-01-22T00:00:00.000","value":49.6041666667,"Ore_Disponibili":24,"lat":45.6541955,"lon":13.7741392,"date_only":"2025-01-22T00:00:00.000"},{"station":"IT1491A","station_name":"NA07 ENTE FERROVIE","pollutant":"PM2,5","date":"2025-01-22T00:00:00.000","value":27.7125,"Ore_Disponibili":24,"lat":45.6541955,"lon":13.7741392,"date_only":"2025-01-22T00:00:00.000"},{"station":"IT1493A","station_name":"NA09 I.T.I.S. ARGINE","pollutant":"CO","date":"2025-01-22T00:00:00.000","value":0.4304347826,"Ore_Disponibili":23,"lat":44.7377462,"lon":11.6477031,"date_only":"2025-01-22T00:00:00.000"},{"station":"IT1493A","station_name":"NA09 I.T.I.S. ARGINE","pollutant":"NO2","date":"2025-01-22T00:00:00.000","value":56.3608695652,"Ore_Disponibili":23,"lat":44.7377462,"lon":11.6477031,"date_only":"2025-01-22T00:00:00.000"},{"station":"IT1493A","station_name":"NA09 I.T.I.S. ARGINE","pollutant":"PM10","date":"2025-01-22T00:00:00.000","value":52.1833333333,"Ore_Disponibili":24,"lat":44.7377462,"lon":11.6477031,"date_only":"2025-01-22T00:00:00.000"},{"station":"IT1493A","station_name":"NA09 I.T.I.S. ARGINE","pollutant":"PM2,5","date":"2025-01-22T00:00:00.000","value":37.5173913043,"Ore_Disponibili":23,"lat":44.7377462,"lon":11.6477031,"date_only":"2025-01-22T00:00:00.000"},{"station":"IT1495A","station_name":"NA08 OSPEDALE NUOVO PELLEGRINI","pollutant":"NO2","date":"2025-01-22T00:00:00.000","value":64.1818181818,"Ore_Disponibili":22,"lat":40.8535,"lon":14.235,"date_only":"2025-01-22T00:00:00.000"},{"station":"IT1495A","station_name":"NA08 OSPEDALE NUOVO PELLEGRINI","pollutant":"PM10","date":"2025-01-22T00:00:00.000","value":48.8,"Ore_Disponibili":24,"lat":40.8535,"lon":14.235,"date_only":"2025-01-22T00:00:00.000"},{"station":"IT1496A","station_name":"NA02 OSPEDALE SANTOBONO","pollutant":"NO2","date":"2025-01-22T00:00:00.000","value":56.8391304348,"Ore_Disponibili":23,"lat":40.8615516,"lon":14.2278503,"date_only":"2025-01-22T00:00:00.000"},{"station":"IT1496A","station_name":"NA02 OSPEDALE SANTOBONO","pollutant":"PM10","date":"2025-01-22T00:00:00.000","value":18.8958333333,"Ore_Disponibili":24,"lat":40.8615516,"lon":14.2278503,"date_only":"2025-01-22T00:00:00.000"},{"station":"IT1496A","station_name":"NA02 OSPEDALE SANTOBONO","pollutant":"PM2,5","date":"2025-01-22T00:00:00.000","value":12.125,"Ore_Disponibili":24,"lat":40.8615516,"lon":14.2278503,"date_only":"2025-01-22T00:00:00.000"},{"station":"IT1497A","station_name":"NA01 OSSERVATORIO ASTRONOMICO","pollutant":"CO","date":"2025-01-22T00:00:00.000","value":1.0217391304,"Ore_Disponibili":23,"lat":46.0863714,"lon":13.3165669,"date_only":"2025-01-22T00:00:00.000"},{"station":"IT1497A","station_name":"NA01 OSSERVATORIO ASTRONOMICO","pollutant":"NO2","date":"2025-01-22T00:00:00.000","value":38.2086956522,"Ore_Disponibili":23,"lat":46.0863714,"lon":13.3165669,"date_only":"2025-01-22T00:00:00.000"},{"station":"IT1497A","station_name":"NA01 OSSERVATORIO ASTRONOMICO","pollutant":"O3","date":"2025-01-22T00:00:00.000","value":43.4,"Ore_Disponibili":23,"lat":46.0863714,"lon":13.3165669,"date_only":"2025-01-22T00:00:00.000"},{"station":"IT1497A","station_name":"NA01 OSSERVATORIO ASTRONOMICO","pollutant":"PM10","date":"2025-01-22T00:00:00.000","value":15.3458333333,"Ore_Disponibili":24,"lat":46.0863714,"lon":13.3165669,"date_only":"2025-01-22T00:00:00.000"},{"station":"IT1497A","station_name":"NA01 OSSERVATORIO ASTRONOMICO","pollutant":"PM2,5","date":"2025-01-22T00:00:00.000","value":11.8333333333,"Ore_Disponibili":24,"lat":46.0863714,"lon":13.3165669,"date_only":"2025-01-22T00:00:00.000"},{"station":"IT1504A","station_name":"SA22 Ospedale via Vernieri","pollutant":"CO","date":"2025-01-22T00:00:00.000","value":0.8347826087,"Ore_Disponibili":23,"lat":40.682,"lon":14.766,"date_only":"2025-01-22T00:00:00.000"},{"station":"IT1504A","station_name":"SA22 Ospedale via Vernieri","pollutant":"NO2","date":"2025-01-22T00:00:00.000","value":45.2260869565,"Ore_Disponibili":23,"lat":40.682,"lon":14.766,"date_only":"2025-01-22T00:00:00.000"},{"station":"IT1504A","station_name":"SA22 Ospedale via Vernieri","pollutant":"PM10","date":"2025-01-22T00:00:00.000","value":22.2,"Ore_Disponibili":24,"lat":40.682,"lon":14.766,"date_only":"2025-01-22T00:00:00.000"},{"station":"IT1504A","station_name":"SA22 Ospedale via Vernieri","pollutant":"PM2,5","date":"2025-01-22T00:00:00.000","value":10.8708333333,"Ore_Disponibili":24,"lat":40.682,"lon":14.766,"date_only":"2025-01-22T00:00:00.000"},{"station":"IT2210A","station_name":"SOLOFRA ZONA INDUSTRIALE","pollutant":"CO","date":"2025-01-22T00:00:00.000","value":0.8708333333,"Ore_Disponibili":24,"lat":41.058,"lon":14.808,"date_only":"2025-01-22T00:00:00.000"},{"station":"IT2210A","station_name":"SOLOFRA ZONA INDUSTRIALE","pollutant":"NO2","date":"2025-01-22T00:00:00.000","value":19.9565217391,"Ore_Disponibili":23,"lat":41.058,"lon":14.808,"date_only":"2025-01-22T00:00:00.000"},{"station":"IT2210A","station_name":"SOLOFRA ZONA INDUSTRIALE","pollutant":"PM10","date":"2025-01-22T00:00:00.000","value":34.1083333333,"Ore_Disponibili":24,"lat":41.058,"lon":14.808,"date_only":"2025-01-22T00:00:00.000"},{"station":"IT2210A","station_name":"SOLOFRA ZONA INDUSTRIALE","pollutant":"PM2,5","date":"2025-01-22T00:00:00.000","value":29.275,"Ore_Disponibili":24,"lat":41.058,"lon":14.808,"date_only":"2025-01-22T00:00:00.000"},{"station":"IT2211A","station_name":"ACERRA ZONA INDUSTRIALE","pollutant":"CO","date":"2025-01-22T00:00:00.000","value":0.6739130435,"Ore_Disponibili":23,"lat":40.9847962,"lon":14.3679606,"date_only":"2025-01-22T00:00:00.000"},{"station":"IT2211A","station_name":"ACERRA ZONA INDUSTRIALE","pollutant":"NO2","date":"2025-01-22T00:00:00.000","value":36.547826087,"Ore_Disponibili":23,"lat":40.9847962,"lon":14.3679606,"date_only":"2025-01-22T00:00:00.000"},{"station":"IT2211A","station_name":"ACERRA ZONA INDUSTRIALE","pollutant":"PM10","date":"2025-01-22T00:00:00.000","value":57.4,"Ore_Disponibili":24,"lat":40.9847962,"lon":14.3679606,"date_only":"2025-01-22T00:00:00.000"},{"station":"IT2212A","station_name":"San Vitaliano Scuola Elementare Marconi","pollutant":"NO2","date":"2025-01-22T00:00:00.000","value":86.7173913043,"Ore_Disponibili":23,"lat":40.896,"lon":14.46,"date_only":"2025-01-22T00:00:00.000"},{"station":"IT2212A","station_name":"San Vitaliano Scuola Elementare Marconi","pollutant":"O3","date":"2025-01-22T00:00:00.000","value":19.0909090909,"Ore_Disponibili":22,"lat":40.896,"lon":14.46,"date_only":"2025-01-22T00:00:00.000"},{"station":"IT2212A","station_name":"San Vitaliano Scuola Elementare Marconi","pollutant":"PM10","date":"2025-01-22T00:00:00.000","value":63.4708333333,"Ore_Disponibili":24,"lat":40.896,"lon":14.46,"date_only":"2025-01-22T00:00:00.000"},{"station":"IT2212A","station_name":"San Vitaliano Scuola Elementare Marconi","pollutant":"PM2,5","date":"2025-01-22T00:00:00.000","value":55.2,"Ore_Disponibili":24,"lat":40.896,"lon":14.46,"date_only":"2025-01-22T00:00:00.000"},{"station":"IT2213A","station_name":"CAVA DEI TIRRENI - STADIO","pollutant":"CO","date":"2025-01-22T00:00:00.000","value":0.8304347826,"Ore_Disponibili":23,"lat":44.4937761,"lon":11.3101851,"date_only":"2025-01-22T00:00:00.000"},{"station":"IT2213A","station_name":"CAVA DEI TIRRENI - STADIO","pollutant":"NO2","date":"2025-01-22T00:00:00.000","value":34.1826086957,"Ore_Disponibili":23,"lat":44.4937761,"lon":11.3101851,"date_only":"2025-01-22T00:00:00.000"},{"station":"IT2213A","station_name":"CAVA DEI TIRRENI - STADIO","pollutant":"O3","date":"2025-01-22T00:00:00.000","value":36.552173913,"Ore_Disponibili":23,"lat":44.4937761,"lon":11.3101851,"date_only":"2025-01-22T00:00:00.000"},{"station":"IT2213A","station_name":"CAVA DEI TIRRENI - STADIO","pollutant":"PM10","date":"2025-01-22T00:00:00.000","value":15.6333333333,"Ore_Disponibili":24,"lat":44.4937761,"lon":11.3101851,"date_only":"2025-01-22T00:00:00.000"},{"station":"IT2213A","station_name":"CAVA DEI TIRRENI - STADIO","pollutant":"PM2,5","date":"2025-01-22T00:00:00.000","value":12.8166666667,"Ore_Disponibili":24,"lat":44.4937761,"lon":11.3101851,"date_only":"2025-01-22T00:00:00.000"},{"station":"IT2214A","station_name":"Nocera Inferiore scuola Solimene","pollutant":"CO","date":"2025-01-22T00:00:00.000","value":0.5363636364,"Ore_Disponibili":22,"lat":40.7445,"lon":14.734,"date_only":"2025-01-22T00:00:00.000"},{"station":"IT2214A","station_name":"Nocera Inferiore scuola Solimene","pollutant":"NO2","date":"2025-01-22T00:00:00.000","value":38.1869565217,"Ore_Disponibili":23,"lat":40.7445,"lon":14.734,"date_only":"2025-01-22T00:00:00.000"},{"station":"IT2214A","station_name":"Nocera Inferiore scuola Solimene","pollutant":"PM10","date":"2025-01-22T00:00:00.000","value":21.1,"Ore_Disponibili":24,"lat":40.7445,"lon":14.734,"date_only":"2025-01-22T00:00:00.000"},{"station":"IT2214A","station_name":"Nocera Inferiore scuola Solimene","pollutant":"PM2,5","date":"2025-01-22T00:00:00.000","value":16.6125,"Ore_Disponibili":24,"lat":40.7445,"lon":14.734,"date_only":"2025-01-22T00:00:00.000"},{"station":"IT2215A","station_name":"BENEVENTO ZONA INDUSTRIALE","pollutant":"NO2","date":"2025-01-22T00:00:00.000","value":14.3958333333,"Ore_Disponibili":24,"lat":41.2293368,"lon":14.4782074,"date_only":"2025-01-22T00:00:00.000"},{"station":"IT2215A","station_name":"BENEVENTO ZONA INDUSTRIALE","pollutant":"O3","date":"2025-01-22T00:00:00.000","value":26.3608695652,"Ore_Disponibili":23,"lat":41.2293368,"lon":14.4782074,"date_only":"2025-01-22T00:00:00.000"},{"station":"IT2215A","station_name":"BENEVENTO ZONA INDUSTRIALE","pollutant":"PM10","date":"2025-01-22T00:00:00.000","value":19.7875,"Ore_Disponibili":24,"lat":41.2293368,"lon":14.4782074,"date_only":"2025-01-22T00:00:00.000"},{"station":"IT2215A","station_name":"BENEVENTO ZONA INDUSTRIALE","pollutant":"PM2,5","date":"2025-01-22T00:00:00.000","value":14.0708333333,"Ore_Disponibili":24,"lat":41.2293368,"lon":14.4782074,"date_only":"2025-01-22T00:00:00.000"},{"station":"IT2216A","station_name":"Casoria Scuola Palizzi (CAM)","pollutant":"O3","date":"2025-01-22T00:00:00.000","value":17.5782608696,"Ore_Disponibili":23,"lat":40.904,"lon":14.289,"date_only":"2025-01-22T00:00:00.000"},{"station":"IT2216A","station_name":"Casoria Scuola Palizzi (CAM)","pollutant":"PM10","date":"2025-01-22T00:00:00.000","value":46.0958333333,"Ore_Disponibili":24,"lat":40.904,"lon":14.289,"date_only":"2025-01-22T00:00:00.000"},{"station":"IT2216A","station_name":"Casoria Scuola Palizzi (CAM)","pollutant":"PM2,5","date":"2025-01-22T00:00:00.000","value":40.375,"Ore_Disponibili":24,"lat":40.904,"lon":14.289,"date_only":"2025-01-22T00:00:00.000"},{"station":"IT2217A","station_name":"Torre Annunziata Scuola Media Pascoli","pollutant":"NO2","date":"2025-01-22T00:00:00.000","value":16.147826087,"Ore_Disponibili":23,"lat":40.831,"lon":14.426,"date_only":"2025-01-22T00:00:00.000"},{"station":"IT2217A","station_name":"Torre Annunziata Scuola Media Pascoli","pollutant":"O3","date":"2025-01-22T00:00:00.000","value":51.8,"Ore_Disponibili":23,"lat":40.831,"lon":14.426,"date_only":"2025-01-22T00:00:00.000"},{"station":"IT2218A","station_name":"San Felice a Cancello Complesso scolastico","pollutant":"CO","date":"2025-01-22T00:00:00.000","value":0.5541666667,"Ore_Disponibili":24,"lat":41.015,"lon":14.287,"date_only":"2025-01-22T00:00:00.000"},{"station":"IT2218A","station_name":"San Felice a Cancello Complesso scolastico","pollutant":"NO2","date":"2025-01-22T00:00:00.000","value":29.6583333333,"Ore_Disponibili":24,"lat":41.015,"lon":14.287,"date_only":"2025-01-22T00:00:00.000"},{"station":"IT2218A","station_name":"San Felice a Cancello Complesso scolastico","pollutant":"O3","date":"2025-01-22T00:00:00.000","value":22.0782608696,"Ore_Disponibili":23,"lat":41.015,"lon":14.287,"date_only":"2025-01-22T00:00:00.000"},{"station":"IT2218A","station_name":"San Felice a Cancello Complesso scolastico","pollutant":"PM10","date":"2025-01-22T00:00:00.000","value":38.0416666667,"Ore_Disponibili":24,"lat":41.015,"lon":14.287,"date_only":"2025-01-22T00:00:00.000"},{"station":"IT2218A","station_name":"San Felice a Cancello Complesso scolastico","pollutant":"PM2,5","date":"2025-01-22T00:00:00.000","value":26.4583333333,"Ore_Disponibili":24,"lat":41.015,"lon":14.287,"date_only":"2025-01-22T00:00:00.000"},{"station":"IT2219A","station_name":"Acerra scuola Caporale","pollutant":"CO","date":"2025-01-22T00:00:00.000","value":1.1,"Ore_Disponibili":23,"lat":40.9169,"lon":14.3425,"date_only":"2025-01-22T00:00:00.000"},{"station":"IT2219A","station_name":"Acerra scuola Caporale","pollutant":"NO2","date":"2025-01-22T00:00:00.000","value":38.9086956522,"Ore_Disponibili":23,"lat":40.9169,"lon":14.3425,"date_only":"2025-01-22T00:00:00.000"},{"station":"IT2219A","station_name":"Acerra scuola Caporale","pollutant":"PM10","date":"2025-01-22T00:00:00.000","value":47.8041666667,"Ore_Disponibili":24,"lat":40.9169,"lon":14.3425,"date_only":"2025-01-22T00:00:00.000"},{"station":"IT2219A","station_name":"Acerra scuola Caporale","pollutant":"PM2,5","date":"2025-01-22T00:00:00.000","value":37.8375,"Ore_Disponibili":24,"lat":40.9169,"lon":14.3425,"date_only":"2025-01-22T00:00:00.000"},{"station":"IT2221A","station_name":"Napoli via Epomeo","pollutant":"CO","date":"2025-01-22T00:00:00.000","value":0.8913043478,"Ore_Disponibili":23,"lat":40.7205434,"lon":13.8987737,"date_only":"2025-01-22T00:00:00.000"},{"station":"IT2221A","station_name":"Napoli via Epomeo","pollutant":"NO2","date":"2025-01-22T00:00:00.000","value":32.5043478261,"Ore_Disponibili":23,"lat":40.7205434,"lon":13.8987737,"date_only":"2025-01-22T00:00:00.000"},{"station":"IT2221A","station_name":"Napoli via Epomeo","pollutant":"O3","date":"2025-01-22T00:00:00.000","value":8.7695652174,"Ore_Disponibili":23,"lat":40.7205434,"lon":13.8987737,"date_only":"2025-01-22T00:00:00.000"},{"station":"IT2221A","station_name":"Napoli via Epomeo","pollutant":"PM10","date":"2025-01-22T00:00:00.000","value":16.5416666667,"Ore_Disponibili":24,"lat":40.7205434,"lon":13.8987737,"date_only":"2025-01-22T00:00:00.000"},{"station":"IT2221A","station_name":"Napoli via Epomeo","pollutant":"PM2,5","date":"2025-01-22T00:00:00.000","value":12.4416666667,"Ore_Disponibili":24,"lat":40.7205434,"lon":13.8987737,"date_only":"2025-01-22T00:00:00.000"},{"station":"IT2223A","station_name":"Volla via Filichito","pollutant":"CO","date":"2025-01-22T00:00:00.000","value":1.3826086957,"Ore_Disponibili":23,"lat":40.8824226,"lon":14.3478545,"date_only":"2025-01-22T00:00:00.000"},{"station":"IT2223A","station_name":"Volla via Filichito","pollutant":"NO2","date":"2025-01-22T00:00:00.000","value":47.3291666667,"Ore_Disponibili":24,"lat":40.8824226,"lon":14.3478545,"date_only":"2025-01-22T00:00:00.000"},{"station":"IT2223A","station_name":"Volla via Filichito","pollutant":"O3","date":"2025-01-22T00:00:00.000","value":13.5695652174,"Ore_Disponibili":23,"lat":40.8824226,"lon":14.3478545,"date_only":"2025-01-22T00:00:00.000"},{"station":"IT2223A","station_name":"Volla via Filichito","pollutant":"PM10","date":"2025-01-22T00:00:00.000","value":35.4041666667,"Ore_Disponibili":24,"lat":40.8824226,"lon":14.3478545,"date_only":"2025-01-22T00:00:00.000"},{"station":"IT2223A","station_name":"Volla via Filichito","pollutant":"PM2,5","date":"2025-01-22T00:00:00.000","value":29.9791666667,"Ore_Disponibili":24,"lat":40.8824226,"lon":14.3478545,"date_only":"2025-01-22T00:00:00.000"},{"station":"IT2226A","station_name":"Pomigliano d'Arco Area ASI","pollutant":"CO","date":"2025-01-22T00:00:00.000","value":0.6476190476,"Ore_Disponibili":21,"lat":40.9075,"lon":14.393,"date_only":"2025-01-22T00:00:00.000"},{"station":"IT2226A","station_name":"Pomigliano d'Arco Area ASI","pollutant":"NO2","date":"2025-01-22T00:00:00.000","value":58.8260869565,"Ore_Disponibili":23,"lat":40.9075,"lon":14.393,"date_only":"2025-01-22T00:00:00.000"},{"station":"IT2226A","station_name":"Pomigliano d'Arco Area ASI","pollutant":"PM10","date":"2025-01-22T00:00:00.000","value":32.0416666667,"Ore_Disponibili":24,"lat":40.9075,"lon":14.393,"date_only":"2025-01-22T00:00:00.000"},{"station":"IT2226A","station_name":"Pomigliano d'Arco Area ASI","pollutant":"PM2,5","date":"2025-01-22T00:00:00.000","value":26.1666666667,"Ore_Disponibili":24,"lat":40.9075,"lon":14.393,"date_only":"2025-01-22T00:00:00.000"},{"station":"IT2227A","station_name":"AVELLINO - SCUOLA ALIGHIERI","pollutant":"CO","date":"2025-01-22T00:00:00.000","value":0.5391304348,"Ore_Disponibili":23,"lat":40.9190395,"lon":14.784947,"date_only":"2025-01-22T00:00:00.000"},{"station":"IT2227A","station_name":"AVELLINO - SCUOLA ALIGHIERI","pollutant":"NO2","date":"2025-01-22T00:00:00.000","value":32.6041666667,"Ore_Disponibili":24,"lat":40.9190395,"lon":14.784947,"date_only":"2025-01-22T00:00:00.000"},{"station":"IT2227A","station_name":"AVELLINO - SCUOLA ALIGHIERI","pollutant":"PM10","date":"2025-01-22T00:00:00.000","value":6.4666666667,"Ore_Disponibili":24,"lat":40.9190395,"lon":14.784947,"date_only":"2025-01-22T00:00:00.000"},{"station":"IT2227A","station_name":"AVELLINO - SCUOLA ALIGHIERI","pollutant":"PM2,5","date":"2025-01-22T00:00:00.000","value":3.8,"Ore_Disponibili":24,"lat":40.9190395,"lon":14.784947,"date_only":"2025-01-22T00:00:00.000"},{"station":"IT2228A","station_name":"BENEVENTO CAMPO SPORTIVO","pollutant":"NO2","date":"2025-01-22T00:00:00.000","value":28.7041666667,"Ore_Disponibili":24,"lat":41.2315276,"lon":14.5332703,"date_only":"2025-01-22T00:00:00.000"},{"station":"IT2228A","station_name":"BENEVENTO CAMPO SPORTIVO","pollutant":"O3","date":"2025-01-22T00:00:00.000","value":9.0652173913,"Ore_Disponibili":23,"lat":41.2315276,"lon":14.5332703,"date_only":"2025-01-22T00:00:00.000"},{"station":"IT2228A","station_name":"BENEVENTO CAMPO SPORTIVO","pollutant":"PM10","date":"2025-01-22T00:00:00.000","value":28.2083333333,"Ore_Disponibili":24,"lat":41.2315276,"lon":14.5332703,"date_only":"2025-01-22T00:00:00.000"},{"station":"IT2228A","station_name":"BENEVENTO CAMPO SPORTIVO","pollutant":"PM2,5","date":"2025-01-22T00:00:00.000","value":22.0958333333,"Ore_Disponibili":24,"lat":41.2315276,"lon":14.5332703,"date_only":"2025-01-22T00:00:00.000"},{"station":"IT2268A","station_name":"BATTIPAGLIA - PARCO FIUME","pollutant":"NO2","date":"2025-01-22T00:00:00.000","value":23.5695652174,"Ore_Disponibili":23,"lat":44.3859682,"lon":7.5509829,"date_only":"2025-01-22T00:00:00.000"},{"station":"IT2268A","station_name":"BATTIPAGLIA - PARCO FIUME","pollutant":"O3","date":"2025-01-22T00:00:00.000","value":31.747826087,"Ore_Disponibili":23,"lat":44.3859682,"lon":7.5509829,"date_only":"2025-01-22T00:00:00.000"},{"station":"IT2268A","station_name":"BATTIPAGLIA - PARCO FIUME","pollutant":"PM10","date":"2025-01-22T00:00:00.000","value":19.9,"Ore_Disponibili":24,"lat":44.3859682,"lon":7.5509829,"date_only":"2025-01-22T00:00:00.000"},{"station":"IT2268A","station_name":"BATTIPAGLIA - PARCO FIUME","pollutant":"PM2,5","date":"2025-01-22T00:00:00.000","value":8.6,"Ore_Disponibili":24,"lat":44.3859682,"lon":7.5509829,"date_only":"2025-01-22T00:00:00.000"},{"station":"IT2270A","station_name":"Portici parco Reggia","pollutant":"NO2","date":"2025-01-22T00:00:00.000","value":31.9304347826,"Ore_Disponibili":23,"lat":40.813588,"lon":14.3476526,"date_only":"2025-01-22T00:00:00.000"},{"station":"IT2270A","station_name":"Portici parco Reggia","pollutant":"O3","date":"2025-01-22T00:00:00.000","value":29.4608695652,"Ore_Disponibili":23,"lat":40.813588,"lon":14.3476526,"date_only":"2025-01-22T00:00:00.000"},{"station":"IT2270A","station_name":"Portici parco Reggia","pollutant":"PM10","date":"2025-01-22T00:00:00.000","value":13.3708333333,"Ore_Disponibili":24,"lat":40.813588,"lon":14.3476526,"date_only":"2025-01-22T00:00:00.000"},{"station":"IT2270A","station_name":"Portici parco Reggia","pollutant":"PM2,5","date":"2025-01-22T00:00:00.000","value":10.4875,"Ore_Disponibili":24,"lat":40.813588,"lon":14.3476526,"date_only":"2025-01-22T00:00:00.000"},{"station":"IT2271A","station_name":"Aversa scuola Cirillo","pollutant":"CO","date":"2025-01-22T00:00:00.000","value":1.347826087,"Ore_Disponibili":23,"lat":40.9758352,"lon":14.2117669,"date_only":"2025-01-22T00:00:00.000"},{"station":"IT2271A","station_name":"Aversa scuola Cirillo","pollutant":"NO2","date":"2025-01-22T00:00:00.000","value":57.1869565217,"Ore_Disponibili":23,"lat":40.9758352,"lon":14.2117669,"date_only":"2025-01-22T00:00:00.000"},{"station":"IT2271A","station_name":"Aversa scuola Cirillo","pollutant":"PM10","date":"2025-01-22T00:00:00.000","value":54.9833333333,"Ore_Disponibili":24,"lat":40.9758352,"lon":14.2117669,"date_only":"2025-01-22T00:00:00.000"},{"station":"IT2271A","station_name":"Aversa scuola Cirillo","pollutant":"PM2,5","date":"2025-01-22T00:00:00.000","value":45.6625,"Ore_Disponibili":24,"lat":40.9758352,"lon":14.2117669,"date_only":"2025-01-22T00:00:00.000"},{"station":"IT2272A","station_name":"Pozzuoli ex Villa Avellino","pollutant":"NO2","date":"2025-01-22T00:00:00.000","value":17.7458333333,"Ore_Disponibili":24,"lat":40.834,"lon":14.119,"date_only":"2025-01-22T00:00:00.000"},{"station":"IT2272A","station_name":"Pozzuoli ex Villa Avellino","pollutant":"O3","date":"2025-01-22T00:00:00.000","value":37.5458333333,"Ore_Disponibili":24,"lat":40.834,"lon":14.119,"date_only":"2025-01-22T00:00:00.000"},{"station":"IT2272A","station_name":"Pozzuoli ex Villa Avellino","pollutant":"PM10","date":"2025-01-22T00:00:00.000","value":13.475,"Ore_Disponibili":24,"lat":40.834,"lon":14.119,"date_only":"2025-01-22T00:00:00.000"},{"station":"IT2272A","station_name":"Pozzuoli ex Villa Avellino","pollutant":"PM2,5","date":"2025-01-22T00:00:00.000","value":8.5375,"Ore_Disponibili":24,"lat":40.834,"lon":14.119,"date_only":"2025-01-22T00:00:00.000"},{"station":"IT2273A","station_name":"Polla Area tritovagliatore","pollutant":"CO","date":"2025-01-22T00:00:00.000","value":0.4086956522,"Ore_Disponibili":23,"lat":40.412,"lon":15.341,"date_only":"2025-01-22T00:00:00.000"},{"station":"IT2273A","station_name":"Polla Area tritovagliatore","pollutant":"NO2","date":"2025-01-22T00:00:00.000","value":32.6772727273,"Ore_Disponibili":22,"lat":40.412,"lon":15.341,"date_only":"2025-01-22T00:00:00.000"},{"station":"IT2273A","station_name":"Polla Area tritovagliatore","pollutant":"PM10","date":"2025-01-22T00:00:00.000","value":16.9666666667,"Ore_Disponibili":24,"lat":40.412,"lon":15.341,"date_only":"2025-01-22T00:00:00.000"},{"station":"IT2273A","station_name":"Polla Area tritovagliatore","pollutant":"PM2,5","date":"2025-01-22T00:00:00.000","value":14.7833333333,"Ore_Disponibili":24,"lat":40.412,"lon":15.341,"date_only":"2025-01-22T00:00:00.000"},{"station":"IT2276A","station_name":"Ariano Irpino Villa Comunale","pollutant":"CO","date":"2025-01-22T00:00:00.000","value":0.952173913,"Ore_Disponibili":23,"lat":41.1549432,"lon":15.0951624,"date_only":"2025-01-22T00:00:00.000"},{"station":"IT2276A","station_name":"Ariano Irpino Villa Comunale","pollutant":"NO2","date":"2025-01-22T00:00:00.000","value":9.05,"Ore_Disponibili":24,"lat":41.1549432,"lon":15.0951624,"date_only":"2025-01-22T00:00:00.000"},{"station":"IT2276A","station_name":"Ariano Irpino Villa Comunale","pollutant":"O3","date":"2025-01-22T00:00:00.000","value":74.7043478261,"Ore_Disponibili":23,"lat":41.1549432,"lon":15.0951624,"date_only":"2025-01-22T00:00:00.000"},{"station":"IT2277A","station_name":"Napoli parco Virgiliano","pollutant":"CO","date":"2025-01-22T00:00:00.000","value":0.4391304348,"Ore_Disponibili":23,"lat":40.7984999,"lon":14.1790765,"date_only":"2025-01-22T00:00:00.000"},{"station":"IT2277A","station_name":"Napoli parco Virgiliano","pollutant":"NO2","date":"2025-01-22T00:00:00.000","value":18.4782608696,"Ore_Disponibili":23,"lat":40.7984999,"lon":14.1790765,"date_only":"2025-01-22T00:00:00.000"},{"station":"IT2277A","station_name":"Napoli parco Virgiliano","pollutant":"O3","date":"2025-01-22T00:00:00.000","value":65.1791666667,"Ore_Disponibili":24,"lat":40.7984999,"lon":14.1790765,"date_only":"2025-01-22T00:00:00.000"},{"station":"IT2277A","station_name":"Napoli parco Virgiliano","pollutant":"PM10","date":"2025-01-22T00:00:00.000","value":11.2,"Ore_Disponibili":24,"lat":40.7984999,"lon":14.1790765,"date_only":"2025-01-22T00:00:00.000"},{"station":"IT2277A","station_name":"Napoli parco Virgiliano","pollutant":"PM2,5","date":"2025-01-22T00:00:00.000","value":7.0,"Ore_Disponibili":24,"lat":40.7984999,"lon":14.1790765,"date_only":"2025-01-22T00:00:00.000"},{"station":"IT2283A","station_name":"OTTATI - ALBURNI","pollutant":"NO2","date":"2025-01-22T00:00:00.000","value":1.2913043478,"Ore_Disponibili":23,"lat":40.560311,"lon":15.303957,"date_only":"2025-01-22T00:00:00.000"},{"station":"IT2283A","station_name":"OTTATI - ALBURNI","pollutant":"O3","date":"2025-01-22T00:00:00.000","value":71.452173913,"Ore_Disponibili":23,"lat":40.560311,"lon":15.303957,"date_only":"2025-01-22T00:00:00.000"},{"station":"IT2283A","station_name":"OTTATI - ALBURNI","pollutant":"PM10","date":"2025-01-22T00:00:00.000","value":8.9,"Ore_Disponibili":24,"lat":40.560311,"lon":15.303957,"date_only":"2025-01-22T00:00:00.000"},{"station":"IT2283A","station_name":"OTTATI - ALBURNI","pollutant":"PM2,5","date":"2025-01-22T00:00:00.000","value":2.6,"Ore_Disponibili":24,"lat":40.560311,"lon":15.303957,"date_only":"2025-01-22T00:00:00.000"}]